     2.10           OBSERVATION DATA    G (GPS)             RINEX VERSION / TYPE
GOGEO               M.KREJ              20230623 173725 UTC PGM / RUN BY / DATE 
COMMENT1                                                    COMMENT             
MARKER1                                                     MARKER NAME         
                                                            MARKER NUMBER       
MKREJ               INNOVA                                  OBSERVER / AGENCY   
RCV1                                                        REC # / TYPE / VERS 
ANT1                                                        ANT # / TYPE        
  3642325.0000  1411093.3420  5025370.3360                  APPROX POSITION XYZ 
        0.0000        0.0000        0.0000                  ANTENNA: DELTA H/E/N
     1     1                                                WAVELENGTH FACT L1/2
     3    C1    L1    S1                                    # / TYPES OF OBSERV 
     1.000                                                  INTERVAL            
  2014    12    20     0     0   19.6540000     GPS         TIME OF FIRST OBS   
  2014    12    20     0     0   19.6540000     GPS         TIME OF LAST OBS    
                                                            END OF HEADER       
 14 12 20  0  0 19.6540000  0  1G12
   -117007.637                1         63.750  
 14 12 20  0  0 20.6540000  0  1G12
   -116917.601         465.031          63.750  
 14 12 20  0  0 21.6540000  0  1G12
   -116828.711         930.544          63.750  
 14 12 20  0  0 22.6540000  0  1G12
   -116741.470        1396.194          63.750  
 14 12 20  0  0 23.6540000  0  1G12
   -116652.906        1862.356          63.750  
 14 12 20  0  0 24.6540000  0  1G12
   -116564.246        2328.954          63.750  
 14 12 20  0  0 25.6540000  0  3G12G25G 2
   -116475.016        2796.079          63.750  
   1055727.034      106221.332          63.750  
   2514759.612      109205.784          63.750  
 14 12 20  0  0 26.6540000  0  3G12G25G 2
   -116385.247        3263.346          63.750  
   1055342.057      104203.519          63.750  
   2514364.714      107165.015          63.750  
 14 12 20  0  0 27.6540000  0  3G12G25G 2
   -116296.040        3731.451          63.750  
   1054958.283      102186.424          63.750  
   2513978.265      105125.048          63.750  
 14 12 20  0  0 28.6540000  0  3G12G25G 2
   -116206.846        4200.490          63.750  
   1054572.520      100170.156          63.750  
   2513590.378      103085.985          63.750  
 14 12 20  0  0 29.6540000  0  3G12G25G 2
   -116116.856        4668.731          63.750  
   1054188.776       98152.978          63.750  
   2513202.875      101046.106          63.750  
 14 12 20  0  0 30.6540000  0  3G12G25G 2
   -116028.142        5137.544          63.750  
   1053805.774       96136.247          63.750  
   2512814.646       99006.753          63.750  
 14 12 20  0  0 31.6540000  0  3G12G25G 2
   -115939.871        5607.495          63.750  
   1053422.491       94120.520          63.750  
   2512426.967       96968.486          63.750  
 14 12 20  0  0 32.6540000  0  3G12G25G 2
   -115850.162        6077.859          63.750  
   1053039.385       92105.112          63.750  
   2512038.696       94930.618          63.750  
 14 12 20  0  0 33.6540000  0  3G12G25G 2
   -115761.010        6548.672          63.750  
   1052655.295       90090.028          63.750  
   2511651.367       92893.177          63.750  
 14 12 20  0  0 34.6540000  0  3G12G25G 2
   -115670.962        7020.437          63.750  
   1052272.024       88075.789          63.750  
   2511262.847       90856.653          63.750  
 14 12 20  0  0 35.6540000  0  3G12G25G 2
   -115581.604        7491.402          63.750  
   1051887.645       86060.620          63.750  
   2510875.572       88819.289          63.750  
 14 12 20  0  0 36.6540000  0  3G12G25G 2
   -115492.032        7962.554          63.750  
   1051504.055       84045.533          63.750  
   2510488.410       86782.085          63.750  
 14 12 20  0  0 37.6540000  0  3G12G25G 2
   -115401.431        8435.136          63.750  
   1051121.608       82031.755          63.750  
   2510100.017       84746.279          63.750  
 14 12 20  0  0 38.6540000  0  3G12G25G 2
   -115311.412        8908.500          63.750  
   1050739.277       80018.656          63.750  
   2509713.741       82711.226          63.750  
 14 12 20  0  0 39.6540000  0  3G12G25G 2
   -115220.815        9382.358          63.750  
   1050355.799       78005.920          63.750  
   2509325.734       80676.641          63.750  
 14 12 20  0  0 40.6540000  0  3G12G25G 2
   -115130.770        9857.026          63.750  
   1049972.709       75993.888          63.750  
   2508939.058       78642.833          63.750  
 14 12 20  0  0 41.6540000  0  3G12G25G 2
   -115039.401       10332.834          63.750  
   1049590.739       73982.877          63.750  
   2508553.364       76610.127          63.750  
 14 12 20  0  0 42.6540000  0  3G12G25G 2
   -114949.550       10809.507          63.750  
   1049206.795       71972.615          63.750  
   2508166.439       74578.270          63.750  
 14 12 20  0  0 43.6540000  0  3G12G25G 2
   -114857.846       11286.060          63.750  
   1048824.995       69962.116          63.750  
   2507779.274       72546.250          63.750  
 14 12 20  0  0 44.6540000  0  3G12G25G 2
   -114768.338       11763.254          63.750  
   1048441.472       67952.145          63.750  
   2507392.467       70514.845          63.750  
 14 12 20  0  0 45.6540000  0  3G12G25G 2
   -114677.006       12240.393          63.750  
   1048059.537       65942.009          63.750  
   2507006.484       68483.359          63.750  
 14 12 20  0  0 46.6540000  0  3G12G25G 2
   -114586.210       12717.930          63.750  
   1047677.379       63932.146          63.750  
   2506619.518       66452.235          63.750  
 14 12 20  0  0 47.6540000  0  3G12G25G 2
   -114495.776       13195.978          63.750  
   1047294.901       61922.686          63.750  
   2506233.658       64421.587          63.750  
 14 12 20  0  0 48.6540000  0  3G12G25G 2
   -114404.545       13674.057          63.750  
   1046912.129       59913.137          63.750  
   2505845.146       62390.948          63.750  
 14 12 20  0  0 49.6540000  0  3G12G25G 2
   -114314.107       14153.737          63.750  
   1046529.674       57905.074          63.750  
   2505460.443       60361.881          63.750  
 14 12 20  0  0 50.6540000  0  3G12G25G 2
   -114221.837       14635.565          63.750  
   1046148.274       55899.047          63.750  
   2505074.771       58334.931          63.750  
 14 12 20  0  0 51.6540000  0  3G12G25G 2
   -114130.689       15117.404          63.750  
   1045766.651       53892.921          63.750  
   2504687.722       56307.955          63.750  
 14 12 20  0  0 52.6540000  0  3G12G25G 2
   -114038.090       15599.761          63.750  
   1045384.140       51887.189          63.750  
   2504302.884       54281.474          63.750  
 14 12 20  0  0 53.6540000  0  3G12G25G 2
   -113947.127       16081.972          63.750  
   1045003.377       49881.192          63.750  
   2503917.386       52254.822          63.750  
 14 12 20  0  0 54.6540000  0  3G12G25G 2
   -113855.257       16564.588          63.750  
   1044622.054       47875.495          63.750  
   2503532.451       50228.534          63.750  
 14 12 20  0  0 55.6540000  0  3G12G25G 2
   -113762.900       17048.648          63.750  
   1044239.974       45871.127          63.750  
   2503147.029       48203.675          63.750  
 14 12 20  0  0 56.6540000  0  3G12G25G 2
   -113670.131       17532.714          63.750  
   1043859.454       43866.652          63.750  
   2502761.314       46178.777          63.750  
 14 12 20  0  0 57.6540000  0  3G12G25G 2
   -113578.463       18017.157          63.750  
   1043477.779       41862.432          63.750  
   2502376.234       44154.239          63.750  
 14 12 20  0  0 58.6540000  0  3G12G25G 2
   -113486.060       18501.833          63.750  
   1043095.747       39858.329          63.750  
   2501990.092       42129.900          63.750  
 14 12 20  0  0 59.6540000  0  3G12G25G 2
   -113393.839       18986.655          63.750  
   1042714.593       37854.264          63.750  
   2501604.589       40105.678          63.750  
 14 12 20  0  1  0.6540000  0  3G12G25G 2
   -113301.453       19471.705          63.750  
   1042333.069       35850.307          63.750  
   2501221.261       38081.655          63.750  
 14 12 20  0  1  1.6540000  0  3G12G25G 2
   -113208.311       19957.356          63.750  
   1041951.677       33846.838          63.750  
   2500834.915       36058.207          63.750  
 14 12 20  0  1  2.6540000  0  3G12G25G 2
   -113116.148       20443.239          63.750  
   1041570.795       31843.495          63.750  
   2500450.401       34034.965          63.750  
 14 12 20  0  1  3.6540000  0  3G12G25G 2
   -113023.433       20929.961          63.750  
   1041189.938       29840.864          63.750  
   2500066.386       32012.521          63.750  
 14 12 20  0  1  4.6540000  0  3G12G25G 2
   -112930.543       21417.221          63.750  
   1040808.437       27838.660          63.750  
   2499680.983       29990.599          63.750  
 14 12 20  0  1  5.6540000  0  3G12G25G 2
   -112838.510       21906.872          63.750  
   1040428.032       25838.735          63.750  
   2499297.196       27971.032          63.750  
 14 12 20  0  1  6.6540000  0  3G12G25G 2
   -112743.444       22396.410          63.750  
   1040047.680       23838.581          63.750  
   2498911.546       25951.325          63.750  
 14 12 20  0  1  7.6540000  0  3G12G25G 2
   -112651.063       22886.186          63.750  
   1039666.077       21838.552          63.750  
   2498528.017       23931.830          63.750  
 14 12 20  0  1  8.6540000  0  3G12G25G 2
   -112557.813       23377.939          63.750  
   1039286.744       19840.393          63.750  
   2498144.085       21914.287          63.750  
 14 12 20  0  1  9.6540000  0  3G12G25G 2
   -112464.567       23868.920          63.750  
   1038906.434       17841.339          63.750  
   2497760.051       19895.939          63.750  
 14 12 20  0  1 10.6540000  0  3G12G25G 2
   -112371.073       24359.639          63.750  
   1038525.433       15841.910          63.750  
   2497376.238       17877.297          63.750  
 14 12 20  0  1 11.6540000  0  3G12G25G 2
   -112277.698       24850.469          63.750  
   1038145.697       13842.471          63.750  
   2496991.437       15858.748          63.750  
 14 12 20  0  1 12.6540000  0  3G12G25G 2
   -112183.791       25341.327          63.750  
   1037764.590       11842.963          63.750  
   2496607.843       13840.196          63.750  
 14 12 20  0  1 13.6540000  0  4G12G25G 2G24
   -112090.778       25832.809          63.750  
   1037384.637        9843.951          63.750  
   2496223.444       11822.237          63.750  
   1254724.294      110680.680          63.750  
 14 12 20  0  1 14.6540000  0  4G12G25G 2G24
   -111997.229       26324.694          63.750  
   1037003.623        7845.229          63.750  
   2495840.474        9804.654          63.750  
   1255237.229      113379.805          63.750  
 14 12 20  0  1 15.6540000  0  4G12G25G 2G24
   -111903.393       26816.491          63.750  
   1036623.904        5846.320          63.750  
   2495456.229        7786.967          63.750  
   1255751.258      116078.854          63.750  
 14 12 20  0  1 16.6540000  0  4G12G25G 2G24
   -111809.890       27309.094          63.750  
   1036243.148        3848.082          63.750  
   2495071.981        5770.042          63.750  
   1256263.920      118778.688          63.750  
 14 12 20  0  1 17.6540000  0  4G12G25G 2G24
   -111716.394       27802.213          63.750  
   1035863.592        1850.256          63.750  
   2494687.897        3753.616          63.750  
   1256776.990      121479.053          63.750  
 14 12 20  0  1 18.6540000  0  4G12G25G 2G24
   -111622.297       28295.768          63.750  
   1035482.767        -147.248          63.750  
   2494304.827        1737.599          63.750  
   1257291.426      124179.866          63.750  
 14 12 20  0  1 19.6540000  0  7G12G29G25G 2G24G 6G14
   -111527.420       28790.307          63.750  
   3519259.298       81827.395          63.750  
   1035102.928       -2143.876          63.750  
   2493921.417        -277.469          63.750  
   1257806.585      126881.656          63.750  
   2300993.613       10903.439          63.750  
   2399368.188       79824.941          63.750  
 14 12 20  0  1 20.6540000  0  7G12G29G25G 2G24G 6G14
   -111433.372       29286.021          63.750  
   3518589.039       78297.529          63.750  
   1034723.405       -4139.450          63.750  
   2493537.562       -2291.385          63.750  
   1258320.615      129584.620          63.750  
   2301021.884       11052.442          63.750  
   2399421.692       80115.694          63.750  
 14 12 20  0  1 21.6540000  0  7G12G29G25G 2G24G 6G14
   -111339.322       29782.052          63.750  
   3517919.019       74767.703          63.750  
   1034343.016       -6134.822          63.750  
   2493154.623       -4305.012          63.750  
   1258835.034      132287.894          63.750  
   2301051.244       11201.990          63.750  
   2399478.552       80406.963          63.750  
 14 12 20  0  1 22.6540000  0  7G12G29G25G 2G24G 6G14
   -111245.467       30277.894          63.750  
   3517248.296       71237.456          63.750  
   1033964.492       -8130.487          63.750  
   2492772.390       -6318.853          63.750  
   1259348.998      134990.988          63.750  
   2301080.786       11351.604          63.750  
   2399533.158       80698.279          63.750  
 14 12 20  0  1 23.6540000  0  7G12G29G25G 2G24G 6G14
   -111150.793       30774.130          63.750  
   3516575.174       67707.292          63.750  
   1033584.414      -10125.880          63.750  
   2492388.904       -8332.325          63.750  
   1259863.479      137694.480          63.750  
   2301108.155       11501.848          63.750  
   2399590.630       80990.182          63.750  
 14 12 20  0  1 24.6540000  0  7G12G29G25G 2G24G 6G14
   -111056.199       31271.313          63.750  
   3515903.298       64177.820          63.750  
   1033204.699      -12120.438          63.750  
   2492004.835      -10344.879          63.750  
   1260376.892      140398.923          63.750  
   2301135.727       11653.271          63.750  
   2399643.905       81283.247          63.750  
 14 12 20  0  1 25.6540000  0  7G12G29G25G 2G24G 6G14
   -110961.757       31769.570          63.750  
   3515233.295       60649.139          63.750  
   1032824.970      -14114.033          63.750  
   2491622.114      -12356.386          63.750  
   1260892.634      143104.431          63.750  
   2301166.290       11806.006          63.750  
   2399699.513       81577.600          63.750  
 14 12 20  0  1 26.6540000  0  7G12G29G25G 2G24G 6G14
   -110866.596       32267.632          63.750  
   3514558.683       57119.993          63.750  
   1032446.206      -16107.941          63.750  
   2491240.165      -14368.116          63.750  
   1261408.001      145809.753          63.750  
   2301196.503       11958.768          63.750  
   2399757.390       81871.966          63.750  
 14 12 20  0  1 27.6540000  0  7G12G29G25G 2G24G 6G14
   -110771.887       32766.596          63.750  
   3513888.129       53591.483          63.750  
   1032066.826      -18101.055          63.750  
   2490857.583      -16378.968          63.750  
   1261921.831      148515.975          63.750  
   2301223.492       12112.686          63.750  
   2399811.751       82167.452          63.750  
 14 12 20  0  1 28.6540000  0  7G12G29G25G 2G24G 6G14
   -110676.587       33266.479          63.750  
   3513218.008       50063.613          63.750  
   1031686.850      -20093.367          63.750  
   2490475.105      -18388.927          63.750  
   1262438.125      151223.111          63.750  
   2301255.189       12267.749          63.750  
   2399869.710       82464.063          63.750  
 14 12 20  0  1 29.6540000  0  7G12G29G25G 2G24G 6G14
   -110581.547       33768.164          63.750  
   3512545.370       46537.278          63.750  
   1031308.056      -22083.990          63.750  
   2490092.829      -20397.111          63.750  
   1262952.937      153932.057          63.750  
   2301284.184       12424.853          63.750  
   2399925.596       82762.687          63.750  
 14 12 20  0  1 30.6540000  0  7G12G29G25G 2G24G 6G14
   -110485.508       34269.718          63.750  
   3511876.399       43010.535          63.750  
   1030930.384      -24074.852          63.750  
   2489710.601      -22405.457          63.750  
   1263467.842      156640.874          63.750  
   2301313.959       12582.060          63.750  
   2399981.227       83061.393          63.750  
 14 12 20  0  1 31.6540000  0  7G12G29G25G 2G24G 6G14
   -110390.063       34771.737          63.750  
   3511203.824       39483.988          63.750  
   1030551.310      -26065.366          63.750  
   2489328.211      -24413.353          63.750  
   1263984.104      159350.158          63.750  
   2301344.903       12739.974          63.750  
   2400040.744       83360.771          63.750  
 14 12 20  0  1 32.6540000  0  7G12G29G25G 2G24G 6G14
   -110294.811       35274.290          63.750  
   3510532.968       35957.701          63.750  
   1030171.918      -28055.459          63.750  
   2488945.787      -26420.740          63.750  
   1264500.103      162059.971          63.750  
   2301375.737       12898.657          63.750  
   2400098.056       83660.900          63.750  
 14 12 20  0  1 33.6540000  0  7G12G29G25G 2G24G 6G14
   -110198.716       35776.629          63.750  
   3509862.236       32430.936          63.750  
   1029793.042      -30045.875          63.750  
   2488564.622      -28428.381          63.750  
   1265015.481      164769.573          63.750  
   2301404.972       13057.352          63.750  
   2400154.308       83961.017          63.750  
 14 12 20  0  1 34.6540000  0  7G12G29G25G 2G24G 6G14
   -110103.014       36278.831          63.750  
   3509189.508       28903.746          63.750  
   1029414.897      -32036.541          63.750  
   2488181.819      -30436.173          63.750  
   1265530.809      167479.040          63.750  
   2301436.407       13216.155          63.750  
   2400211.544       84261.211          63.750  
 14 12 20  0  1 35.6540000  0  7G12G29G25G 2G24G 6G14
   -110008.199       36781.062          63.750  
   3508519.438       25376.322          63.750  
   1029035.896      -34027.303          63.750  
   2487800.842      -32443.963          63.750  
   1266046.851      170188.531          63.750  
   2301464.661       13375.222          63.750  
   2400270.592       84561.646          63.750  
 14 12 20  0  1 36.6540000  0  7G12G29G25G 2G24G 6G14
   -109911.989       37283.381          63.750  
   3507849.574       21848.729          63.750  
   1028657.440      -36018.074          63.750  
   2487418.279      -34451.698          63.750  
   1266561.940      172898.119          63.750  
   2301497.053       13534.609          63.750  
   2400325.784       84862.380          63.750  
 14 12 20  0  1 37.6540000  0  7G12G29G25G 2G24G 6G14
   -109816.227       37785.294          63.750  
   3507175.094       18320.432          63.750  
   1028278.375      -38009.377          63.750  
   2487035.882      -36459.861          63.750  
   1267078.506      175607.292          63.750  
   2301526.962       13693.825          63.750  
   2400382.124       85162.918          63.750  
 14 12 20  0  1 38.6540000  0  7G12G29G25G 2G24G 6G14
   -109720.645       38287.573          63.750  
   3506506.927       14792.245          63.750  
   1027898.636      -40000.427          63.750  
   2486654.487      -38467.680          63.750  
   1267593.076      178316.840          63.750  
   2301557.063       13853.654          63.750  
   2400441.553       85464.040          63.750  
 14 12 20  0  1 39.6540000  0  7G12G29G25G 2G24G 6G14
   -109624.779       38791.079          63.750  
   3505833.896       11265.018          63.750  
   1027520.477      -41990.352          63.750  
   2486272.249      -40474.297          63.750  
   1268109.481      181027.612          63.750  
   2301586.822       14014.943          63.750  
   2400497.377       85766.595          63.750  
 14 12 20  0  1 40.6540000  0  7G12G29G25G 2G24G 6G14
   -109529.175       39294.366          63.750  
   3505162.499        7737.291          63.750  
   1027141.910      -43980.621          63.750  
   2485889.727      -42481.162          63.750  
   1268625.160      183738.167          63.750  
   2301616.910       14176.240          63.750  
   2400555.950       86069.136          63.750  
 14 12 20  0  1 41.6540000  0  7G12G29G25G 2G24G 6G14
   -109433.266       39798.298          63.750  
   3504491.951        4209.942          63.750  
   1026763.184      -45970.342          63.750  
   2485509.061      -44487.408          63.750  
   1269141.170      186449.365          63.750  
   2301647.836       14338.428          63.750  
   2400613.149       86372.543          63.750  
 14 12 20  0  1 42.6540000  0  7G12G29G25G 2G24G 6G14
   -109337.365       40302.214          63.750  
   3503820.100         682.308          63.750  
   1026384.560      -47960.202          63.750  
   2485126.032      -46493.693          63.750  
   1269656.299      189160.550          63.750  
   2301679.034       14500.832          63.750  
   2400671.620       86676.141          63.750  
 14 12 20  0  1 43.6540000  0  7G12G29G25G 2G24G 6G14
   -109240.741       40806.305          63.750  
   3503150.165       -2845.437          63.750  
   1026005.515      -49949.995          63.750  
   2484745.527      -48499.828          63.750  
   1270173.179      191871.902          63.750  
   2301710.043       14663.644          63.750  
   2400729.050       86980.121          63.750  
 14 12 20  0  1 44.6540000  0  7G12G29G25G 2G24G 6G14
   -109145.523       41311.016          63.750  
   3502477.798       -6372.821          63.750  
   1025628.214      -51939.288          63.750  
   2484363.132      -50505.366          63.750  
   1270689.426      194583.876          63.750  
   2301739.962       14827.312          63.750  
   2400786.570       87284.928          63.750  
 14 12 20  0  1 45.6540000  0  7G12G29G25G 2G24G 6G14
   -109048.657       41816.957          63.750  
   3501807.171       -9899.229          63.750  
   1025249.433      -53927.454          63.750  
   2483980.513      -52509.699          63.750  
   1271205.098      197297.092          63.750  
   2301772.602       14992.456          63.750  
   2400845.182       87591.189          63.750  
 14 12 20  0  1 46.6540000  0  7G12G29G25G 2G24G 6G14
   -108952.399       42323.519          63.750  
   3501135.197      -13425.311          63.750  
   1024870.383      -55915.112          63.750  
   2483600.599      -54513.432          63.750  
   1271721.775      200010.925          63.750  
   2301805.315       15158.449          63.750  
   2400902.638       87898.278          63.750  
 14 12 20  0  1 47.6540000  0  7G12G29G25G 2G24G 6G14
   -108856.233       42829.590          63.750  
   3500463.513      -16952.151          63.750  
   1024491.436      -57903.381          63.750  
   2483219.658      -56517.687          63.750  
   1272237.291      202724.259          63.750  
   2301836.298       15324.188          63.750  
   2400962.316       88205.082          63.750  
 14 12 20  0  1 48.6540000  0  7G12G29G25G 2G24G 6G14
   -108759.351       43337.416          63.750  
   3499794.222      -20477.492          63.750  
   1024114.238      -59890.004          63.750  
   2482838.809      -58520.210          63.750  
   1272754.858      205439.358          63.750  
   2301868.802       15491.921          63.750  
   2401021.035       88513.857          63.750  
 14 12 20  0  1 49.6540000  0  7G12G29G25G 2G24G 6G14
   -108663.135       43846.152          63.750  
   3499123.313      -24002.210          63.750  
   1023736.658      -61875.834          63.750  
   2482455.930      -60521.849          63.750  
   1273270.654      208155.361          63.750  
   2301900.151       15660.796          63.750  
   2401079.164       88823.748          63.750  
 14 12 20  0  1 50.6540000  0  7G12G29G25G 2G24G 6G14
   -108565.435       44354.266          63.750  
   3498449.267      -27527.824          63.750  
   1023358.370      -63862.389          63.750  
   2482076.695      -62524.132          63.750  
   1273788.467      210870.736          63.750  
   2301931.779       15829.291          63.750  
   2401138.268       89133.227          63.750  
 14 12 20  0  1 51.6540000  0  7G12G29G25G 2G24G 6G14
   -108469.587       44863.889          63.750  
   3497782.829      -31052.188          63.750  
   1022980.238      -65847.549          63.750  
   2481694.674      -64524.933          63.750  
   1274304.793      213587.626          63.750  
   2301966.209       15999.526          63.750  
   2401197.492       89444.434          63.750  
 14 12 20  0  1 52.6540000  0  7G12G29G25G 2G24G 6G14
   -108371.386       45374.455          63.750  
   3497111.422      -34575.877          63.750  
   1022604.332      -67831.880          63.750  
   2481313.456      -66524.806          63.750  
   1274822.657      216305.463          63.750  
   2301998.619       16170.946          63.750  
   2401256.213       89756.791          63.750  
 14 12 20  0  1 53.6540000  0  7G12G29G25G 2G24G 6G14
   -108274.455       45885.997          63.750  
   3496441.129      -38098.864          63.750  
   1022225.383      -69815.343          63.750  
   2480934.774      -68523.738          63.750  
   1275340.034      219024.272          63.750  
   2302029.618       16343.571          63.750  
   2401317.887       90070.334          63.750  
 14 12 20  0  1 54.6540000  0  7G12G29G25G 2G24G 6G14
   -108177.703       46397.404          63.750  
   3495770.126      -41622.251          63.750  
   1021847.938      -71799.062          63.750  
   2480554.323      -70522.824          63.750  
   1275856.953      221742.943          63.750  
   2302062.458       16516.304          63.750  
   2401376.138       90383.950          63.750  
 14 12 20  0  1 55.6540000  0  7G12G29G25G 2G24G 6G14
   -108079.940       46909.200          63.750  
   3495098.763      -45145.525          63.750  
   1021470.758      -73782.497          63.750  
   2480173.027      -72521.540          63.750  
   1276374.692      224462.009          63.750  
   2302095.240       16689.665          63.750  
   2401436.409       90698.177          63.750  
 14 12 20  0  1 56.6540000  0  7G12G29G25G 2G24G 6G14
   -107983.258       47420.534          63.750  
   3494428.863      -48669.544          63.750  
   1021093.295      -75766.511          63.750  
   2479792.787      -74520.746          63.750  
   1276891.833      227180.604          63.750  
   2302128.467       16862.790          63.750  
   2401496.422       91012.137          63.750  
 14 12 20  0  1 57.6540000  0  7G12G29G25G 2G24G 6G14
   -107885.068       47933.215          63.750  
   3493758.487      -52192.469          63.750  
   1020715.531      -77749.284          63.750  
   2479414.269      -76518.628          63.750  
   1277408.758      229900.550          63.750  
   2302160.894       17037.503          63.750  
   2401557.204       91327.665          63.750  
 14 12 20  0  1 58.6540000  0  7G12G29G25G 2G24G 6G14
   -107788.065       48446.955          63.750  
   3493088.509      -55714.613          63.750  
   1020339.034      -79731.116          63.750  
   2479032.327      -78515.479          63.750  
   1277927.340      232621.555          63.750  
   2302196.071       17213.513          63.750  
   2401616.108       91644.461          63.750  
 14 12 20  0  1 59.6540000  0  7G12G29G25G 2G24G 6G14
   -107690.941       48961.184          63.750  
   3492419.091      -59236.530          63.750  
   1019961.352      -81712.567          63.750  
   2478653.766      -80511.861          63.750  
   1278445.124      235343.044          63.750  
   2302231.368       17390.248          63.750  
   2401677.200       91961.953          63.750  
 14 12 20  0  2  0.6540000  0  7G12G29G25G 2G24G 6G14
   -107592.242       49476.201          63.750  
   3491747.092      -62757.944          63.750  
   1019584.867      -83693.346          63.750  
   2478273.046      -82507.479          63.750  
   1278963.221      238065.320          63.750  
   2302264.180       17568.005          63.750  
   2401736.708       92280.443          63.750  
 14 12 20  0  2  1.6540000  0  7G12G29G25G 2G24G 6G14
   -107493.806       49991.634          63.750  
   3491078.536      -66279.187          63.750  
   1019207.880      -85673.813          63.750  
   2477893.560      -84502.701          63.750  
   1279480.974      240788.021          63.750  
   2302297.396       17746.421          63.750  
   2401798.351       92599.572          63.750  
 14 12 20  0  2  2.6540000  0  7G12G29G25G 2G24G 6G14
   -107396.045       50507.407          63.750  
   3490407.611      -69800.376          63.750  
   1018831.027      -87654.053          63.750  
   2477513.756      -86497.618          63.750  
   1279999.586      243511.055          63.750  
   2302331.721       17925.410          63.750  
   2401860.059       92919.239          63.750  
 14 12 20  0  2  3.6540000  0  7G12G29G25G 2G24G 6G14
   -107298.123       51023.505          63.750  
   3489737.796      -73321.501          63.750  
   1018453.872      -89634.090          63.750  
   2477135.713      -88492.208          63.750  
   1280517.162      246234.413          63.750  
   2302366.166       18104.956          63.750  
   2401919.867       93239.447          63.750  
 14 12 20  0  2  4.6540000  0  7G12G29G25G 2G24G 6G14
   -107199.286       51539.788          63.750  
   3489069.084      -76842.720          63.750  
   1018076.970      -91614.036          63.750  
   2476753.370      -90486.671          63.750  
   1281035.819      248957.956          63.750  
   2302399.691       18284.927          63.750  
   2401981.998       93560.049          63.750  
 14 12 20  0  2  5.6540000  0  7G12G29G25G 2G24G 6G14
   -107101.608       52056.329          63.750  
   3488397.608      -80363.933          63.750  
   1017700.567      -93593.846          63.750  
   2476376.911      -92480.879          63.750  
   1281554.606      251681.755          63.750  
   2302432.517       18465.395          63.750  
   2402041.465       93881.124          63.750  
 14 12 20  0  2  6.6540000  0  7G12G29G25G 2G24G 6G14
   -107002.311       52573.541          63.750  
   3487727.727      -83884.768          63.750  
   1017324.168      -95573.096          63.750  
   2475995.896      -94474.431          63.750  
   1282073.184      254406.224          63.750  
   2302468.079       18646.765          63.750  
   2402104.022       94203.078          63.750  
 14 12 20  0  2  7.6540000  0  8G12G29G25G 2G24G 6G14G32
   -106903.548       53091.566          63.750  
   3487057.896      -87405.045          63.750  
   1016947.408      -97551.644          63.750  
   2475615.631      -96467.205          63.750  
   1282591.637      257131.507          63.750  
   2302502.433       18829.188          63.750  
   2402165.336       94526.059          63.750  
   5656369.697      102142.316          63.750  
 14 12 20  0  2  8.6540000  0  8G12G29G25G 2G24G 6G14G32
   -106804.985       53609.779          63.750  
   3486387.925      -90925.417          63.750  
   1016570.835      -99530.119          63.750  
   2475239.329      -98459.812          63.750  
   1283109.708      259856.973          63.750  
   2302538.358       19012.036          63.750  
   2402226.333       94849.429          63.750  
   5656683.072      103765.576          63.750  
 14 12 20  0  2  9.6540000  0  8G12G29G25G 2G24G 6G14G32
   -106706.719       54129.130          63.750  
   3485718.038      -94444.904          63.750  
   1016194.679     -101507.564          63.750  
   2474859.351     -100451.295          63.750  
   1283629.137      262583.582          63.750  
   2302574.579       19196.262          63.750  
   2402288.033       95174.154          63.750  
   5656992.236      105390.036          63.750  
 14 12 20  0  2 10.6540000  0  8G12G29G25G 2G24G 6G14G32
   -106607.417       54647.860          63.750  
   3485047.595      -97965.280          63.750  
   1015817.717     -103485.739          63.750  
   2474480.299     -102443.425          63.750  
   1284147.052      265309.564          63.750  
   2302608.074       19380.098          63.750  
   2402350.315       95498.473          63.750  
   5657300.284      107013.885          63.750  
 14 12 20  0  2 11.6540000  0  8G12G29G25G 2G24G 6G14G32
   -106508.853       55166.790          63.750  
   3484376.729     -101485.732          63.750  
   1015441.906     -105463.828          63.750  
   2474100.971     -104435.391          63.750  
   1284666.064      268035.743          63.750  
   2302643.689       19564.364          63.750  
   2402411.060       95823.200          63.750  
   5657608.511      108638.009          63.750  
 14 12 20  0  2 12.6540000  0  8G12G29G25G 2G24G 6G14G32
   -106409.799       55685.982          63.750  
   3483708.502     -105006.191          63.750  
   1015064.960     -107441.759          63.750  
   2473722.590     -106427.099          63.750  
   1285185.970      270762.188          63.750  
   2302678.303       19749.146          63.750  
   2402473.677       96148.398          63.750  
   5657918.727      110262.441          63.750  
 14 12 20  0  2 13.6540000  0  8G12G29G25G 2G24G 6G14G32
   -106310.399       56206.272          63.750  
   3483039.669     -108525.809          63.750  
   1014689.111     -109418.713          63.750  
   2473341.133     -108417.747          63.750  
   1285703.906      273489.726          63.750  
   2302712.930       19935.259          63.750  
   2402536.218       96474.909          63.750  
   5658223.854      111888.021          63.750  
 14 12 20  0  2 14.6540000  0  8G12G29G25G 2G24G 6G14G32
   -106211.441       56726.751          63.750  
   3482367.924     -112045.533          63.750  
   1014314.271     -111395.586          63.750  
   2472961.149     -110408.218          63.750  
   1286223.435      276217.454          63.750  
   2302748.935       20121.784          63.750  
   2402597.701       96801.811          63.750  
   5658533.809      113513.843          63.750  
 14 12 20  0  2 15.6540000  0  8G12G29G25G 2G24G 6G14G32
   -106113.131       57247.613          63.750  
   3481697.454     -115565.108          63.750  
   1013935.797     -113372.178          63.750  
   2472586.188     -112398.331          63.750  
   1286742.058      278945.572          63.750  
   2302783.074       20308.940          63.750  
   2402659.771       97129.324          63.750  
   5658843.896      115140.111          63.750  
 14 12 20  0  2 16.6540000  0  8G12G29G25G 2G24G 6G14G32
   -106013.052       57768.669          63.750  
   3481028.568     -119084.785          63.750  
   1013560.174     -115348.703          63.750  
   2472206.622     -114388.266          63.750  
   1287261.839      281673.861          63.750  
   2302821.651       20496.526          63.750  
   2402722.498       97457.229          63.750  
   5659152.771      116766.614          63.750  
 14 12 20  0  2 17.6540000  0  8G12G29G25G 2G24G 6G14G32
   -105915.850       58290.233          63.750  
   3480360.959     -122604.199          63.750  
   1013184.364     -117324.825          63.750  
   2471829.291     -116377.711          63.750  
   1287781.670      284402.672          63.750  
   2302856.686       20684.850          63.750  
   2402784.878       97785.848          63.750  
   5659463.823      118393.659          63.750  
 14 12 20  0  2 18.6540000  0  8G12G29G25G 2G24G 6G14G32
   -105815.626       58812.556          63.750  
   3479689.562     -126123.144          63.750  
   1012809.364     -119300.293          63.750  
   2471449.476     -118366.419          63.750  
   1288300.235      287132.235          63.750  
   2302892.364       20874.169          63.750  
   2402847.849       98115.446          63.750  
   5659771.699      120021.536          63.750  
 14 12 20  0  2 19.6540000  0  8G12G29G25G 2G24G 6G14G32
   -105716.401       59335.982          63.750  
   3479020.072     -129641.253          63.750  
   1012432.420     -121274.771          63.750  
   2471072.651     -120354.061          63.750  
   1288819.413      289862.901          63.750  
   2302929.989       21064.836          63.750  
   2402910.252       98446.351          63.750  
   5660080.912      121650.553          63.750  
 14 12 20  0  2 20.6540000  0  8G12G29G25G 2G24G 6G14G32
   -105616.560       59858.880          63.750  
   3478351.296     -133160.155          63.750  
   1012057.381     -123249.891          63.750  
   2470693.644     -122342.259          63.750  
   1289339.373      292593.038          63.750  
   2302963.790       21255.207          63.750  
   2402972.941       98776.942          63.750  
   5660391.320      123279.108          63.750  
 14 12 20  0  2 21.6540000  0  8G12G29G25G 2G24G 6G14G32
   -105516.995       60382.062          63.750  
   3477680.594     -136679.037          63.750  
   1011681.065     -125224.841          63.750  
   2470314.948     -124330.175          63.750  
   1289858.704      295323.460          63.750  
   2303000.231       21446.104          63.750  
   2403037.688       99108.030          63.750  
   5660704.264      124907.993          63.750  
 14 12 20  0  2 22.6540000  0  8G12G29G25G 2G24G 6G14G32
   -105417.252       60905.487          63.750  
   3477012.298     -140197.945          63.750  
   1011306.124     -127199.652          63.750  
   2469937.300     -126317.871          63.750  
   1290378.623      298054.125          63.750  
   2303036.836       21637.477          63.750  
   2403099.789       99439.567          63.750  
   5661013.089      126537.159          63.750  
 14 12 20  0  2 23.6540000  0  8G12G29G25G 2G24G 6G14G32
   -105317.255       61429.461          63.750  
   3476343.652     -143716.575          63.750  
   1010929.198     -129174.034          63.750  
   2469558.908     -128305.037          63.750  
   1290898.374      300785.324          63.750  
   2303074.480       21829.633          63.750  
   2403161.972       99771.864          63.750  
   5661323.946      128166.923          63.750  
 14 12 20  0  2 24.6540000  0  8G12G29G25G 2G24G 6G14G32
   -105217.427       61953.910          63.750  
   3475673.334     -147234.989          63.750  
   1010554.835     -131148.035          63.750  
   2469179.525     -130291.764          63.750  
   1291418.554      303517.003          63.750  
   2303111.611       22022.507          63.750  
   2403226.488      100104.852          63.750  
   5661634.289      129797.219          63.750  
 14 12 20  0  2 25.6540000  0  8G12G29G25G 2G24G 6G14G32
   -105118.148       62478.710          63.750  
   3475002.220     -150753.327          63.750  
   1010177.864     -133121.800          63.750  
   2468802.865     -132278.149          63.750  
   1291938.258      306249.039          63.750  
   2303146.913       22215.971          63.750  
   2403290.686      100438.399          63.750  
   5661943.817      131427.914          63.750  
 14 12 20  0  2 26.6540000  0  8G12G29G25G 2G24G 6G14G32
   -105017.679       63003.668          63.750  
   3474333.262     -154271.772          63.750  
   1009803.324     -135095.531          63.750  
   2468423.521     -134264.396          63.750  
   1292457.938      308981.218          63.750  
   2303185.600       22409.813          63.750  
   2403354.012      100772.314          63.750  
   5662253.831      133058.813          63.750  
 14 12 20  0  2 27.6540000  0  8G12G29G25G 2G24G 6G14G32
   -104917.127       63529.311          63.750  
   3473664.644     -157789.804          63.750  
   1009427.506     -137068.673          63.750  
   2468047.639     -136249.988          63.750  
   1292978.218      311714.086          63.750  
   2303220.716       22604.596          63.750  
   2403416.460      101107.130          63.750  
   5662563.154      134690.465          63.750  
 14 12 20  0  2 28.6540000  0  8G12G29G25G 2G24G 6G14G32
   -104816.773       64056.145          63.750  
   3472995.940     -161306.909          63.750  
   1009052.510     -139040.736          63.750  
   2467668.990     -138234.411          63.750  
   1293498.644      314448.145          63.750  
   2303258.542       22800.800          63.750  
   2403480.919      101443.343          63.750  
   5662875.127      136323.352          63.750  
 14 12 20  0  2 29.6540000  0  8G12G29G25G 2G24G 6G14G32
   -104717.409       64583.412          63.750  
   3472324.575     -164823.838          63.750  
   1008676.581     -141012.491          63.750  
   2467291.249     -140218.396          63.750  
   1294017.803      317182.636          63.750  
   2303295.232       22997.671          63.750  
   2403546.011      101780.199          63.750  
   5663186.660      137956.710          63.750  
 14 12 20  0  2 30.6540000  0  8G12G29G25G 2G24G 6G14G32
   -104616.698       65111.151          63.750  
   3471657.605     -168340.588          63.750  
   1008302.261     -142983.874          63.750  
   2466913.696     -142201.957          63.750  
   1294539.884      319917.589          63.750  
   2303333.881       23195.250          63.750  
   2403610.049      102117.732          63.750  
   5663495.628      139590.597          63.750  
 14 12 20  0  2 31.6540000  0  8G12G29G25G 2G24G 6G14G32
   -104515.851       65639.048          63.750  
   3470986.736     -171857.418          63.750  
   1007926.673     -144955.207          63.750  
   2466537.392     -144185.368          63.750  
   1295059.764      322652.704          63.750  
   2303373.507       23393.226          63.750  
   2403672.833      102455.648          63.750  
   5663807.613      141224.697          63.750  
 14 12 20  0  2 32.6540000  0  8G12G29G25G 2G24G 6G14G32
   -104416.011       66167.636          63.750  
   3470318.718     -175373.841          63.750  
   1007551.477     -146925.962          63.750  
   2466159.329     -146168.109          63.750  
   1295579.821      325388.503          63.750  
   2303410.831       23592.132          63.750  
   2403737.957      102794.460          63.750  
   5664118.484      142859.524          63.750  
 14 12 20  0  2 33.6540000  0  8G12G29G25G 2G24G 6G14G32
   -104315.926       66696.258          63.750  
   3469646.920     -178890.502          63.750  
   1007176.600     -148896.798          63.750  
   2465781.288     -148150.841          63.750  
   1296101.321      328124.335          63.750  
   2303447.450       23791.305          63.750  
   2403803.008      103133.509          63.750  
   5664430.974      144494.436          63.750  
 14 12 20  0  2 34.6540000  0  8G12G29G25G 2G24G 6G14G32
   -104214.517       67226.058          63.750  
   3468978.487     -182406.238          63.750  
   1006802.717     -150866.553          63.750  
   2465403.919     -150132.418          63.750  
   1296621.175      330861.348          63.750  
   2303485.069       23991.900          63.750  
   2403868.023      103473.956          63.750  
   5664741.965      146130.598          63.750  
 14 12 20  0  2 35.6540000  0  8G12G29G25G 2G24G 6G14G32
   -104113.445       67756.526          63.750  
   3468313.012     -185921.578          63.750  
   1006425.914     -152835.754          63.750  
   2465029.867     -152113.344          63.750  
   1297143.360      333599.025          63.750  
   2303523.786       24193.396          63.750  
   2403932.223      103815.284          63.750  
   5665050.366      147767.465          63.750  
 14 12 20  0  2 36.6540000  0  8G12G29G25G 2G24G 6G14G32
   -104012.796       68287.436          63.750  
   3467642.510     -189436.753          63.750  
   1006052.796     -154804.623          63.750  
   2464651.132     -154093.854          63.750  
   1297662.758      336337.133          63.750  
   2303562.506       24395.565          63.750  
   2403999.224      104157.257          63.750  
   5665364.919      149404.809          63.750  
 14 12 20  0  2 37.6540000  0  9G12G29G25G 2G24G 6G14G32G15
   -103911.066       68818.792          63.750  
   3466972.466     -192951.728          63.750  
   1005678.719     -156773.160          63.750  
   2464272.887     -156073.931          63.750  
   1298184.338      339075.693          63.750  
   2303602.005       24598.428          63.750  
   2404062.309      104499.885          63.750  
   5665676.427      151042.678          63.750  
   -107676.975       11263.347          63.750  
 14 12 20  0  2 38.6540000  0  9G12G29G25G 2G24G 6G14G32G15
   -103809.623       69350.854          63.750  
   3466306.092     -196466.282          63.750  
   1005303.896     -158741.099          63.750  
   2463895.340     -158053.326          63.750  
   1298706.632      341814.953          63.750  
   2303640.192       24802.227          63.750  
   2404128.525      104843.431          63.750  
   5665985.107      152681.284          63.750  
   -107609.535       12795.351          63.750  
 14 12 20  0  2 39.6540000  0  9G12G29G25G 2G24G 6G14G32G15
   -103708.071       69882.644          63.750  
   3465636.579     -199981.364          63.750  
   1004928.440     -160709.431          63.750  
   2463522.544     -160032.994          63.750  
   1299227.382      344553.941          63.750  
   2303678.550       25005.989          63.750  
   2404193.474      105186.921          63.750  
   5666299.569      154319.651          63.750  
   -107526.063       14327.137          63.750  
 14 12 20  0  2 40.6540000  0  9G12G29G25G 2G24G 6G14G32G15
   -103607.132       70415.475          63.750  
   3464965.067     -203495.669          63.750  
   1004554.743     -162676.811          63.750  
   2463143.808     -162011.677          63.750  
   1299749.102      347293.967          63.750  
   2303716.869       25211.037          63.750  
   2404259.286      105531.662          63.750  
   5666610.727      155959.130          63.750  
   -107472.166       15860.061          63.750  
 14 12 20  0  2 41.6540000  0  9G12G29G25G 2G24G 6G14G32G15
   -103505.432       70948.138          63.750  
   3464297.959     -207010.411          63.750  
   1004179.618     -164644.482          63.750  
   2462767.443     -163990.510          63.750  
   1300270.349      350033.823          63.750  
   2303755.271       25416.156          63.750  
   2404324.545      105876.445          63.750  
   5666923.564      157598.487          63.750  
   -107306.732       17392.646          63.750  
 14 12 20  0  2 42.6540000  0  9G12G29G25G 2G24G 6G14G32G15
   -103405.282       71481.678          63.750  
   3463629.147     -210524.560          63.750  
   1003805.656     -166611.389          63.750  
   2462391.309     -165968.500          63.750  
   1300791.851      352774.540          63.750  
   2303796.662       25622.374          63.750  
   2404389.832      106222.310          63.750  
   5667234.765      159238.763          63.750  
   -107201.877       18926.222          63.750  
 14 12 20  0  2 43.6540000  0  9G12G29G25G 2G24G 6G14G32G15
   -103303.370       72015.773          63.750  
   3462960.332     -214038.400          63.750  
   1003432.141     -168577.841          63.750  
   2462015.091     -167945.963          63.750  
   1301313.591      355515.829          63.750  
   2303835.588       25829.399          63.750  
   2404456.013      106568.948          63.750  
   5667547.550      160879.649          63.750  
   -107101.879       20460.291          63.750  
 14 12 20  0  2 44.6540000  0  9G12G29G25G 2G24G 6G14G32G15
   -103201.629       72550.826          63.750  
   3462290.885     -217551.552          63.750  
   1003056.995     -170543.452          63.750  
   2461639.875     -169922.471          63.750  
   1301834.596      358258.065          63.750  
   2303876.317       26037.610          63.750  
   2404522.140      106916.751          63.750  
   5667860.554      162521.555          63.750  
   -107000.956       21995.333          63.750  
 14 12 20  0  2 45.6540000  0  9G12G29G25G 2G24G 6G14G32G15
   -103099.593       73087.030          63.750  
   3461622.649     -221063.830          63.750  
   1002683.052     -172508.011          63.750  
   2461263.098     -171897.878          63.750  
   1302356.358      361001.448          63.750  
   2303914.358       26247.214          63.750  
   2404589.216      107265.919          63.750  
   5668173.632      164164.644          63.750  
   -106911.550       23531.569          63.750  
 14 12 20  0  2 46.6540000  0  9G12G29G25G 2G24G 6G14G32G15
   -102997.088       73623.819          63.750  
   3460952.611     -224575.782          63.750  
   1002310.601     -174472.101          63.750  
   2460885.099     -173872.699          63.750  
   1302879.886      363745.407          63.750  
   2303953.706       26457.634          63.750  
   2404655.519      107615.876          63.750  
   5668483.374      165808.369          63.750  
   -106786.050       25068.377          63.750  
 14 12 20  0  2 47.6540000  0  9G12G29G25G 2G24G 6G14G32G15
   -102894.598       74161.626          63.750  
   3460288.566     -228086.977          63.750  
   1001935.957     -176435.284          63.750  
   2460512.497     -175846.502          63.750  
   1303401.420      366490.389          63.750  
   2303995.574       26669.315          63.750  
   2404722.745      107967.072          63.750  
   5668800.071      167453.158          63.750  
   -106687.593       26606.147          63.750  
 14 12 20  0  2 48.6540000  0  9G12G29G25G 2G24G 6G14G32G15
   -102791.150       74699.473          63.750  
   3459616.567     -231598.398          63.750  
   1001562.874     -178398.533          63.750  
   2460135.283     -177820.311          63.750  
   1303924.472      369235.408          63.750  
   2304036.368       26881.275          63.750  
   2404789.104      108318.510          63.750  
   5669111.246      169098.043          63.750  
   -106591.603       28144.000          63.750  
 14 12 20  0  2 49.6540000  0  9G12G29G25G 2G24G 6G14G32G15
   -102689.444       75237.448          63.750  
   3458949.862     -235109.968          63.750  
   1001189.285     -180361.769          63.750  
   2459760.001     -179793.997          63.750  
   1304446.229      371980.552          63.750  
   2304075.353       27093.591          63.750  
   2404856.245      108670.287          63.750  
   5669425.606      170743.098          63.750  
   -106490.242       29681.972          63.750  
 14 12 20  0  2 50.6540000  0  9G12G29G25G 2G24G 6G14G32G15
   -102587.112       75775.811          63.750  
   3458282.314     -238621.408          63.750  
   1000815.169     -182324.715          63.750  
   2459384.196     -181767.334          63.750  
   1304968.938      374726.076          63.750  
   2304116.532       27306.540          63.750  
   2404923.296      109022.665          63.750  
   5669737.875      172388.596          63.750  
   -106392.276       31220.322          63.750  
 14 12 20  0  2 51.6540000  0  9G12G29G25G 2G24G 6G14G32G15
   -102484.319       76314.514          63.750  
   3457611.697     -242132.772          63.750  
   1000442.576     -184287.458          63.750  
   2459008.583     -183740.311          63.750  
   1305491.861      377471.936          63.750  
   2304156.234       27520.060          63.750  
   2404990.556      109375.591          63.750  
   5670049.580      174034.479          63.750  
   -106293.358       32759.023          63.750  
 14 12 20  0  2 52.6540000  0  9G12G29G25G 2G24G 6G14G32G15
   -102381.885       76853.798          63.750  
   3456947.127     -245643.822          63.750  
   1000068.914     -186249.704          63.750  
   2458633.867     -185712.742          63.750  
   1306014.036      380218.378          63.750  
   2304196.691       27734.403          63.750  
   2405057.330      109729.317          63.750  
   5670363.573      175681.003          63.750  
   -106187.546       34298.305          63.750  
 14 12 20  0  2 53.6540000  0  9G12G29G25G 2G24G 6G14G32G15
   -102279.956       77393.461          63.750  
   3456276.386     -249154.763          63.750  
    999695.218     -188211.683          63.750  
   2458258.989     -187684.832          63.750  
   1306536.612      382965.195          63.750  
   2304240.302       27949.362          63.750  
   2405124.972      110083.624          63.750  
   5670678.280      177327.932          63.750  
   -106082.148       35837.964          63.750  
 14 12 20  0  2 54.6540000  0  9G12G29G25G 2G24G 6G14G32G15
   -102177.161       77933.577          63.750  
   3455608.455     -252665.509          63.750  
    999323.145     -190173.316          63.750  
   2457884.795     -189656.471          63.750  
   1307059.559      385712.460          63.750  
   2304280.114       28165.014          63.750  
   2405193.773      110438.592          63.750  
   5670994.643      178975.378          63.750  
   -105977.476       37378.091          63.750  
 14 12 20  0  2 55.6540000  0  9G12G29G25G 2G24G 6G14G32G15
   -102073.822       78474.899          63.750  
   3454940.094     -256175.322          63.750  
    998949.633     -192133.865          63.750  
   2457508.812     -191626.919          63.750  
   1307582.722      388460.930          63.750  
   2304320.844       28382.105          63.750  
   2405260.770      110794.985          63.750  
   5671303.429      180624.070          63.750  
   -105878.385       38919.400          63.750  
 14 12 20  0  2 56.6540000  0  9G12G29G25G 2G24G 6G14G32G15
   -101970.536       79015.766          63.750  
   3454275.312     -259685.848          63.750  
    998575.880     -194094.972          63.750  
   2457132.427     -193597.839          63.750  
   1308105.063      391208.940          63.750  
   2304361.244       28598.979          63.750  
   2405328.030      111151.131          63.750  
   5671618.604      182272.365          63.750  
   -105770.275       40460.263          63.750  
 14 12 20  0  2 57.6540000  0  9G12G29G25G 2G24G 6G14G32G15
   -101867.696       79557.333          63.750  
   3453605.204     -263195.939          63.750  
    998203.124     -196055.471          63.750  
   2456758.302     -195568.114          63.750  
   1308628.619      393957.651          63.750  
   2304404.572       28816.793          63.750  
   2405396.787      111508.183          63.750  
   5671932.951      183921.409          63.750  
   -105667.409       42001.850          63.750  
 14 12 20  0  2 58.6540000  0  9G12G29G25G 2G24G 6G14G32G15
   -101764.387       80099.525          63.750  
   3452939.018     -266705.683          63.750  
    997830.104     -198015.468          63.750  
   2456383.449     -197537.760          63.750  
   1309151.545      396706.976          63.750  
   2304445.917       29035.467          63.750  
   2405463.810      111866.080          63.750  
   5672245.039      185571.115          63.750  
   -105560.329       43544.016          63.750  
 14 12 20  0  2 59.6540000  0  9G12G29G25G 2G24G 6G14G32G15
   -101660.450       80641.415          63.750  
   3452268.904     -270215.980          63.750  
    997456.707     -199975.889          63.750  
   2456008.597     -199507.690          63.750  
   1309674.774      399455.993          63.750  
   2304488.640       29254.072          63.750  
   2405532.055      112223.880          63.750  
   5672560.944      187220.571          63.750  
   -105455.796       45085.932          63.750  
 14 12 20  0  3  0.6540000  0  9G12G29G25G 2G24G 6G14G32G15
   -101557.970       81183.491          63.750  
   3451604.147     -273726.355          63.750  
    997083.786     -201936.207          63.750  
   2455633.796     -201477.502          63.750  
   1310197.976      402205.198          63.750  
   2304528.947       29473.104          63.750  
   2405600.804      112582.077          63.750  
   5672874.013      188870.269          63.750  
   -105361.290       46627.991          63.750  
 14 12 20  0  3  1.6540000  0  9G12G29G25G 2G24G 6G14G32G15
   -101455.010       81726.071          63.750  
   3450933.438     -277236.500          63.750  
    996710.443     -203896.149          63.750  
   2455259.060     -203446.811          63.750  
   1310721.101      404954.905          63.750  
   2304569.929       29692.875          63.750  
   2405670.466      112940.987          63.750  
   5673188.357      190520.515          63.750  
   -105257.454       48170.600          63.750  
 14 12 20  0  3  2.6540000  0  9G12G29G25G 2G24G 6G14G32G15
   -101351.850       82270.134          63.750  
   3450265.820     -280745.427          63.750  
    996338.312     -205854.716          63.750  
   2454885.519     -205414.618          63.750  
   1311244.874      407706.089          63.750  
   2304613.479       29914.374          63.750  
   2405737.798      113301.600          63.750  
   5673501.676      192172.286          63.750  
   -105154.764       49714.642          63.750  
 14 12 20  0  3  3.6540000  0  9G12G29G25G 2G24G 6G14G32G15
   -101248.345       82815.401          63.750  
   3449598.532     -284253.416          63.750  
    995965.067     -207812.183          63.750  
   2454509.414     -207381.283          63.750  
   1311768.451      410458.474          63.750  
   2304655.301       30137.312          63.750  
   2405806.475      113663.616          63.750  
   5673816.629      193825.317          63.750  
   -105053.519       51259.895          63.750  
 14 12 20  0  3  4.6540000  0  9G12G29G25G 2G24G 6G14G32G15
   -101143.834       83361.035          63.750  
   3448931.418     -287761.290          63.750  
    995592.647     -209769.387          63.750  
   2454136.348     -209347.599          63.750  
   1312292.415      413211.218          63.750  
   2304697.812       30360.847          63.750  
   2405875.362      114026.211          63.750  
   5674131.216      195478.760          63.750  
   -104948.289       52805.557          63.750  
 14 12 20  0  3  5.6540000  0  9G12G29G25G 2G24G 6G14G32G15
   -101040.027       83907.166          63.750  
   3448264.272     -291268.943          63.750  
    995221.322     -211726.211          63.750  
   2453762.766     -211313.420          63.750  
   1312816.241      415964.454          63.750  
   2304738.855       30585.117          63.750  
   2405946.021      114389.513          63.750  
   5674447.194      197132.746          63.750  
   -104837.103       54351.680          63.750  
 14 12 20  0  3  6.6540000  0  9G12G29G25G 2G24G 6G14G32G15
   -100935.729       84452.608          63.750  
   3447595.729     -294777.537          63.750  
    994848.518     -213683.824          63.750  
   2453388.657     -213279.948          63.750  
   1313340.931      418717.005          63.750  
   2304781.983       30808.943          63.750  
   2406013.482      114752.345          63.750  
   5674759.792      198786.089          63.750  
   -104736.754       55897.142          63.750  
 14 12 20  0  3  7.6540000  0  9G12G29G25G 2G24G 6G14G32G15
   -100832.128       84998.939          63.750  
   3446929.086     -298285.527          63.750  
    994475.714     -215640.662          63.750  
   2453014.120     -215245.604          63.750  
   1313863.898      421470.433          63.750  
   2304825.738       31033.895          63.750  
   2406082.775      115116.269          63.750  
   5675074.799      200440.369          63.750  
   -104634.226       57443.460          63.750  
 14 12 20  0  3  8.6540000  0  9G12G29G25G 2G24G 6G14G32G15
   -100727.855       85545.347          63.750  
   3446261.039     -301793.682          63.750  
    994103.026     -217597.530          63.750  
   2452639.185     -217211.201          63.750  
   1314388.252      424223.941          63.750  
   2304869.466       31259.158          63.750  
   2406152.114      115480.482          63.750  
   5675391.456      202094.783          63.750  
   -104528.679       58989.851          63.750  
 14 12 20  0  3  9.6540000  0  9G12G29G25G 2G24G 6G14G32G15
   -100623.949       86091.762          63.750  
   3445593.446     -305302.114          63.750  
    993730.881     -219554.498          63.750  
   2452265.068     -219176.807          63.750  
   1314912.159      426977.446          63.750  
   2304910.646       31484.666          63.750  
   2406221.263      115844.916          63.750  
   5675704.443      203749.237          63.750  
   -104426.697       60536.252          63.750  
 14 12 20  0  3 10.6540000  0  9G12G29G25G 2G24G 6G14G32G15
   -100520.683       86637.396          63.750  
   3444923.839     -308811.581          63.750  
    993359.104     -221512.348          63.750  
   2451891.942     -221143.245          63.750  
   1315435.826      429730.167          63.750  
   2304953.264       31709.629          63.750  
   2406289.856      116208.771          63.750  
   5676020.719      205402.955          63.750  
   -104323.081       62081.916          63.750  
 14 12 20  0  3 11.6540000  0  9G12G29G25G 2G24G 6G14G32G15
   -100416.581       87184.035          63.750  
   3444257.973     -312320.304          63.750  
    992985.761     -223469.318          63.750  
   2451517.039     -223108.651          63.750  
   1315959.930      432483.883          63.750  
   2304997.965       31935.835          63.750  
   2406361.111      116573.851          63.750  
   5676334.323      207057.749          63.750  
   -104216.974       63628.547          63.750  
 14 12 20  0  3 12.6540000  0  9G12G29G25G 2G24G 6G14G32G15
   -100312.632       87732.101          63.750  
   3443590.546     -315827.887          63.750  
    992614.437     -225424.967          63.750  
   2451144.808     -225072.653          63.750  
   1316484.318      435239.033          63.750  
   2305041.189       32163.703          63.750  
   2406429.269      116940.562          63.750  
   5676648.621      208714.001          63.750  
   -104110.188       65176.595          63.750  
 14 12 20  0  3 13.6540000  0  9G12G29G25G 2G24G 6G14G32G15
   -100207.589       88280.347          63.750  
   3442922.599     -319335.530          63.750  
    992242.155     -227380.535          63.750  
   2450769.992     -227036.508          63.750  
   1317008.372      437994.354          63.750  
   2305084.372       32391.996          63.750  
   2406500.413      117307.666          63.750  
   5676964.514      210370.475          63.750  
   -104004.463       66724.841          63.750  
 14 12 20  0  3 14.6540000  0  9G12G29G25G 2G24G 6G14G32G15
   -100103.128       88829.436          63.750  
   3442255.713     -322842.596          63.750  
    991870.013     -229335.378          63.750  
   2450397.382     -228999.511          63.750  
   1317533.008      440750.507          63.750  
   2305126.195       32621.361          63.750  
   2406569.860      117675.819          63.750  
   5677279.009      212027.844          63.750  
   -103902.565       68273.924          63.750  
 14 12 20  0  3 15.6540000  0  9G12G29G25G 2G24G 6G14G32G15
    -99998.663       89378.719          63.750  
   3441588.594     -326349.729          63.750  
    991496.840     -231290.130          63.750  
   2450023.618     -230962.354          63.750  
   1318056.792      443506.861          63.750  
   2305172.338       32851.169          63.750  
   2406639.706      118044.384          63.750  
   5677596.245      213685.456          63.750  
   -103799.786       69823.231          63.750  
 14 12 20  0  3 16.6540000  0  9G12G29G25G 2G24G 6G14G32G15
    -99893.384       89928.706          63.750  
   3440920.474     -329856.426          63.750  
    991126.600     -233244.280          63.750  
   2449650.382     -232924.510          63.750  
   1318582.107      446263.905          63.750  
   2305216.002       33081.908          63.750  
   2406711.434      118413.863          63.750  
   5677911.646      215343.812          63.750  
   -103694.587       71373.211          63.750  
 14 12 20  0  3 17.6540000  0  9G12G29G25G 2G24G 6G14G32G15
    -99789.955       90480.264          63.750  
   3440253.957     -333361.816          63.750  
    990754.235     -235196.970          63.750  
   2449277.153     -234885.097          63.750  
   1319106.991      449022.524          63.750  
   2305259.127       33314.459          63.750  
   2406781.030      118785.123          63.750  
   5678227.346      217003.817          63.750  
   -103594.482       72924.744          63.750  
 14 12 20  0  3 18.6540000  0  9G12G29G25G 2G24G 6G14G32G15
    -99684.481       91032.414          63.750  
   3439586.141     -336866.874          63.750  
    990383.628     -237149.185          63.750  
   2448903.032     -236845.120          63.750  
   1319632.253      451781.724          63.750  
   2305303.352       33547.842          63.750  
   2406851.201      119157.186          63.750  
   5678545.862      218664.438          63.750  
   -103488.081       74476.941          63.750  
 14 12 20  0  3 19.6540000  0 10G12G29G25G 2G24G 6G14G32G15G17
    -99579.430       91584.761          63.750  
   3438920.276     -340372.012          63.750  
    990011.332     -239101.297          63.750  
   2448530.820     -238804.969          63.750  
   1320157.288      454541.118          63.750  
   2305348.480       33781.652          63.750  
   2406922.461      119529.655          63.750  
   5678859.339      220325.292          63.750  
   -103378.915       76029.277          63.750  
   5394182.717      103449.012          63.750  
 14 12 20  0  3 20.6540000  0 10G12G29G25G 2G24G 6G14G32G15G17
    -99474.881       92137.489          63.750  
   3438251.707     -343877.018          63.750  
    989640.698     -241053.136          63.750  
   2448157.022     -240764.467          63.750  
   1320682.715      457300.881          63.750  
   2305393.742       34016.083          63.750  
   2406993.386      119902.710          63.750  
   5679175.523      221986.593          63.750  
   -103275.875       77581.975          63.750  
   5394865.056      107062.259          63.750  
 14 12 20  0  3 21.6540000  0 10G12G29G25G 2G24G 6G14G32G15G17
    -99368.413       92690.490          63.750  
   3437586.079     -347382.029          63.750  
    989268.340     -243004.833          63.750  
   2447785.324     -242723.651          63.750  
   1321207.239      460060.924          63.750  
   2305439.469       34251.029          63.750  
   2407065.469      120276.253          63.750  
   5679491.783      223648.196          63.750  
   -103164.652       79134.990          63.750  
   5395557.065      110675.339          63.750  
 14 12 20  0  3 22.6540000  0 10G12G29G25G 2G24G 6G14G32G15G17
    -99262.387       93245.581          63.750  
   3436917.776     -350885.203          63.750  
    988897.787     -244954.521          63.750  
   2447412.194     -244680.830          63.750  
   1321732.891      462823.047          63.750  
   2305482.065       34488.297          63.750  
   2407136.809      120652.098          63.750  
   5679808.494      225311.946          63.750  
   -103064.083       80690.084          63.750  
   5396240.966      114290.104          63.750  
 14 12 20  0  3 23.6540000  0 10G12G29G25G 2G24G 6G14G32G15G17
    -99156.759       93801.021          63.750  
   3436252.526     -354388.290          63.750  
    988527.496     -246903.984          63.750  
   2447040.149     -246637.627          63.750  
   1322258.396      465585.514          63.750  
   2305528.311       34726.157          63.750  
   2407206.958      121028.495          63.750  
   5680125.795      226976.100          63.750  
   -102959.256       82245.529          63.750  
   5396931.966      117904.830          63.750  
 14 12 20  0  3 24.6540000  0 10G12G29G25G 2G24G 6G14G32G15G17
    -99051.873       94355.896          63.750  
   3435585.910     -357892.216          63.750  
    988155.400     -248854.122          63.750  
   2446668.966     -248595.010          63.750  
   1322784.671      468347.406          63.750  
   2305575.372       34963.687          63.750  
   2407279.914      121404.549          63.750  
   5680442.381      228639.725          63.750  
   -102858.780       83800.405          63.750  
   5397616.867      121518.565          63.750  
 14 12 20  0  3 25.6540000  0 10G12G29G25G 2G24G 6G14G32G15G17
    -98946.515       94910.905          63.750  
   3434918.751     -361396.259          63.750  
    987784.137     -250804.223          63.750  
   2446294.888     -250552.292          63.750  
   1323310.259      471109.437          63.750  
   2305617.695       35201.589          63.750  
   2407351.375      121780.939          63.750  
   5680757.716      230303.535          63.750  
   -102746.888       85355.410          63.750  
   5398309.484      125132.048          63.750  
 14 12 20  0  3 26.6540000  0 10G12G29G25G 2G24G 6G14G32G15G17
    -98840.401       95466.246          63.750  
   3434251.688     -364900.238          63.750  
    987412.916     -252754.097          63.750  
   2445922.781     -252509.260          63.750  
   1323835.459      473871.787          63.750  
   2305662.811       35440.058          63.750  
   2407422.872      122157.872          63.750  
   5681077.243      231967.715          63.750  
   -102644.103       86910.757          63.750  
   5398995.676      128745.436          63.750  
 14 12 20  0  3 27.6540000  0 10G12G29G25G 2G24G 6G14G32G15G17
    -98734.598       96022.434          63.750  
   3433585.168     -368403.628          63.750  
    987042.962     -254703.234          63.750  
   2445549.574     -254465.384          63.750  
   1324361.290      476634.982          63.750  
   2305710.276       35679.615          63.750  
   2407494.696      122535.867          63.750  
   5681392.395      233632.808          63.750  
   -102530.079       88466.938          63.750  
   5399681.989      132359.295          63.750  
 14 12 20  0  3 28.6540000  0 10G12G29G25G 2G24G 6G14G32G15G17
    -98628.124       96578.595          63.750  
   3432919.606     -371907.307          63.750  
    986671.783     -256652.517          63.750  
   2445178.637     -256421.528          63.750  
   1324886.370      479398.143          63.750  
   2305755.472       35919.385          63.750  
   2407567.185      122914.044          63.750  
   5681709.308      235297.904          63.750  
   -102427.287       90023.077          63.750  
   5400371.314      135972.705          63.750  
 14 12 20  0  3 29.6540000  0 10G12G29G25G 2G24G 6G14G32G15G17
    -98522.125       97136.365          63.750  
   3432251.268     -375409.647          63.750  
    986300.495     -258600.290          63.750  
   2444804.836     -258376.108          63.750  
   1325412.709      482162.909          63.750  
   2305800.843       36160.998          63.750  
   2407639.186      123294.040          63.750  
   5682025.784      236964.655          63.750  
   -102328.891       91580.883          63.750  
   5401058.489      139587.316          63.750  
 14 12 20  0  3 30.6540000  0 10G12G29G25G 2G24G 6G14G32G15G17
    -98416.513       97692.588          63.750  
   3431586.736     -378913.786          63.750  
    985931.028     -260549.711          63.750  
   2444433.780     -260332.268          63.750  
   1325939.445      484926.127          63.750  
   2305846.213       36401.305          63.750  
   2407711.355      123672.699          63.750  
   5682344.239      238629.916          63.750  
   -102216.155       93137.079          63.750  
   5401747.363      143199.969          63.750  
 14 12 20  0  3 31.6540000  0 10G12G29G25G 2G24G 6G14G32G15G17
    -98310.878       98250.565          63.750  
   3430918.594     -382416.446          63.750  
    985559.881     -262497.480          63.750  
   2444061.802     -262286.664          63.750  
   1326465.636      487691.094          63.750  
   2305895.062       36643.600          63.750  
   2407783.278      124053.327          63.750  
   5682659.295      240296.965          63.750  
   -102111.422       94695.092          63.750  
   5402432.885      146813.984          63.750  
 14 12 20  0  3 32.6540000  0 10G12G29G25G 2G24G 6G14G32G15G17
    -98204.663       98808.943          63.750  
   3430251.779     -385918.971          63.750  
    985188.634     -264444.979          63.750  
   2443690.424     -264240.660          63.750  
   1326991.159      490456.443          63.750  
   2305939.182       36886.532          63.750  
   2407856.315      124434.556          63.750  
   5682978.198      241964.458          63.750  
   -102013.081       96253.458          63.750  
   5403123.887      150427.982          63.750  
 14 12 20  0  3 33.6540000  0 10G12G29G25G 2G24G 6G14G32G15G17
    -98098.180       99368.147          63.750  
   3429586.303     -389420.912          63.750  
    984818.103     -266391.746          63.750  
   2443317.684     -266193.871          63.750  
   1327518.479      493222.624          63.750  
   2305983.745       37130.529          63.750  
   2407928.562      124816.830          63.750  
   5683295.480      243632.836          63.750  
   -101900.876       97812.652          63.750  
   5403808.294      154042.406          63.750  
 14 12 20  0  3 34.6540000  0 10G12G29G25G 2G24G 6G14G32G15G17
    -97991.235       99927.986          63.750  
   3428919.549     -392922.488          63.750  
    984448.630     -268337.977          63.750  
   2442947.581     -268146.469          63.750  
   1328044.562      495989.433          63.750  
   2306032.225       37375.405          63.750  
   2408001.795      125199.946          63.750  
   5683611.907      245301.895          63.750  
   -101788.587       99372.479          63.750  
   5404499.651      157657.060          63.750  
 14 12 20  0  3 35.6540000  0 10G12G29G25G 2G24G 6G14G32G15G17
    -97884.544      100487.811          63.750  
   3428253.354     -396424.357          63.750  
    984077.821     -270284.341          63.750  
   2442575.295     -270099.072          63.750  
   1328570.769      498756.225          63.750  
   2306078.660       37620.500          63.750  
   2408074.719      125583.261          63.750  
   5683929.454      246970.979          63.750  
   -101686.548      100932.289          63.750  
   5405184.146      161271.293          63.750  
 14 12 20  0  3 36.6540000  0 10G12G29G25G 2G24G 6G14G32G15G17
    -97777.744      101048.060          63.750  
   3427587.701     -399926.049          63.750  
    983706.184     -272230.396          63.750  
   2442204.922     -272051.253          63.750  
   1329097.086      501523.428          63.750  
   2306126.590       37866.258          63.750  
   2408147.775      125967.209          63.750  
   5684247.923      248640.530          63.750  
   -101578.872      102492.590          63.750  
   5405873.524      164885.554          63.750  
 14 12 20  0  3 37.6540000  0 10G12G29G25G 2G24G 6G14G32G15G17
    -97671.753      101608.563          63.750  
   3426919.341     -403427.758          63.750  
    983338.086     -274176.290          63.750  
   2441832.191     -274003.209          63.750  
   1329623.948      504290.887          63.750  
   2306171.269       38112.500          63.750  
   2408222.579      126351.623          63.750  
   5684566.782      250310.388          63.750  
   -101470.254      104053.051          63.750  
   5406561.462      168499.632          63.750  
 14 12 20  0  3 38.6540000  0 10G12G29G25G 2G24G 6G14G32G15G17
    -97565.084      102170.216          63.750  
   3426254.421     -406928.553          63.750  
    982966.530     -276121.146          63.750  
   2441461.830     -275954.042          63.750  
   1330150.860      507059.481          63.750  
   2306221.711       38360.147          63.750  
   2408293.350      126737.398          63.750  
   5684883.313      251981.452          63.750  
   -101375.225      105614.709          63.750  
   5407247.745      172114.490          63.750  
 14 12 20  0  3 39.6540000  0 10G12G29G25G 2G24G 6G14G32G15G17
    -97458.096      102731.715          63.750  
   3425586.822     -410429.795          63.750  
    982595.660     -278066.247          63.750  
   2441090.807     -277905.055          63.750  
   1330678.027      509827.925          63.750  
   2306267.013       38607.862          63.750  
   2408367.434      127123.224          63.750  
   5685201.817      253652.394          63.750  
   -101259.007      107176.222          63.750  
   5407937.492      175728.762          63.750  
 14 12 20  0  3 40.6540000  0 10G12G29G25G 2G24G 6G14G32G15G17
    -97351.170      103293.457          63.750  
   3424922.485     -413931.048          63.750  
    982227.142     -280011.244          63.750  
   2440718.824     -279855.801          63.750  
   1331205.171      512596.598          63.750  
   2306312.646       38856.062          63.750  
   2408441.163      127509.500          63.750  
   5685520.738      255323.624          63.750  
   -101153.454      108737.924          63.750  
   5408624.986      179342.880          63.750  
 14 12 20  0  3 41.6540000  0 10G12G29G25G 2G24G 6G14G32G15G17
    -97243.383      103856.217          63.750  
   3424254.633     -417431.542          63.750  
    981856.665     -281955.301          63.750  
   2440348.233     -281805.578          63.750  
   1331731.475      515366.284          63.750  
   2306361.844       39105.517          63.750  
   2408515.025      127897.013          63.750  
   5685836.243      256995.930          63.750  
   -101044.886      110300.698          63.750  
   5409312.336      182957.602          63.750  
 14 12 20  0  3 42.6540000  0 10G12G29G25G 2G24G 6G14G32G15G17
    -97136.040      104419.572          63.750  
   3423587.991     -420931.703          63.750  
    981487.047     -283898.891          63.750  
   2439976.497     -283754.735          63.750  
   1332259.218      518136.566          63.750  
   2306409.625       39355.807          63.750  
   2408588.074      128285.331          63.750  
   5686157.427      258668.859          63.750  
   -100934.922      111864.037          63.750  
   5409999.729      186572.521          63.750  
 14 12 20  0  3 43.6540000  0 10G12G29G25G 2G24G 6G14G32G15G17
    -97029.729      104983.921          63.750  
   3422925.805     -424431.122          63.750  
    981117.772     -285841.578          63.750  
   2439605.898     -285702.935          63.750  
   1332786.351      520907.830          63.750  
   2306456.895       39607.326          63.750  
   2408663.600      128674.852          63.750  
   5686474.566      260342.827          63.750  
   -100830.904      113428.414          63.750  
   5410688.324      190188.026          63.750  
 14 12 20  0  3 44.6540000  0 10G12G29G25G 2G24G 6G14G32G15G17
    -96922.032      105548.492          63.750  
   3422257.851     -427930.590          63.750  
    980747.185     -287784.160          63.750  
   2439235.766     -287650.931          63.750  
   1333313.563      523679.312          63.750  
   2306503.642       39859.312          63.750  
   2408736.852      129064.802          63.750  
   5686791.983      262017.072          63.750  
   -100725.635      114992.993          63.750  
   5411375.833      193803.350          63.750  
 14 12 20  0  3 45.6540000  0 10G12G29G25G 2G24G 6G14G32G15G17
    -96815.072      106113.986          63.750  
   3421591.453     -431429.391          63.750  
    980377.245     -289725.914          63.750  
   2438864.379     -289598.018          63.750  
   1333840.611      526451.713          63.750  
   2306555.380       40112.457          63.750  
   2408811.478      129455.892          63.750  
   5687112.177      263692.289          63.750  
   -100617.704      116558.461          63.750  
   5412064.971      197419.187          63.750  
 14 12 20  0  3 46.6540000  0 10G12G29G25G 2G24G 6G14G32G15G17
    -96706.414      106679.572          63.750  
   3420925.312     -434928.370          63.750  
    980007.579     -291667.685          63.750  
   2438494.685     -291545.028          63.750  
   1334369.315      529224.195          63.750  
   2306601.688       40365.925          63.750  
   2408886.417      129847.273          63.750  
   5687431.571      265367.637          63.750  
   -100501.886      118124.057          63.750  
   5412751.183      201034.702          63.750  
 14 12 20  0  3 47.6540000  0 10G12G29G25G 2G24G 6G14G32G15G17
    -96598.767      107245.728          63.750  
   3420262.138     -438427.040          63.750  
    979639.407     -293609.003          63.750  
   2438123.550     -293491.476          63.750  
   1334896.356      531997.243          63.750  
   2306649.113       40620.203          63.750  
   2408960.483      130239.444          63.750  
   5687751.096      267043.603          63.750  
   -100393.854      119690.216          63.750  
   5413439.201      204650.387          63.750  
 14 12 20  0  3 48.6540000  0 10G12G29G25G 2G24G 6G14G32G15G17
    -96490.783      107812.302          63.750  
   3419593.640     -441925.556          63.750  
    979268.753     -295550.004          63.750  
   2437753.502     -295437.515          63.750  
   1335423.956      534770.705          63.750  
   2306698.210       40875.139          63.750  
   2409035.600      130632.239          63.750  
   5688069.032      268720.027          63.750  
   -100288.847      121256.804          63.750  
   5414126.918      208266.080          63.750  
 14 12 20  0  3 49.6540000  0 10G12G29G25G 2G24G 6G14G32G15G17
    -96383.396      108379.213          63.750  
   3418928.548     -445423.982          63.750  
    978900.429     -297490.768          63.750  
   2437383.161     -297383.236          63.750  
   1335952.567      537544.500          63.750  
   2306747.115       41130.652          63.750  
   2409109.656      131025.586          63.750  
   5688388.053      270396.843          63.750  
   -100191.148      122823.718          63.750  
   5414817.374      211881.702          63.750  
 14 12 20  0  3 50.6540000  0 10G12G29G25G 2G24G 6G14G32G15G17
    -96275.422      108947.160          63.750  
   3418264.489     -448921.637          63.750  
    978530.791     -299430.604          63.750  
   2437013.230     -299327.945          63.750  
   1336479.502      540319.319          63.750  
   2306794.373       41387.436          63.750  
   2409185.136      131420.178          63.750  
   5688707.720      272074.731          63.750  
   -100074.910      124391.672          63.750  
   5415504.188      215497.952          63.750  
 14 12 20  0  3 51.6540000  0 10G12G29G25G 2G24G 6G14G32G15G17
    -96167.232      109515.098          63.750  
   3417597.943     -452419.568          63.750  
    978162.188     -301370.573          63.750  
   2436642.880     -301272.644          63.750  
   1337008.508      543094.125          63.750  
   2306845.057       41644.444          63.750  
   2409260.290      131814.970          63.750  
   5689025.810      273752.656          63.750  
    -99968.280      125959.596          63.750  
   5416191.979      219113.805          63.750  
 14 12 20  0  3 52.6540000  0 10G12G29G25G 2G24G 6G14G32G15G17
    -96058.759      110083.321          63.750  
   3416931.534     -455917.474          63.750  
    977792.540     -303310.357          63.750  
   2436273.787     -303217.083          63.750  
   1337536.275      545869.206          63.750  
   2306895.585       41901.990          63.750  
   2409335.628      132210.258          63.750  
   5689347.363      275430.910          63.750  
    -99859.656      127527.824          63.750  
   5416881.756      222729.512          63.750  
 14 12 20  0  3 53.6540000  0 10G12G29G25G 2G24G 6G14G32G15G17
    -95950.238      110652.412          63.750  
   3416265.429     -459414.771          63.750  
    977424.170     -305249.351          63.750  
   2435902.846     -305160.698          63.750  
   1338064.941      548645.154          63.750  
   2306941.864       42160.632          63.750  
   2409411.688      132606.626          63.750  
   5689666.949      277110.094          63.750  
    -99753.618      129096.911          63.750  
   5417568.192      226345.696          63.750  
 14 12 20  0  3 54.6540000  0 10G12G29G25G 2G24G 6G14G32G15G17
    -95842.311      111221.696          63.750  
   3415601.178     -462912.131          63.750  
    977055.048     -307188.294          63.750  
   2435533.334     -307104.085          63.750  
   1338592.091      551421.284          63.750  
   2306991.401       42419.707          63.750  
   2409486.832      133003.393          63.750  
   5689986.797      278789.500          63.750  
    -99646.042      130666.197          63.750  
   5418258.105      229961.655          63.750  
 14 12 20  0  3 55.6540000  0 10G12G29G25G 2G24G 6G14G32G15G17
    -95734.153      111791.519          63.750  
   3414937.630     -466409.210          63.750  
    976686.106     -309126.784          63.750  
   2435163.169     -309046.991          63.750  
   1339121.603      554197.948          63.750  
   2307043.400       42679.556          63.750  
   2409563.651      133400.906          63.750  
   5690304.540      280469.489          63.750  
    -99540.644      132236.020          63.750  
   5418945.279      233577.755          63.750  
 14 12 20  0  3 56.6540000  0 10G12G29G25G 2G24G 6G14G32G15G17
    -95625.133      112361.787          63.750  
   3414269.522     -469906.117          63.750  
    976317.326     -311064.936          63.750  
   2434795.573     -310989.435          63.750  
   1339649.029      556975.051          63.750  
   2307091.526       42940.096          63.750  
   2409636.529      133799.082          63.750  
   5690623.837      282149.978          63.750  
    -99428.386      133806.268          63.750  
   5419632.060      237193.885          63.750  
 14 12 20  0  3 57.6540000  0 10G12G29G25G 2G24G 6G14G32G15G17
    -95517.011      112932.248          63.750  
   3413606.096     -473403.097          63.750  
    975947.598     -313003.021          63.750  
   2434424.196     -312931.695          63.750  
   1340177.949      559752.338          63.750  
   2307140.438       43201.054          63.750  
   2409712.872      134197.657          63.750  
   5690944.074      283830.698          63.750  
    -99316.530      135376.748          63.750  
   5420321.000      240809.808          63.750  
 14 12 20  0  3 58.6540000  0 10G12G29G25G 2G24G 6G14G32G15G17
    -95407.347      113503.100          63.750  
   3412939.012     -476899.929          63.750  
    975579.145     -314940.811          63.750  
   2434055.605     -314873.588          63.750  
   1340706.126      562530.007          63.750  
   2307190.894       43462.647          63.750  
   2409790.331      134596.834          63.750  
   5691265.184      285511.839          63.750  
    -99207.167      136947.579          63.750  
   5421009.120      244425.702          63.750  
 14 12 20  0  3 59.6540000  0 10G12G29G25G 2G24G 6G14G32G15G17
    -95299.319      114074.184          63.750  
   3412274.429     -480396.803          63.750  
    975210.672     -316878.471          63.750  
   2433686.484     -316815.262          63.750  
   1341235.229      565307.906          63.750  
   2307241.129       43724.708          63.750  
   2409866.237      134996.454          63.750  
   5691585.112      287193.278          63.750  
    -99098.182      138518.679          63.750  
   5421696.229      248041.426          63.750  
 14 12 20  0  4  0.6540000  0 10G12G29G25G 2G24G 6G14G32G15G17
    -95190.577      114645.575          63.750  
   3411606.655     -483893.607          63.750  
    974842.246     -318815.921          63.750  
   2433316.937     -318756.648          63.750  
   1341763.902      568086.105          63.750  
   2307289.179       43987.321          63.750  
   2409942.166      135396.598          63.750  
   5691903.443      288875.055          63.750  
    -98988.178      140090.059          63.750  
   5422385.839      251657.059          63.750  
 14 12 20  0  4  1.6540000  0 10G12G29G25G 2G24G 6G14G32G15G17
    -95081.955      115217.537          63.750  
   3410942.848     -487390.123          63.750  
    974473.175     -320752.911          63.750  
   2432947.209     -320697.476          63.750  
   1342292.752      570864.864          63.750  
   2307341.842       44250.739          63.750  
   2410019.164      135797.512          63.750  
   5692226.521      290557.462          63.750  
    -98884.884      141662.018          63.750  
   5423073.226      255272.851          63.750  
 14 12 20  0  4  2.6540000  0 10G12G29G25G 2G24G 6G14G32G15G17
    -94973.035      115790.628          63.750  
   3410277.459     -490885.764          63.750  
    974104.788     -322688.870          63.750  
   2432576.590     -322637.198          63.750  
   1342821.397      573644.752          63.750  
   2307391.366       44515.525          63.750  
   2410095.142      136199.770          63.750  
   5692545.325      292241.038          63.750  
    -98771.614      143235.118          63.750  
   5423761.373      258889.358          63.750  
 14 12 20  0  4  3.6540000  0 10G12G29G25G 2G24G 6G14G32G15G17
    -94863.502      116363.552          63.750  
   3409611.656     -494381.838          63.750  
    973736.935     -324625.128          63.750  
   2432209.087     -324577.056          63.750  
   1343350.822      576424.461          63.750  
   2307439.154       44780.373          63.750  
   2410171.826      136602.071          63.750  
   5692864.955      293924.482          63.750  
    -98663.799      144808.036          63.750  
   5424447.117      262505.283          63.750  
 14 12 20  0  4  4.6540000  0 10G12G29G25G 2G24G 6G14G32G15G17
    -94754.256      116937.357          63.750  
   3408947.600     -497877.280          63.750  
    973368.370     -326560.585          63.750  
   2431840.186     -326516.090          63.750  
   1343879.614      579205.046          63.750  
   2307492.717       45046.355          63.750  
   2410247.831      137005.465          63.750  
   5693187.256      295608.858          63.750  
    -98555.108      146381.853          63.750  
   5425137.024      266121.702          63.750  
 14 12 20  0  4  5.6540000  0 10G12G29G25G 2G24G 6G14G32G15G17
    -94645.062      117511.652          63.750  
   3408281.471     -501372.502          63.750  
    973001.073     -328495.675          63.750  
   2431470.536     -328454.628          63.750  
   1344408.737      581986.107          63.750  
   2307543.183       45313.061          63.750  
   2410324.985      137409.549          63.750  
   5693505.560      297293.766          63.750  
    -98446.944      147956.137          63.750  
   5425824.723      269738.197          63.750  
 14 12 20  0  4  6.6540000  0 10G12G29G25G 2G24G 6G14G32G15G17
    -94536.573      118086.291          63.750  
   3407617.682     -504867.629          63.750  
    972632.265     -330430.508          63.750  
   2431101.493     -330392.829          63.750  
   1344938.120      584767.519          63.750  
   2307592.175       45580.344          63.750  
   2410401.839      137814.204          63.750  
   5693828.624      298979.072          63.750  
    -98342.506      149530.783          63.750  
   5426513.934      273354.629          63.750  
 14 12 20  0  4  7.6540000  0 10G12G29G25G 2G24G 6G14G32G15G17
    -94426.949      118660.520          63.750  
   3406952.723     -508363.434          63.750  
    972265.257     -332365.876          63.750  
   2430732.612     -332331.454          63.750  
   1345467.508      587548.503          63.750  
   2307645.195       45847.454          63.750  
   2410479.914      138218.651          63.750  
   5694146.950      300664.001          63.750  
    -98215.659      151104.994          63.750  
   5427201.933      276970.235          63.750  
 14 12 20  0  4  8.6540000  0 10G12G29G25G 2G24G 6G14G32G15G17
    -94317.618      119235.299          63.750  
   3406285.167     -511858.942          63.750  
    971895.375     -334300.794          63.750  
   2430365.621     -334269.534          63.750  
   1345996.317      590330.032          63.750  
   2307695.257       46115.355          63.750  
   2410556.020      138623.857          63.750  
   5694468.847      302349.520          63.750  
    -98123.608      152679.810          63.750  
   5427890.934      280585.982          63.750  
 14 12 20  0  4  9.6540000  0 10G12G29G25G 2G24G 6G14G32G15G17
    -94207.164      119810.484          63.750  
   3405622.878     -515354.304          63.750  
    971527.839     -336235.396          63.750  
   2429995.389     -336207.253          63.750  
   1346525.789      593111.964          63.750  
   2307745.914       46383.905          63.750  
   2410633.222      139029.684          63.750  
   5694788.163      304035.502          63.750  
    -98002.692      154254.981          63.750  
   5428579.748      284201.734          63.750  
 14 12 20  0  4 10.6540000  0 10G12G29G25G 2G24G 6G14G32G15G17
    -94098.822      120385.700          63.750  
   3404956.759     -518849.902          63.750  
    971159.834     -338170.087          63.750  
   2429625.334     -338144.926          63.750  
   1347055.520      595893.910          63.750  
   2307798.842       46652.723          63.750  
   2410711.130      139435.746          63.750  
   5695111.371      305721.544          63.750  
    -97901.843      155830.171          63.750  
   5429267.710      287817.106          63.750  
 14 12 20  0  4 11.6540000  0 10G12G29G25G 2G24G 6G14G32G15G17
    -93988.853      120961.378          63.750  
   3404290.740     -522345.292          63.750  
    970790.971     -340104.432          63.750  
   2429258.787     -340082.126          63.750  
   1347584.437      598676.314          63.750  
   2307848.329       46922.234          63.750  
   2410788.416      139842.485          63.750  
   5695430.801      307408.104          63.750  
    -97788.474      157405.841          63.750  
   5429952.830      291432.530          63.750  
 14 12 20  0  4 12.6540000  0 10G12G29G25G 2G24G 6G14G32G15G17
    -93879.577      121537.660          63.750  
   3403627.081     -525840.342          63.750  
    970423.763     -342038.267          63.750  
   2428890.240     -342018.763          63.750  
   1348115.324      601459.315          63.750  
   2307899.507       47192.593          63.750  
   2410866.880      140250.033          63.750  
   5695749.577      309095.319          63.750  
    -97672.110      158982.165          63.750  
   5430642.698      295048.149          63.750  
 14 12 20  0  4 13.6540000  0 10G12G29G25G 2G24G 6G14G32G15G17
    -93769.340      122114.180          63.750  
   3402959.820     -529335.403          63.750  
    970054.644     -343971.964          63.750  
   2428521.687     -343955.154          63.750  
   1348643.174      604242.552          63.750  
   2307953.435       47463.430          63.750  
   2410943.146      140658.038          63.750  
   5696075.370      310782.800          63.750  
    -97571.029      160558.634          63.750  
   5431328.883      298663.602          63.750  
 14 12 20  0  4 14.6540000  0 10G12G29G25G 2G24G 6G14G32G15G17
    -93659.167      122691.202          63.750  
   3402296.526     -532830.228          63.750  
    969686.772     -345905.275          63.750  
   2428154.630     -345891.078          63.750  
   1349174.014      607026.278          63.750  
   2308003.676       47735.000          63.750  
   2411021.234      141066.743          63.750  
   5696392.289      312470.834          63.750  
    -97464.659      162135.684          63.750  
   5432017.938      302279.136          63.750  
 14 12 20  0  4 15.6540000  0 10G12G29G25G 2G24G 6G14G32G15G17
    -93550.229      123267.603          63.750  
   3401631.695     -536325.938          63.750  
    969319.851     -347839.316          63.750  
   2427784.443     -347827.617          63.750  
   1349702.827      609809.374          63.750  
   2308056.021       48006.189          63.750  
   2411097.717      141475.038          63.750  
   5696717.440      314158.281          63.750  
    -97346.742      163712.076          63.750  
   5432704.100      305893.659          63.750  
 14 12 20  0  4 16.6540000  0 10G12G29G25G 2G24G 6G14G32G15G17
    -93440.574      123844.777          63.750  
   3400966.379     -539821.132          63.750  
    968951.058     -349772.668          63.750  
   2427414.521     -349763.397          63.750  
   1350233.103      612593.240          63.750  
   2308107.981       48278.392          63.750  
   2411176.486      141884.325          63.750  
   5697037.096      315846.555          63.750  
    -97240.824      165289.268          63.750  
   5433393.433      309508.546          63.750  
 14 12 20  0  4 17.6540000  0 10G12G29G25G 2G24G 6G14G32G15G17
    -93330.448      124422.568          63.750  
   3400301.983     -543315.958          63.750  
    968583.972     -351705.516          63.750  
   2427046.936     -351698.589          63.750  
   1350763.079      615377.709          63.750  
   2308158.231       48551.445          63.750  
   2411255.246      142294.438          63.750  
   5697359.248      317535.486          63.750  
    -97127.297      166867.057          63.750  
   5434081.455      313123.628          63.750  
 14 12 20  0  4 18.6540000  0 10G12G29G25G 2G24G 6G14G32G15G17
    -93219.659      125000.990          63.750  
   3399636.144     -546810.419          63.750  
    968215.770     -353637.843          63.750  
   2426679.523     -353633.152          63.750  
   1351292.744      618162.810          63.750  
   2308211.796       48825.381          63.750  
   2411332.353      142705.390          63.750  
   5697679.727      319225.095          63.750  
    -97014.771      168445.473          63.750  
   5434770.900      316738.948          63.750  
 14 12 20  0  4 19.6540000  0 10G12G29G25G 2G24G 6G14G32G15G17
    -93109.348      125580.569          63.750  
   3398969.818     -550303.981          63.750  
    967849.095     -355569.109          63.750  
   2426310.864     -355566.551          63.750  
   1351823.450      620949.058          63.750  
   2308264.335       49100.702          63.750  
   2411410.340      143117.712          63.750  
   5698001.172      320915.896          63.750  
    -96910.972      170025.017          63.750  
   5435457.926      320355.012          63.750  
 14 12 20  0  4 20.6540000  0 10G12G29G25G 2G24G 6G14G32G15G17
    -92999.651      126160.019          63.750  
   3398306.283     -553797.938          63.750  
    967480.478     -357500.621          63.750  
   2425941.961     -357500.105          63.750  
   1352352.822      623735.162          63.750  
   2308314.090       49376.126          63.750  
   2411490.028      143530.102          63.750  
   5698325.972      322606.614          63.750  
    -96800.659      171604.512          63.750  
   5436146.359      323970.538          63.750  
 14 12 20  0  4 21.6540000  0 10G12G29G25G 2G24G 6G14G32G15G17
    -92889.796      126739.205          63.750  
   3397641.863     -557292.407          63.750  
    967113.871     -359432.497          63.750  
   2425575.893     -359433.938          63.750  
   1352883.894      626520.998          63.750  
   2308369.910       49651.535          63.750  
   2411569.741      143942.446          63.750  
   5698643.140      324297.116          63.750  
    -96691.157      173183.706          63.750  
   5436834.153      327585.386          63.750  
 14 12 20  0  4 22.6540000  0 10G12G29G25G 2G24G 6G14G32G15G17
    -92778.457      127319.281          63.750  
   3396976.019     -560786.240          63.750  
    966746.452     -361363.581          63.750  
   2425206.692     -361366.891          63.750  
   1353413.552      629307.721          63.750  
   2308420.849       49928.071          63.750  
   2411647.778      144355.897          63.750  
   5698967.108      325988.556          63.750  
    -96583.828      174763.785          63.750  
   5437519.662      331200.713          63.750  
 14 12 20  0  4 23.6540000  0 10G12G29G25G 2G24G 6G14G32G15G17
    -92668.318      127900.224          63.750  
   3396311.702     -564279.483          63.750  
    966379.135     -363293.917          63.750  
   2424839.384     -363298.965          63.750  
   1353944.405      632095.295          63.750  
   2308473.125       50205.708          63.750  
   2411725.627      144770.423          63.750  
   5699290.559      327680.905          63.750  
    -96463.540      176344.696          63.750  
   5438208.788      334816.494          63.750  
 14 12 20  0  4 24.6540000  0 10G12G29G25G 2G24G 6G14G32G15G17
    -92557.812      128482.203          63.750  
   3395648.002     -567771.920          63.750  
    966010.521     -365223.317          63.750  
   2424473.660     -365230.019          63.750  
   1354474.795      634883.903          63.750  
   2308527.249       50484.628          63.750  
   2411805.344      145186.192          63.750  
   5699612.586      329374.315          63.750  
    -96364.712      177926.677          63.750  
   5438896.776      338432.923          63.750  
 14 12 20  0  4 25.6540000  0 10G12G29G25G 2G24G 6G14G32G15G17
    -92447.299      129063.934          63.750  
   3394982.030     -571264.899          63.750  
    965644.433     -367153.059          63.750  
   2424104.347     -367161.361          63.750  
   1355006.029      637672.250          63.750  
   2308579.070       50763.527          63.750  
   2411883.320      145601.922          63.750  
   5699932.106      331067.527          63.750  
    -96251.562      179508.397          63.750  
   5439585.247      342048.673          63.750  
 14 12 20  0  4 26.6540000  0 10G12G29G25G 2G24G 6G14G32G15G17
    -92336.283      129645.632          63.750  
   3394317.312     -574758.140          63.750  
    965275.855     -369082.961          63.750  
   2423739.177     -369092.694          63.750  
   1355536.448      640460.560          63.750  
   2308633.796       51042.637          63.750  
   2411962.375      146017.826          63.750  
   5700257.031      332760.756          63.750  
    -96136.705      181090.100          63.750  
   5440272.954      345663.999          63.750  
 14 12 20  0  4 27.6540000  0 10G12G29G25G 2G24G 6G14G32G15G17
    -92224.874      130228.254          63.750  
   3393653.646     -578250.736          63.750  
    964909.664     -371012.019          63.750  
   2423368.467     -371023.175          63.750  
   1356066.834      643249.779          63.750  
   2308687.631       51322.906          63.750  
   2412042.687      146434.868          63.750  
   5700577.638      334454.952          63.750  
    -96022.299      182672.743          63.750  
   5440963.313      349279.832          63.750  
 14 12 20  0  4 28.6540000  0 10G12G29G25G 2G24G 6G14G32G15G17
    -92113.984      130810.703          63.750  
   3392987.007     -581743.753          63.750  
    964543.721     -372941.367          63.750  
   2423001.533     -372953.798          63.750  
   1356597.991      646038.823          63.750  
   2308738.713       51603.245          63.750  
   2412122.009      146851.952          63.750  
   5700898.978      336149.020          63.750  
    -95915.573      184255.195          63.750  
   5441649.580      352895.074          63.750  
 14 12 20  0  4 29.6540000  0 10G12G29G25G 2G24G 6G14G32G15G17
    -92003.940      131393.729          63.750  
   3392323.766     -585236.455          63.750  
    964174.389     -374870.249          63.750  
   2422638.240     -374883.850          63.750  
   1357128.704      648828.429          63.750  
   2308793.225       51884.398          63.750  
   2412202.257      147269.818          63.750  
   5701223.133      337843.688          63.750  
    -95803.482      185838.209          63.750  
   5442337.525      356510.508          63.750  
 14 12 20  0  4 30.6540000  0 10G12G29G25G 2G24G 6G14G32G15G17
    -91892.784      131977.018          63.750  
   3391658.563     -588729.145          63.750  
    963807.186     -376798.964          63.750  
   2422270.607     -376813.661          63.750  
   1357659.968      651618.296          63.750  
   2308846.693       52166.047          63.750  
   2412280.903      147688.153          63.750  
   5701546.237      339538.687          63.750  
    -95701.131      187421.515          63.750  
   5443026.181      360125.771          63.750  
 14 12 20  0  4 31.6540000  0 10G12G29G25G 2G24G 6G14G32G15G17
    -91781.675      132561.371          63.750  
   3390994.058     -592221.034          63.750  
    963440.225     -378726.722          63.750  
   2421904.213     -378742.416          63.750  
   1358190.371      654409.218          63.750  
   2308900.479       52449.005          63.750  
   2412360.691      148107.766          63.750  
   5701865.329      341234.782          63.750  
    -95582.079      189005.853          63.750  
   5443714.999      363741.699          63.750  
 14 12 20  0  4 32.6540000  0 10G12G29G25G 2G24G 6G14G32G15G17
    -91669.478      133146.596          63.750  
   3390329.249     -595712.301          63.750  
    963072.852     -380653.706          63.750  
   2421538.253     -380670.312          63.750  
   1358722.189      657201.002          63.750  
   2308955.629       52733.071          63.750  
   2412441.604      148528.468          63.750  
   5702190.271      342931.800          63.750  
    -95467.544      190591.059          63.750  
   5444402.278      367358.089          63.750  
 14 12 20  0  4 33.6540000  0 10G12G29G25G 2G24G 6G14G32G15G17
    -91558.441      133731.733          63.750  
   3389665.244     -599203.918          63.750  
    962708.873     -382580.877          63.750  
   2421168.074     -382598.318          63.750  
   1359253.109      659992.695          63.750  
   2309008.312       53017.292          63.750  
   2412521.053      148949.287          63.750  
   5702513.279      344628.764          63.750  
    -95360.402      192176.207          63.750  
   5445090.688      370973.986          63.750  
 14 12 20  0  4 34.6540000  0 10G12G29G25G 2G24G 6G14G32G15G17
    -91447.856      134317.342          63.750  
   3389000.439     -602695.329          63.750  
    962343.647     -384507.690          63.750  
   2420797.352     -384525.851          63.750  
   1359783.816      662784.842          63.750  
   2309063.791       53302.212          63.750  
   2412601.736      149370.785          63.750  
   5702836.048      346326.229          63.750  
    -95247.771      193761.801          63.750  
   5445779.818      374589.940          63.750  
 14 12 20  0  4 35.6540000  0 10G12G29G25G 2G24G 6G14G32G15G17
    -91336.245      134903.361          63.750  
   3388336.738     -606186.578          63.750  
    961974.935     -386434.195          63.750  
   2420433.248     -386452.985          63.750  
   1360316.148      665577.396          63.750  
   2309117.399       53587.796          63.750  
   2412681.840      149792.904          63.750  
   5703159.712      348024.181          63.750  
    -95136.789      195347.856          63.750  
   5446467.676      378205.908          63.750  
 14 12 20  0  4 36.6540000  0 10G12G29G25G 2G24G 6G14G32G15G17
    -91223.788      135489.542          63.750  
   3387673.359     -609677.931          63.750  
    961609.479     -388360.646          63.750  
   2420066.353     -388379.955          63.750  
   1360847.429      668370.103          63.750  
   2309170.948       53873.774          63.750  
   2412761.293      150215.393          63.750  
   5703482.854      349722.304          63.750  
    -95020.413      196933.994          63.750  
   5447154.958      381821.614          63.750  
 14 12 20  0  4 37.6540000  0 10G12G29G25G 2G24G 6G14G32G15G17
    -91112.468      136076.654          63.750  
   3387008.354     -613168.596          63.750  
    961241.608     -390286.278          63.750  
   2419700.560     -390305.991          63.750  
   1361377.866      671163.729          63.750  
   2309227.103       54160.916          63.750  
   2412842.614      150639.023          63.750  
   5703808.901      351421.424          63.750  
    -94918.973      198521.146          63.750  
   5447843.222      385437.841          63.750  
 14 12 20  0  4 38.6540000  0 10G12G29G25G 2G24G 6G14G32G15G17
    -91000.842      136664.150          63.750  
   3386343.755     -616659.153          63.750  
    960876.802     -392211.617          63.750  
   2419332.903     -392231.687          63.750  
   1361911.489      673957.722          63.750  
   2309280.019       54448.677          63.750  
   2412923.791      151063.249          63.750  
   5704128.421      353120.946          63.750  
    -94806.760      200108.662          63.750  
   5448530.171      389054.040          63.750  
 14 12 20  0  4 39.6540000  0 10G12G29G25G 2G24G 6G14G32G15G17
    -90889.505      137251.748          63.750  
   3385678.719     -620149.854          63.750  
    960508.188     -394136.971          63.750  
   2418967.996     -394157.254          63.750  
   1362442.296      676751.819          63.750  
   2309337.126       54736.790          63.750  
   2413004.472      151487.788          63.750  
   5704452.401      354820.626          63.750  
    -94684.852      201696.250          63.750  
   5449219.135      392669.935          63.750  
 14 12 20  0  4 40.6540000  0 10G12G29G25G 2G24G 6G14G32G15G17
    -90776.701      137839.824          63.750  
   3385015.571     -623640.331          63.750  
    960144.316     -396061.937          63.750  
   2418598.593     -396082.384          63.750  
   1362973.497      679546.386          63.750  
   2309390.310       55025.614          63.750  
   2413084.599      151913.017          63.750  
   5704777.563      356520.826          63.750  
    -94575.608      203284.301          63.750  
   5449908.089      396285.906          63.750  
 14 12 20  0  4 41.6540000  0 10G12G29G25G 2G24G 6G14G32G15G17
    -90664.874      138428.608          63.750  
   3384352.559     -627130.357          63.750  
    959774.898     -397986.299          63.750  
   2418238.234     -398006.804          63.750  
   1363506.097      682341.653          63.750  
   2309446.091       55315.392          63.750  
   2413165.702      152339.164          63.750  
   5705101.723      358221.786          63.750  
    -94463.287      204873.098          63.750  
   5450593.876      399902.177          63.750  
 14 12 20  0  4 42.6540000  0 10G12G29G25G 2G24G 6G14G32G15G17
    -90553.179      139017.674          63.750  
   3383686.594     -630620.365          63.750  
    959408.131     -399910.487          63.750  
   2417872.683     -399930.953          63.750  
   1364037.587      685137.190          63.750  
   2309501.924       55605.681          63.750  
   2413247.136      152765.804          63.750  
   5705423.096      359923.062          63.750  
    -94359.743      206462.160          63.750  
   5451282.801      403518.312          63.750  
 14 12 20  0  4 43.6540000  0 10G12G29G25G 2G24G 6G14G32G15G17
    -90440.611      139607.244          63.750  
   3383023.452     -634110.118          63.750  
    959044.073     -401834.276          63.750  
   2417502.225     -401854.588          63.750  
   1364569.272      687933.224          63.750  
   2309555.845       55896.714          63.750  
   2413327.838      153193.146          63.750  
   5705749.483      361624.862          63.750  
    -94243.169      208051.725          63.750  
   5451971.565      407134.527          63.750  
 14 12 20  0  4 44.6540000  0 10G12G29G25G 2G24G 6G14G32G15G17
    -90328.122      140197.104          63.750  
   3382358.772     -637599.842          63.750  
    958680.027     -403757.876          63.750  
   2417135.935     -403777.962          63.750  
   1365102.251      690729.539          63.750  
   2309614.105       56188.278          63.750  
   2413409.916      153621.006          63.750  
   5706072.035      363327.034          63.750  
    -94128.321      209641.573          63.750  
   5452659.606      410750.644          63.750  
 14 12 20  0  4 45.6540000  0 10G12G29G25G 2G24G 6G14G32G15G17
    -90216.142      140787.560          63.750  
   3381694.281     -641089.233          63.750  
    958311.651     -405680.980          63.750  
   2416772.413     -405700.758          63.750  
   1365634.685      693526.436          63.750  
   2309667.760       56480.676          63.750  
   2413491.671      154049.651          63.750  
   5706395.152      365029.819          63.750  
    -94021.162      211232.029          63.750  
   5453347.601      414366.942          63.750  
 14 12 20  0  4 46.6540000  0 10G12G29G25G 2G24G 6G14G32G15G17
    -90103.694      141379.002          63.750  
   3381031.020     -644577.893          63.750  
    957946.997     -407603.212          63.750  
   2416405.493     -407622.562          63.750  
   1366166.429      696324.311          63.750  
   2309724.563       56774.296          63.750  
   2413573.755      154479.501          63.750  
   5706721.936      366733.636          63.750  
    -93909.522      212823.474          63.750  
   5454036.244      417983.811          63.750  
 14 12 20  0  4 47.6540000  0 10G12G29G25G 2G24G 6G14G32G15G17
    -89991.217      141971.619          63.750  
   3380367.165     -648065.628          63.750  
    957581.081     -409524.375          63.750  
   2416039.031     -409543.176          63.750  
   1366699.649      699123.344          63.750  
   2309780.733       57069.323          63.750  
   2413656.014      154910.742          63.750  
   5707044.398      368438.664          63.750  
    -93789.211      214416.090          63.750  
   5454724.788      421601.460          63.750  
 14 12 20  0  4 48.6540000  0 10G12G29G25G 2G24G 6G14G32G15G17
    -89877.888      142564.484          63.750  
   3379704.179     -651553.369          63.750  
    957214.570     -411445.374          63.750  
   2415677.951     -411463.576          63.750  
   1367232.646      701922.633          63.750  
   2309834.413       57364.859          63.750  
   2413737.152      155342.436          63.750  
   5707369.281      370144.001          63.750  
    -93679.195      216008.947          63.750  
   5455411.936      425218.926          63.750  
 14 12 20  0  4 49.6540000  0 10G12G29G25G 2G24G 6G14G32G15G17
    -89765.092      143158.291          63.750  
   3379039.949     -655040.434          63.750  
    956847.967     -413365.554          63.750  
   2415311.140     -413383.038          63.750  
   1367765.208      704722.846          63.750  
   2309892.866       57661.562          63.750  
   2413819.884      155775.287          63.750  
   5707693.755      371850.303          63.750  
    -93569.535      217602.781          63.750  
   5456099.830      428836.945          63.750  
 14 12 20  0  4 50.6540000  0 10G12G29G25G 2G24G 6G14G32G15G17
    -89651.957      143752.140          63.750  
   3378376.469     -658527.704          63.750  
    956486.405     -415285.791          63.750  
   2414941.354     -415302.448          63.750  
   1368297.729      707523.087          63.750  
   2309948.095       57958.544          63.750  
   2413902.292      156208.381          63.750  
   5708018.912      373556.693          63.750  
    -93455.816      219196.604          63.750  
   5456792.816      432454.578          63.750  
 14 12 20  0  4 51.6540000  0 10G12G29G25G 2G24G 6G14G32G15G17
    -89539.349      144347.323          63.750  
   3377712.999     -662013.908          63.750  
    956121.361     -417204.797          63.750  
   2414575.467     -417220.545          63.750  
   1368831.938      710324.656          63.750  
   2310007.676       58257.099          63.750  
   2413985.517      156643.025          63.750  
   5708342.363      375264.458          63.750  
    -93340.662      220791.819          63.750  
   5457477.312      436073.145          63.750  
 14 12 20  0  4 52.6540000  0 10G12G29G25G 2G24G 6G14G32G15G17
    -89424.805      144942.305          63.750  
   3377049.187     -665500.559          63.750  
    955755.739     -419124.106          63.750  
   2414210.792     -419138.854          63.750  
   1369363.701      713126.017          63.750  
   2310063.610       58555.691          63.750  
   2414067.148      157077.674          63.750  
   5708669.338      376972.071          63.750  
    -93222.729      222386.754          63.750  
   5458167.842      439691.084          63.750  
 14 12 20  0  4 53.6540000  0 10G12G29G25G 2G24G 6G14G32G15G17
    -89312.322      145537.315          63.750  
   3376386.113     -668987.446          63.750  
    955389.767     -421043.490          63.750  
   2413847.606     -421057.148          63.750  
   1369897.372      715927.393          63.750  
   2310119.020       58854.554          63.750  
   2414150.682      157512.569          63.750  
   5708993.334      378679.749          63.750  
    -93117.676      223981.791          63.750  
   5458856.028      443308.657          63.750  
 14 12 20  0  4 54.6540000  0 10G12G29G25G 2G24G 6G14G32G15G17
    -89199.421      146132.234          63.750  
   3375722.271     -672474.667          63.750  
    955024.174     -422963.058          63.750  
   2413482.521     -422975.548          63.750  
   1370430.065      718728.672          63.750  
   2310178.250       59153.563          63.750  
   2414233.822      157947.576          63.750  
   5709317.522      380387.361          63.750  
    -93002.337      225576.708          63.750  
   5459542.472      446925.732          63.750  
 14 12 20  0  4 55.6540000  0 10G12G29G25G 2G24G 6G14G32G15G17
    -89085.904      146727.997          63.750  
   3375058.521     -675961.314          63.750  
    954657.659     -424881.892          63.750  
   2413121.976     -424893.112          63.750  
   1370963.024      721530.781          63.750  
   2310232.281       59453.652          63.750  
   2414316.348      158383.635          63.750  
   5709644.161      382095.883          63.750  
    -92882.370      227172.483          63.750  
   5460232.216      450543.222          63.750  
 14 12 20  0  4 56.6540000  0 10G12G29G25G 2G24G 6G14G32G15G17
    -88972.130      147324.079          63.750  
   3374394.433     -679447.890          63.750  
    954294.249     -426800.527          63.750  
   2412752.552     -426810.320          63.750  
   1371496.249      724333.202          63.750  
   2310291.369       59754.304          63.750  
   2414399.700      158820.227          63.750  
   5709969.080      383804.757          63.750  
    -92772.939      228768.572          63.750  
   5460919.832      454160.629          63.750  
 14 12 20  0  4 57.6540000  0 10G12G29G25G 2G24G 6G14G32G15G17
    -88858.967      147920.073          63.750  
   3373732.761     -682934.813          63.750  
    953927.729     -428719.325          63.750  
   2412389.598     -428727.684          63.750  
   1372030.238      727135.525          63.750  
   2310346.760       60055.103          63.750  
   2414482.617      159256.940          63.750  
   5710292.731      385513.585          63.750  
    -92657.075      230364.574          63.750  
   5461607.842      457777.532          63.750  
 14 12 20  0  4 58.6540000  0 10G12G29G25G 2G24G 6G14G32G15G17
    -88745.599      148516.758          63.750  
   3373067.497     -686421.298          63.750  
    953564.403     -430637.560          63.750  
   2412022.799     -430644.305          63.750  
   1372563.458      729938.530          63.750  
   2310406.291       60356.830          63.750  
   2414565.217      159694.550          63.750  
   5710620.434      387223.143          63.750  
    -92552.643      231961.230          63.750  
   5462298.846      461394.754          63.750  
 14 12 20  0  4 59.6540000  0 10G12G29G25G 2G24G 6G14G32G15G17
    -88631.794      149113.774          63.750  
   3372404.271     -689907.722          63.750  
    953198.422     -432555.551          63.750  
   2411660.505     -432560.659          63.750  
   1373096.019      732741.851          63.750  
   2310462.651       60659.128          63.750  
   2414649.747      160132.706          63.750  
   5710943.818      388933.063          63.750  
    -92428.530      233558.216          63.750  
   5462985.621      465011.851          63.750  
 14 12 20  0  5  0.6540000  0 10G12G29G25G 2G24G 6G14G32G15G17
    -88517.362      149711.497          63.750  
   3371741.639     -693393.671          63.750  
    952832.600     -434472.936          63.750  
   2411295.560     -434476.273          63.750  
   1373631.030      735545.882          63.750  
   2310520.669       60962.372          63.750  
   2414731.879      160571.790          63.750  
   5711269.693      390643.740          63.750  
    -92314.049      235156.012          63.750  
   5463673.610      468629.271          63.750  
 14 12 20  0  5  1.6540000  0 10G12G29G25G 2G24G 6G14G32G15G17
    -88403.976      150310.426          63.750  
   3371079.224     -696878.687          63.750  
    952468.791     -436389.238          63.750  
   2410932.497     -436390.702          63.750  
   1374163.887      738351.090          63.750  
   2310580.256       61267.062          63.750  
   2414816.239      161012.258          63.750  
   5711593.178      392355.660          63.750  
    -92206.401      236754.911          63.750  
   5464364.139      472247.473          63.750  
 14 12 20  0  5  2.6540000  0 10G12G29G25G 2G24G 6G14G32G15G17
    -88290.207      150910.010          63.750  
   3370415.854     -700363.283          63.750  
    952104.319     -438304.975          63.750  
   2410566.487     -438304.475          63.750  
   1374698.521      741156.955          63.750  
   2310635.367       61572.642          63.750  
   2414899.826      161453.618          63.750  
   5711923.292      394068.289          63.750  
    -92094.002      238354.484          63.750  
   5465050.492      475865.921          63.750  
 14 12 20  0  5  3.6540000  0 10G12G29G25G 2G24G 6G14G32G15G17
    -88175.410      151509.628          63.750  
   3369751.189     -703848.117          63.750  
    951739.779     -440220.776          63.750  
   2410202.553     -440218.232          63.750  
   1375231.604      743962.834          63.750  
   2310696.728       61878.495          63.750  
   2414984.948      161895.211          63.750  
   5712247.807      395780.975          63.750  
    -91979.095      239954.073          63.750  
   5465738.321      479483.980          63.750  
 14 12 20  0  5  4.6540000  0 10G12G29G25G 2G24G 6G14G32G15G17
    -88061.139      152109.978          63.750  
   3369089.376     -707332.475          63.750  
    951374.305     -442135.952          63.750  
   2409839.999     -442131.271          63.750  
   1375766.213      746769.445          63.750  
   2310752.717       62185.321          63.750  
   2415068.258      162337.747          63.750  
   5712574.601      397494.441          63.750  
    -91860.720      241554.450          63.750  
   5466425.126      483102.362          63.750  
 14 12 20  0  5  5.6540000  0 10G12G29G25G 2G24G 6G14G32G15G17
    -87947.599      152710.539          63.750  
   3368426.111     -710816.870          63.750  
    951011.100     -444051.028          63.750  
   2409474.422     -444044.067          63.750  
   1376300.455      749576.255          63.750  
   2310813.038       62492.602          63.750  
   2415152.744      162780.707          63.750  
   5712901.771      399208.166          63.750  
    -91753.383      243155.020          63.750  
   5467117.063      486720.581          63.750  
 14 12 20  0  5  6.6540000  0 10G12G29G25G 2G24G 6G14G32G15G17
    -87832.943      153311.497          63.750  
   3367764.747     -714301.128          63.750  
    950646.203     -445965.802          63.750  
   2409109.833     -445956.502          63.750  
   1376834.553      752383.448          63.750  
   2310870.080       62800.509          63.750  
   2415237.447      163224.272          63.750  
   5713227.673      400922.326          63.750  
    -91637.262      244755.956          63.750  
   5467804.631      490338.750          63.750  
 14 12 20  0  5  7.6540000  0 10G12G29G25G 2G24G 6G14G32G15G17
    -87719.274      153912.074          63.750  
   3367100.637     -717786.026          63.750  
    950282.030     -447881.054          63.750  
   2408747.316     -447869.335          63.750  
   1377368.479      755190.251          63.750  
   2310930.196       63108.281          63.750  
   2415322.052      163667.660          63.750  
   5713550.708      402636.128          63.750  
    -91514.522      246356.517          63.750  
   5468496.392      493956.128          63.750  
 14 12 20  0  5  8.6540000  0 10G12G29G25G 2G24G 6G14G32G15G17
    -87603.514      154513.003          63.750  
   3366437.469     -721270.823          63.750  
    949917.999     -449796.073          63.750  
   2408381.982     -449781.801          63.750  
   1377902.870      757997.396          63.750  
   2310986.624       63416.639          63.750  
   2415406.185      164111.614          63.750  
   5713879.916      404350.336          63.750  
    -91410.050      247957.484          63.750  
   5469184.322      497573.448          63.750  
 14 12 20  0  5  9.6540000  0 10G12G29G25G 2G24G 6G14G32G15G17
    -87489.791      155114.362          63.750  
   3365773.965     -724755.438          63.750  
    949553.148     -451710.756          63.750  
   2408019.596     -451693.832          63.750  
   1378436.661      760804.961          63.750  
   2311046.132       63725.671          63.750  
   2415491.482      164556.210          63.750  
   5714204.771      406065.025          63.750  
    -91288.716      249558.821          63.750  
   5469869.021      501190.810          63.750  
 14 12 20  0  5 10.6540000  0 10G12G29G25G 2G24G 6G14G32G15G17
    -87375.067      155717.058          63.750  
   3365112.105     -728238.977          63.750  
    949190.260     -453624.198          63.750  
   2407653.331     -453604.562          63.750  
   1378971.560      763613.852          63.750  
   2311105.432       64036.275          63.750  
   2415575.669      165002.354          63.750  
   5714531.397      407781.074          63.750  
    -91174.940      251161.549          63.750  
   5470556.858      504809.088          63.750  
 14 12 20  0  5 11.6540000  0 10G12G29G25G 2G24G 6G14G32G15G17
    -87259.909      156320.173          63.750  
   3364448.894     -731722.345          63.750  
    948825.924     -455537.330          63.750  
   2407291.385     -455514.869          63.750  
   1379505.675      766423.153          63.750  
   2311164.464       64347.535          63.750  
   2415660.226      165449.124          63.750  
   5714855.960      409497.584          63.750  
    -91066.118      252764.651          63.750  
   5471249.273      508427.351          63.750  
 14 12 20  0  5 12.6540000  0 10G12G29G25G 2G24G 6G14G32G15G17
    -87145.707      156924.447          63.750  
   3363786.164     -735204.814          63.750  
    948461.529     -457449.405          63.750  
   2406928.584     -457424.018          63.750  
   1380041.902      769233.607          63.750  
   2311225.224       64660.198          63.750  
   2415746.258      165897.259          63.750  
   5715185.226      411215.301          63.750  
    -90947.188      254368.896          63.750  
   5471935.126      512046.393          63.750  
 14 12 20  0  5 13.6540000  0 10G12G29G25G 2G24G 6G14G32G15G17
    -87030.343      157530.468          63.750  
   3363123.075     -738685.792          63.750  
    948096.989     -459359.823          63.750  
   2406566.759     -459331.437          63.750  
   1380576.171      772045.784          63.750  
   2311283.175       64974.848          63.750  
   2415830.284      166347.358          63.750  
   5715512.734      412934.810          63.750  
    -90830.677      255974.914          63.750  
   5472626.093      515666.735          63.750  
 14 12 20  0  5 14.6540000  0 10G12G29G25G 2G24G 6G14G32G15G17
    -86914.249      158136.293          63.750  
   3362459.771     -742167.222          63.750  
    947733.981     -461270.557          63.750  
   2406201.496     -461239.043          63.750  
   1381111.283      774857.767          63.750  
   2311345.203       65289.536          63.750  
   2415917.938      166797.470          63.750  
   5715839.756      414654.156          63.750  
    -90713.855      257580.756          63.750  
   5473312.483      519286.513          63.750  
 14 12 20  0  5 15.6540000  0 10G12G29G25G 2G24G 6G14G32G15G17
    -86799.495      158742.879          63.750  
   3361797.939     -745648.144          63.750  
    947370.727     -463180.635          63.750  
   2405838.199     -463145.893          63.750  
   1381645.839      777670.490          63.750  
   2311403.195       65605.221          63.750  
   2416003.587      167248.552          63.750  
   5716163.867      416374.297          63.750  
    -90605.035      259187.306          63.750  
   5473998.748      522906.614          63.750  
 14 12 20  0  5 16.6540000  0 10G12G29G25G 2G24G 6G14G32G15G17
    -86684.869      159349.801          63.750  
   3361135.924     -749128.981          63.750  
    947006.358     -465090.459          63.750  
   2405477.186     -465052.438          63.750  
   1382181.474      780483.547          63.750  
   2311464.699       65921.491          63.750  
   2416089.165      167700.177          63.750  
   5716495.260      418094.820          63.750  
    -90485.974      260794.256          63.750  
   5474692.622      526526.639          63.750  
 14 12 20  0  5 17.6540000  0 10G12G29G25G 2G24G 6G14G32G15G17
    -86568.775      159955.606          63.750  
   3360472.432     -752611.188          63.750  
    946643.203     -467001.513          63.750  
   2405113.744     -466960.078          63.750  
   1382716.553      783295.467          63.750  
   2311522.334       66236.875          63.750  
   2416174.604      168150.892          63.750  
   5716821.774      419814.271          63.750  
    -90373.814      262400.086          63.750  
   5475380.300      530145.137          63.750  
 14 12 20  0  5 18.6540000  0 10G12G29G25G 2G24G 6G14G32G15G17
    -86452.812      160562.327          63.750  
   3359810.381     -756092.732          63.750  
    946280.049     -468911.752          63.750  
   2404751.183     -468866.823          63.750  
   1383251.803      786108.302          63.750  
   2311585.484       66553.411          63.750  
   2416261.332      168602.737          63.750  
   5717148.876      421534.660          63.750  
    -90255.128      264006.800          63.750  
   5476068.136      533764.130          63.750  
 14 12 20  0  5 19.6540000  0 10G12G29G25G 2G24G 6G14G32G15G17
    -86337.750      161169.607          63.750  
   3359148.727     -759573.978          63.750  
    945915.900     -470821.538          63.750  
   2404388.311     -470773.004          63.750  
   1383788.260      788921.674          63.750  
   2311643.869       66870.746          63.750  
   2416346.701      169055.351          63.750  
   5717476.423      423255.665          63.750  
    -90147.196      265614.053          63.750  
   5476754.734      537383.276          63.750  
 14 12 20  0  5 20.6540000  0 10G12G29G25G 2G24G 6G14G32G15G17
    -86222.174      161777.663          63.750  
   3358484.754     -763054.697          63.750  
    945553.319     -472730.657          63.750  
   2404024.888     -472678.402          63.750  
   1384322.620      791735.815          63.750  
   2311707.212       67189.106          63.750  
   2416433.458      169508.949          63.750  
   5717803.751      424977.476          63.750  
    -90016.151      267222.125          63.750  
   5477445.621      541002.796          63.750  
 14 12 20  0  5 21.6540000  0 10G12G29G25G 2G24G 6G14G32G15G17
    -86105.777      162386.662          63.750  
   3357824.473     -766534.732          63.750  
    945190.145     -474638.913          63.750  
   2403663.834     -474582.896          63.750  
   1384858.596      794550.895          63.750  
   2311764.297       67508.644          63.750  
   2416519.613      169963.702          63.750  
   5718132.008      426700.284          63.750  
    -89903.886      268831.127          63.750  
   5478136.387      544622.862          63.750  
 14 12 20  0  5 22.6540000  0 10G12G29G25G 2G24G 6G14G32G15G17
    -85989.872      162996.086          63.750  
   3357161.736     -770014.592          63.750  
    944827.291     -476546.856          63.750  
   2403301.327     -476486.963          63.750  
   1385394.334      797366.384          63.750  
   2311828.466       67828.844          63.750  
   2416607.158      170419.087          63.750  
   5718458.970      428423.548          63.750  
    -89799.175      270440.568          63.750  
   5478824.187      548242.917          63.750  
 14 12 20  0  5 23.6540000  0 10G12G29G25G 2G24G 6G14G32G15G17
    -85873.857      163606.023          63.750  
   3356499.002     -773494.192          63.750  
    944463.247     -478454.392          63.750  
   2402938.903     -478390.513          63.750  
   1385930.263      800182.368          63.750  
   2311887.578       68149.792          63.750  
   2416693.244      170875.188          63.750  
   5718787.302      430147.354          63.750  
    -89678.301      272050.479          63.750  
   5479511.677      551863.064          63.750  
 14 12 20  0  5 24.6540000  0 10G12G29G25G 2G24G 6G14G32G15G17
    -85758.509      164216.467          63.750  
   3355838.493     -776973.538          63.750  
    944101.014     -480361.526          63.750  
   2402576.992     -480293.550          63.750  
   1386465.906      802998.856          63.750  
   2311950.922       68471.487          63.750  
   2416779.758      171332.014          63.750  
   5719116.345      431871.721          63.750  
    -89562.363      273660.931          63.750  
   5480202.187      555483.299          63.750  
 14 12 20  0  5 25.6540000  0 11G12G29G25G 2G24G 6G14G32G20G15G17
    -85640.813      164826.893          63.750  
   3355175.635     -780453.158          63.750  
    943738.188     -482268.780          63.750  
   2402213.954     -482196.594          63.750  
   1387001.903      805815.315          63.750  
   2312009.506       68793.406          63.750  
   2416867.334      171789.031          63.750  
   5719442.896      433596.102          63.750  
   5129845.721     -129132.184          63.750  
    -89438.420      275271.332          63.750  
   5480887.516      559103.157          63.750  
 14 12 20  0  5 26.6540000  0 11G12G29G25G 2G24G 6G14G32G20G15G17
    -85526.133      165437.801          63.750  
   3354512.948     -783932.550          63.750  
    943375.368     -484175.649          63.750  
   2401851.806     -484099.190          63.750  
   1387537.791      808632.239          63.750  
   2312073.385       69116.047          63.750  
   2416953.749      172246.742          63.750  
   5719771.175      435320.998          63.750  
   5129847.874     -129116.290          63.750  
    -89323.828      276882.276          63.750  
   5481580.659      562723.069          63.750  
 14 12 20  0  5 27.6540000  0 11G12G29G25G 2G24G 6G14G32G20G15G17
    -85409.578      166048.791          63.750  
   3353850.518     -787412.116          63.750  
    943012.313     -486082.523          63.750  
   2401491.171     -486001.735          63.750  
   1388074.099      811449.239          63.750  
   2312133.486       69439.004          63.750  
   2417041.074      172704.736          63.750  
   5720099.540      437046.033          63.750  
   5129847.975     -129100.112          63.750  
    -89205.829      278493.252          63.750  
   5482266.377      566342.639          63.750  
 14 12 20  0  5 28.6540000  0 11G12G29G25G 2G24G 6G14G32G20G15G17
    -85293.062      166659.758          63.750  
   3353188.046     -790891.963          63.750  
    942650.070     -487989.556          63.750  
   2401127.786     -487904.232          63.750  
   1388610.719      814266.204          63.750  
   2312195.930       69762.179          63.750  
   2417128.965      173162.928          63.750  
   5720428.390      438771.077          63.750  
   5129855.366     -129083.815          63.750  
    -89096.120      280104.195          63.750  
   5482955.651      569961.739          63.750  
 14 12 20  0  5 29.6540000  0 11G12G29G25G 2G24G 6G14G32G20G15G17
    -85176.333      167270.415          63.750  
   3352525.309     -794372.354          63.750  
    942286.119     -489896.958          63.750  
   2400766.474     -489807.127          63.750  
   1389145.993      817082.845          63.750  
   2312256.064       70085.290          63.750  
   2417215.813      173621.011          63.750  
   5720753.382      440495.848          63.750  
   5129855.044     -129067.669          63.750  
    -88976.289      281714.894          63.750  
   5483643.196      573580.156          63.750  
 14 12 20  0  5 30.6540000  0 11G12G29G25G 2G24G 6G14G32G20G15G17
    -85060.481      167881.408          63.750  
   3351864.444     -797852.671          63.750  
    941923.722     -491804.163          63.750  
   2400404.138     -491709.632          63.750  
   1389682.358      819899.814          63.750  
   2312318.523       70408.963          63.750  
   2417302.698      174079.640          63.750  
   5721086.528      442220.979          63.750  
   5129859.931     -129051.033          63.750  
    -88865.353      283325.847          63.750  
   5484332.921      577198.492          63.750  
 14 12 20  0  5 31.6540000  0 11G12G29G25G 2G24G 6G14G32G20G15G17
    -84944.043      168493.720          63.750  
   3351201.416     -801331.923          63.750  
    941561.043     -493710.141          63.750  
   2400042.660     -493610.825          63.750  
   1390218.452      822718.081          63.750  
   2312379.582       70734.201          63.750  
   2417390.530      174539.802          63.750  
   5721414.883      443947.483          63.750  
   5129863.198     -129032.906          63.750  
    -88740.191      284938.160          63.750  
   5485021.755      580817.702          63.750  
 14 12 20  0  5 32.6540000  0 11G12G29G25G 2G24G 6G14G32G20G15G17
    -84826.496      169106.212          63.750  
   3350539.651     -804811.255          63.750  
    941198.800     -495616.035          63.750  
   2399679.571     -495511.869          63.750  
   1390754.660      825536.519          63.750  
   2312443.055       71059.858          63.750  
   2417479.198      175000.341          63.750  
   5721741.635      445674.208          63.750  
   5129867.395     -129014.448          63.750  
    -88632.186      286550.676          63.750  
   5485712.264      584436.705          63.750  
 14 12 20  0  5 33.6540000  0 11G12G29G25G 2G24G 6G14G32G20G15G17
    -84711.608      169718.862          63.750  
   3349877.394     -808290.669          63.750  
    940836.738     -497521.864          63.750  
   2399319.278     -497412.753          63.750  
   1391291.326      828355.109          63.750  
   2312503.490       71385.913          63.750  
   2417566.291      175461.269          63.750  
   5722072.089      447401.131          63.750  
   5129871.400     -128995.664          63.750  
    -88519.451      288163.319          63.750  
   5486401.201      588055.475          63.750  
 14 12 20  0  5 34.6540000  0 11G12G29G25G 2G24G 6G14G32G20G15G17
    -84594.678      170332.248          63.750  
   3349215.241     -811769.605          63.750  
    940473.060     -499427.069          63.750  
   2398956.440     -499312.895          63.750  
   1391828.135      831174.421          63.750  
   2312567.099       71712.943          63.750  
   2417654.789      175923.131          63.750  
   5722398.912      449128.825          63.750  
   5129870.378     -128975.994          63.750  
    -88396.268      289776.680          63.750  
   5487088.822      591674.562          63.750  
 14 12 20  0  5 35.6540000  0 11G12G29G25G 2G24G 6G14G32G20G15G17
    -84476.246      170946.041          63.750  
   3348553.033     -815248.393          63.750  
    940110.729     -501331.952          63.750  
   2398595.792     -501212.651          63.750  
   1392363.974      833994.136          63.750  
   2312628.378       72040.619          63.750  
   2417742.431      176385.612          63.750  
   5722728.020      450856.967          63.750  
   5129875.691     -128955.749          63.750  
    -88273.465      291390.488          63.750  
   5487772.836      595293.643          63.750  
 14 12 20  0  5 36.6540000  0 11G12G29G25G 2G24G 6G14G32G20G15G17
    -84360.240      171561.158          63.750  
   3347891.338     -818726.111          63.750  
    939747.452     -503235.639          63.750  
   2398235.419     -503111.062          63.750  
   1392901.132      836815.150          63.750  
   2312691.229       72369.857          63.750  
   2417829.979      176849.621          63.750  
   5723059.847      452586.467          63.750  
   5129882.671     -128934.023          63.750  
    -88161.151      293005.606          63.750  
   5488467.050      598913.606          63.750  
 14 12 20  0  5 37.6540000  0 11G12G29G25G 2G24G 6G14G32G20G15G17
    -84243.487      172176.842          63.750  
   3347229.940     -822203.501          63.750  
    939386.509     -505138.843          63.750  
   2397873.300     -505008.938          63.750  
   1393437.354      839636.730          63.750  
   2312754.150       72699.899          63.750  
   2417918.749      177314.413          63.750  
   5723386.304      454316.576          63.750  
   5129883.649     -128911.576          63.750  
    -88036.527      294621.297          63.750  
   5489153.127      602533.752          63.750  
 14 12 20  0  5 38.6540000  0 11G12G29G25G 2G24G 6G14G32G20G15G17
    -84125.760      172793.352          63.750  
   3346567.946     -825680.331          63.750  
    939023.811     -507041.333          63.750  
   2397511.005     -506905.957          63.750  
   1393974.825      842459.107          63.750  
   2312817.863       73031.003          63.750  
   2418007.907      177780.236          63.750  
   5723713.926      456047.549          63.750  
   5129890.804     -128888.156          63.750  
    -87926.425      296237.777          63.750  
   5489840.590      606154.294          63.750  
 14 12 20  0  5 39.6540000  0 11G12G29G25G 2G24G 6G14G32G20G15G17
    -84008.111      173409.673          63.750  
   3345905.454     -829157.600          63.750  
    938662.177     -508944.111          63.750  
   2397151.947     -508803.174          63.750  
   1394512.241      845281.302          63.750  
   2312880.149       73362.166          63.750  
   2418095.104      178246.076          63.750  
   5724046.170      457778.382          63.750  
   5129894.889     -128864.732          63.750  
    -87808.650      297854.158          63.750  
   5490532.282      609774.238          63.750  
 14 12 20  0  5 40.6540000  0 11G12G29G25G 2G24G 6G14G32G20G15G17
    -83890.853      174027.035          63.750  
   3345245.170     -832634.070          63.750  
    938300.731     -510845.930          63.750  
   2396790.361     -510699.395          63.750  
   1395049.932      848104.521          63.750  
   2312943.977       73694.606          63.750  
   2418185.076      178713.174          63.750  
   5724374.647      459510.274          63.750  
   5129899.078     -128840.126          63.750  
    -87691.479      299471.496          63.750  
   5491221.187      613394.815          63.750  
 14 12 20  0  5 41.6540000  0 11G12G29G25G 2G24G 6G14G32G20G15G17
    -83772.946      174644.830          63.750  
   3344583.547     -836110.365          63.750  
    937937.980     -512747.443          63.750  
   2396430.097     -512595.137          63.750  
   1395586.535      850928.157          63.750  
   2313005.674       74027.720          63.750  
   2418273.438      179180.913          63.750  
   5724703.630      461242.656          63.750  
   5129905.232     -128814.947          63.750  
    -87572.444      301089.263          63.750  
   5491908.980      617015.424          63.750  
 14 12 20  0  5 42.6540000  0 11G12G29G25G 2G24G 6G14G32G20G15G17
    -83655.797      175262.872          63.750  
   3343922.315     -839586.664          63.750  
    937576.284     -514648.793          63.750  
   2396069.589     -514490.661          63.750  
   1396123.668      853752.025          63.750  
   2313072.284       74361.318          63.750  
   2418363.937      179649.104          63.750  
   5725034.713      462975.320          63.750  
   5129906.653     -128789.327          63.750  
    -87460.460      302707.321          63.750  
   5492599.962      620635.851          63.750  
 14 12 20  0  5 43.6540000  0 11G12G29G25G 2G24G 6G14G32G20G15G17
    -83539.122      175880.785          63.750  
   3343260.684     -843063.360          63.750  
    937214.584     -516550.378          63.750  
   2395708.466     -516386.325          63.750  
   1396661.447      856575.761          63.750  
   2313131.989       74695.021          63.750  
   2418451.130      180117.377          63.750  
   5725363.324      464707.874          63.750  
   5129913.671     -128763.703          63.750  
    -87337.691      304325.246          63.750  
   5493288.817      624255.724          63.750  
 14 12 20  0  5 44.6540000  0 11G12G29G25G 2G24G 6G14G32G20G15G17
    -83420.527      176499.884          63.750  
   3342599.147     -846539.104          63.750  
    936852.240     -518450.879          63.750  
   2395347.492     -518280.787          63.750  
   1397198.852      859400.664          63.750  
   2313197.937       75030.159          63.750  
   2418541.158      180587.051          63.750  
   5725694.684      466441.677          63.750  
   5129916.076     -128736.723          63.750  
    -87222.883      305944.312          63.750  
   5493976.812      627876.400          63.750  
 14 12 20  0  5 45.6540000  0 11G12G29G25G 2G24G 6G14G32G20G15G17
    -83302.947      177119.307          63.750  
   3341938.550     -850014.786          63.750  
    936490.944     -520351.157          63.750  
   2394987.458     -520174.935          63.750  
   1397736.383      862225.873          63.750  
   2313260.606       75365.846          63.750  
   2418630.598      181057.246          63.750  
   5726022.452      468175.826          63.750  
   5129926.051     -128709.269          63.750  
    -87101.055      307563.746          63.750  
   5494670.116      631496.965          63.750  
 14 12 20  0  5 46.6540000  0 11G12G29G25G 2G24G 6G14G32G20G15G17
    -83184.820      177739.068          63.750  
   3341276.370     -853490.371          63.750  
    936129.688     -522251.202          63.750  
   2394628.470     -522068.733          63.750  
   1398274.687      865051.417          63.750  
   2313326.379       75702.124          63.750  
   2418719.921      181528.004          63.750  
   5726354.066      469910.362          63.750  
   5129928.703     -128681.303          63.750  
    -86991.367      309183.518          63.750  
   5495353.277      635117.459          63.750  
 14 12 20  0  5 47.6540000  0 11G12G29G25G 2G24G 6G14G32G20G15G17
    -83066.491      178359.040          63.750  
   3340613.963     -856966.010          63.750  
    935767.128     -524151.125          63.750  
   2394266.804     -523962.353          63.750  
   1398811.859      867877.158          63.750  
   2313388.071       76038.846          63.750  
   2418809.572      181999.176          63.750  
   5726683.073      471645.137          63.750  
   5129934.010     -128652.990          63.750  
    -86866.123      310803.474          63.750  
   5496045.728      638737.729          63.750  
 14 12 20  0  5 48.6540000  0 11G12G29G25G 2G24G 6G14G32G20G15G17
    -82948.090      178979.155          63.750  
   3339952.012     -860441.740          63.750  
    935407.051     -526051.018          63.750  
   2393906.370     -525855.810          63.750  
   1399349.616      870703.028          63.750  
   2313454.657       76375.948          63.750  
   2418901.226      182470.702          63.750  
   5727015.576      473380.104          63.750  
   5129941.211     -128624.349          63.750  
    -86747.196      312423.615          63.750  
   5496733.612      642357.760          63.750  
 14 12 20  0  5 49.6540000  0 11G12G29G25G 2G24G 6G14G32G20G15G17
    -82831.373      179600.125          63.750  
   3339292.275     -863916.881          63.750  
    935044.750     -527950.141          63.750  
   2393547.217     -527748.420          63.750  
   1399887.814      873529.743          63.750  
   2313516.752       76714.153          63.750  
   2418989.999      182943.285          63.750  
   5727344.182      475115.958          63.750  
   5129946.828     -128594.705          63.750  
    -86634.485      314044.558          63.750  
   5497428.697      645978.243          63.750  
 14 12 20  0  5 50.6540000  0 11G12G29G25G 2G24G 6G14G32G20G15G17
    -82710.825      180221.454          63.750  
   3338631.882     -867391.912          63.750  
    934684.292     -529849.026          63.750  
   2393185.614     -529640.649          63.750  
   1400425.708      876356.804          63.750  
   2313582.825       77052.950          63.750  
   2419080.080      183416.444          63.750  
   5727674.718      476852.206          63.750  
   5129949.499     -128564.538          63.750  
    -86509.642      315665.921          63.750  
   5498108.021      649598.659          63.750  
 14 12 20  0  5 51.6540000  0 11G12G29G25G 2G24G 6G14G32G20G15G17
    -82593.956      180843.981          63.750  
   3337970.050     -870865.993          63.750  
    934322.626     -531746.797          63.750  
   2392826.074     -531531.737          63.750  
   1400963.977      879185.045          63.750  
   2313647.562       77393.185          63.750  
   2419170.410      183891.007          63.750  
   5728004.944      478589.686          63.750  
   5129958.722     -128533.020          63.750  
    -86392.235      317288.435          63.750  
   5498801.516      653219.856          63.750  
 14 12 20  0  5 52.6540000  0 11G12G29G25G 2G24G 6G14G32G20G15G17
    -82475.413      181466.059          63.750  
   3337308.006     -874340.787          63.750  
    933961.403     -533645.114          63.750  
   2392466.398     -533423.260          63.750  
   1401502.015      882012.825          63.750  
   2313711.922       77733.203          63.750  
   2419261.142      184365.327          63.750  
   5728336.613      480326.761          63.750  
   5129964.875     -128501.795          63.750  
    -86278.469      318910.520          63.750  
   5499488.260      656840.174          63.750  
 14 12 20  0  5 53.6540000  0 11G12G29G25G 2G24G 6G14G32G20G15G17
    -82356.318      182088.281          63.750  
   3336646.999     -877815.668          63.750  
    933600.517     -535543.401          63.750  
   2392107.133     -535314.618          63.750  
   1402041.046      884840.737          63.750  
   2313777.306       78073.614          63.750  
   2419351.429      184840.005          63.750  
   5728667.812      482064.027          63.750  
   5129966.861     -128470.264          63.750  
    -86154.554      320532.712          63.750  
   5500178.045      660460.229          63.750  
 14 12 20  0  5 54.6540000  0 11G12G29G25G 2G24G 6G14G32G20G15G17
    -82238.559      182710.879          63.750  
   3335986.979     -881290.433          63.750  
    933238.492     -537441.412          63.750  
   2391746.541     -537205.607          63.750  
   1402577.920      887669.018          63.750  
   2313841.562       78414.644          63.750  
   2419440.835      185315.274          63.750  
   5728998.719      483801.688          63.750  
   5129975.878     -128438.184          63.750  
    -86042.695      322155.332          63.750  
   5500867.580      664080.277          63.750  
 14 12 20  0  5 55.6540000  0 11G12G29G25G 2G24G 6G14G32G20G15G17
    -82120.210      183334.743          63.750  
   3335324.639     -884764.183          63.750  
    932877.757     -539338.248          63.750  
   2391386.768     -539095.347          63.750  
   1403117.028      890498.548          63.750  
   2313907.812       78757.175          63.750  
   2419531.327      185792.009          63.750  
   5729330.021      485540.665          63.750  
   5129980.871     -128404.687          63.750  
    -85925.660      323779.196          63.750  
   5501556.814      667701.147          63.750  
 14 12 20  0  5 56.6540000  0 11G12G29G25G 2G24G 6G14G32G20G15G17
    -82001.130      183958.673          63.750  
   3334664.208     -888238.127          63.750  
    932517.103     -541235.127          63.750  
   2391028.186     -540984.997          63.750  
   1403655.452      893328.128          63.750  
   2313970.978       79100.008          63.750  
   2419622.292      186269.020          63.750  
   5729659.019      487279.759          63.750  
   5129987.092     -128370.977          63.750  
    -85799.393      325403.104          63.750  
   5502245.283      671321.697          63.750  
 14 12 20  0  5 57.6540000  0 11G12G29G25G 2G24G 6G14G32G20G15G17
    -81881.274      184583.620          63.750  
   3334003.619     -891711.289          63.750  
    932156.132     -543131.104          63.750  
   2390667.648     -542873.633          63.750  
   1404193.858      896158.712          63.750  
   2314037.653       79444.091          63.750  
   2419712.992      186747.260          63.750  
   5729989.941      489019.878          63.750  
   5129995.513     -128336.081          63.750  
    -85686.692      327028.068          63.750  
   5502932.347      674942.799          63.750  
 14 12 20  0  5 58.6540000  0 11G12G29G25G 2G24G 6G14G32G20G15G17
    -81763.455      185209.355          63.750  
   3333341.033     -895183.925          63.750  
    931796.038     -545026.349          63.750  
   2390310.088     -544761.523          63.750  
   1404732.876      898990.083          63.750  
   2314102.158       79789.212          63.750  
   2419804.779      187226.501          63.750  
   5730321.729      490760.842          63.750  
   5130002.828     -128300.235          63.750  
    -85566.589      328653.845          63.750  
   5503620.106      678564.326          63.750  
 14 12 20  0  5 59.6540000  0 11G12G29G25G 2G24G 6G14G32G20G15G17
    -81645.098      185835.082          63.750  
   3332682.883     -898656.821          63.750  
    931435.243     -546921.754          63.750  
   2389949.172     -546649.368          63.750  
   1405271.289      901821.419          63.750  
   2314170.901       80134.556          63.750  
   2419896.098      187705.936          63.750  
   5730652.330      492501.824          63.750  
   5130007.800     -128264.235          63.750  
    -85450.682      330279.523          63.750  
   5504315.118      682185.431          63.750  
 14 12 20  0  6  0.6540000  0 11G12G29G25G 2G24G 6G14G32G20G15G17
    -81523.933      186462.067          63.750  
   3332020.487     -902128.700          63.750  
    931074.602     -548815.953          63.750  
   2389589.991     -548536.011          63.750  
   1405810.418      904654.006          63.750  
   2314234.157       80481.408          63.750  
   2419988.239      188186.850          63.750  
   5730985.526      494244.113          63.750  
   5130016.218     -128226.829          63.750  
    -85324.014      331906.521          63.750  
   5504998.929      685807.391          63.750  
 14 12 20  0  6  1.6540000  0 11G12G29G25G 2G24G 6G14G32G20G15G17
    -81405.305      187089.105          63.750  
   3331360.027     -905600.784          63.750  
    930714.866     -550710.224          63.750  
   2389231.668     -550422.563          63.750  
   1406349.376      907486.635          63.750  
   2314301.963       80828.545          63.750  
   2420079.946      188668.013          63.750  
   5731315.140      495986.475          63.750  
   5130023.849     -128189.198          63.750  
    -85209.916      333533.568          63.750  
   5505689.396      689428.947          63.750  
 14 12 20  0  6  2.6540000  0 11G12G29G25G 2G24G 6G14G32G20G15G17
    -81286.009      187717.174          63.750  
   3330699.075     -909072.096          63.750  
    930353.667     -552603.573          63.750  
   2388873.271     -552308.086          63.750  
   1406889.119      910320.276          63.750  
   2314367.198       81176.945          63.750  
   2420171.760      189150.414          63.750  
   5731650.073      497729.923          63.750  
   5130029.642     -128150.384          63.750  
    -85085.051      335161.586          63.750  
   5506378.205      693051.101          63.750  
 14 12 20  0  6  3.6540000  0 11G12G29G25G 2G24G 6G14G32G20G15G17
    -81165.316      188346.384          63.750  
   3330038.616     -912542.502          63.750  
    929993.535     -554495.876          63.750  
   2388514.896     -554192.480          63.750  
   1407427.688      913155.043          63.750  
   2314433.503       81526.740          63.750  
   2420263.360      189634.178          63.750  
   5731980.517      499474.528          63.750  
   5130037.766     -128110.269          63.750  
    -84964.819      336790.819          63.750  
   5507066.351      696674.012          63.750  
 14 12 20  0  6  4.6540000  0 11G12G29G25G 2G24G 6G14G32G20G15G17
    -81046.897      188974.850          63.750  
   3329378.539     -916013.911          63.750  
    929633.365     -556389.014          63.750  
   2388155.839     -556077.623          63.750  
   1407968.102      915989.055          63.750  
   2314500.790       81876.023          63.750  
   2420354.245      190117.395          63.750  
   5732311.632      501218.442          63.750  
   5130045.937     -128070.739          63.750  
    -84852.437      338419.277          63.750  
   5507759.790      700295.766          63.750  
 14 12 20  0  6  5.6540000  0 11G12G29G25G 2G24G 6G14G32G20G15G17
    -80926.762      189603.112          63.750  
   3328718.636     -919485.773          63.750  
    929272.512     -558282.445          63.750  
   2387797.321     -557963.009          63.750  
   1408506.014      918822.847          63.750  
   2314566.257       82225.341          63.750  
   2420446.226      190600.626          63.750  
   5732645.162      502962.193          63.750  
   5130053.400     -128031.255          63.750  
    -84721.941      340047.586          63.750  
   5508445.030      703916.899          63.750  
 14 12 20  0  6  6.6540000  0 11G12G29G25G 2G24G 6G14G32G20G15G17
    -80806.622      190231.051          63.750  
   3328056.084     -922958.211          63.750  
    928912.937     -560176.316          63.750  
   2387438.067     -559848.659          63.750  
   1409046.506      921656.308          63.750  
   2314635.700       82574.571          63.750  
   2420539.003      191083.732          63.750  
   5732974.706      504705.644          63.750  
   5130060.731     -127991.937          63.750  
    -84613.272      341675.489          63.750  
   5509135.968      707537.283          63.750  
 14 12 20  0  6  7.6540000  0 11G12G29G25G 2G24G 6G14G32G20G15G17
    -80688.369      190859.664          63.750  
   3327395.701     -926430.216          63.750  
    928552.645     -562069.604          63.750  
   2387079.363     -561733.665          63.750  
   1409585.501      924490.429          63.750  
   2314698.559       82924.725          63.750  
   2420631.134      191567.737          63.750  
   5733308.659      506449.810          63.750  
   5130068.537     -127951.771          63.750  
    -84486.570      343304.089          63.750  
   5509827.299      711157.947          63.750  
 14 12 20  0  6  8.6540000  0 11G12G29G25G 2G24G 6G14G32G20G15G17
    -80567.765      191489.545          63.750  
   3326735.796     -929901.210          63.750  
    928192.537     -563961.736          63.750  
   2386720.455     -563617.384          63.750  
   1410124.480      927325.803          63.750  
   2314767.698       83276.385          63.750  
   2420723.909      192053.216          63.750  
   5733638.839      508195.299          63.750  
   5130078.215     -127910.178          63.750  
    -84366.098      344933.998          63.750  
   5510512.514      714779.479          63.750  
 14 12 20  0  6  9.6540000  0 11G12G29G25G 2G24G 6G14G32G20G15G17
    -80448.634      192119.812          63.750  
   3326075.577     -933372.073          63.750  
    927832.461     -565853.577          63.750  
   2386362.116     -565500.722          63.750  
   1410665.427      930161.554          63.750  
   2314834.185       83628.664          63.750  
   2420816.353      192539.284          63.750  
   5733970.785      509941.177          63.750  
   5130082.600     -127868.058          63.750  
    -84252.515      346564.270          63.750  
   5511202.151      718400.979          63.750  
 14 12 20  0  6 10.6540000  0 11G12G29G25G 2G24G 6G14G32G20G15G17
    -80328.083      192750.453          63.750  
   3325415.497     -936842.795          63.750  
    927473.433     -567745.124          63.750  
   2386004.470     -567383.726          63.750  
   1411203.848      932997.659          63.750  
   2314900.004       83981.562          63.750  
   2420909.019      193025.941          63.750  
   5734305.016      511687.493          63.750  
   5130091.370     -127825.384          63.750  
    -84127.594      348194.903          63.750  
   5511891.016      722022.432          63.750  
 14 12 20  0  6 11.6540000  0 11G12G29G25G 2G24G 6G14G32G20G15G17
    -80207.328      193382.109          63.750  
   3324754.428     -940312.773          63.750  
    927112.616     -569635.782          63.750  
   2385646.654     -569265.674          63.750  
   1411744.109      935834.767          63.750  
   2314969.803       84335.704          63.750  
   2421001.405      193513.818          63.750  
   5734636.960      513434.852          63.750  
   5130099.479     -127781.559          63.750  
    -84009.415      349826.568          63.750  
   5512582.096      725644.457          63.750  
 14 12 20  0  6 12.6540000  0 11G12G29G25G 2G24G 6G14G32G20G15G17
    -80087.559      194014.398          63.750  
   3324093.940     -943782.351          63.750  
    926752.957     -571525.891          63.750  
   2385287.921     -571146.997          63.750  
   1412283.860      938672.497          63.750  
   2315033.970       84690.732          63.750  
   2421093.819      194002.540          63.750  
   5734970.061      515182.880          63.750  
   5130108.939     -127736.906          63.750  
    -83891.774      351458.832          63.750  
   5513268.317      729266.727          63.750  
 14 12 20  0  6 13.6540000  0 11G12G29G25G 2G24G 6G14G32G20G15G17
    -79967.339      194646.625          63.750  
   3323433.482     -947252.245          63.750  
    926393.686     -573416.175          63.750  
   2384930.383     -573028.362          63.750  
   1412824.398      941510.146          63.750  
   2315104.146       85045.932          63.750  
   2421187.559      194491.404          63.750  
   5735300.681      516930.891          63.750  
   5130118.371     -127692.188          63.750  
    -83768.983      353091.077          63.750  
   5513961.099      732888.529          63.750  
 14 12 20  0  6 14.6540000  0 11G12G29G25G 2G24G 6G14G32G20G15G17
    -79845.589      195279.850          63.750  
   3322774.012     -950721.394          63.750  
    926033.512     -575305.545          63.750  
   2384572.632     -574908.774          63.750  
   1413363.853      944348.777          63.750  
   2315171.211       85402.363          63.750  
   2421280.447      194981.480          63.750  
   5735635.613      518679.921          63.750  
   5130125.163     -127646.304          63.750  
    -83640.401      354724.290          63.750  
   5514648.934      736510.908          63.750  
 14 12 20  0  6 15.6540000  0 11G12G29G25G 2G24G 6G14G32G20G15G17
    -79726.070      195914.127          63.750  
   3322112.497     -954189.738          63.750  
    925673.629     -577193.979          63.750  
   2384214.284     -576788.095          63.750  
   1413904.806      947188.454          63.750  
   2315239.214       85760.094          63.750  
   2421373.440      195472.813          63.750  
   5735966.807      520430.042          63.750  
   5130136.455     -127599.192          63.750  
    -83529.054      356358.562          63.750  
   5515335.589      740133.902          63.750  
 14 12 20  0  6 16.6540000  0 11G12G29G25G 2G24G 6G14G32G20G15G17
    -79605.910      196548.360          63.750  
   3321454.292     -957658.374          63.750  
    925315.404     -579082.540          63.750  
   2383856.859     -578667.498          63.750  
   1414444.452      950028.069          63.750  
   2315307.349       86118.020          63.750  
   2421468.247      195964.313          63.750  
   5736299.316      522180.171          63.750  
   5130141.664     -127551.981          63.750  
    -83403.814      357992.781          63.750  
   5516029.683      743756.438          63.750  
 14 12 20  0  6 17.6540000  0 11G12G29G25G 2G24G 6G14G32G20G15G17
    -79484.257      197182.418          63.750  
   3320793.666     -961127.443          63.750  
    924954.990     -580971.389          63.750  
   2383499.282     -580547.038          63.750  
   1414984.672      952867.493          63.750  
   2315374.809       86476.002          63.750  
   2421560.354      196455.843          63.750  
   5736635.891      523930.137          63.750  
   5130154.553     -127504.788          63.750  
    -83277.984      359626.842          63.750  
   5516717.852      747378.405          63.750  
 14 12 20  0  6 18.6540000  0 11G12G29G25G 2G24G 6G14G32G20G15G17
    -79364.318      197816.435          63.750  
   3320132.535     -964596.796          63.750  
    924596.439     -582860.363          63.750  
   2383141.438     -582426.646          63.750  
   1415525.373      955706.862          63.750  
   2315445.794       86834.189          63.750  
   2421654.542      196947.547          63.750  
   5736968.730      525680.125          63.750  
   5130162.175     -127457.463          63.750  
    -83168.474      361260.866          63.750  
   5517405.585      750999.901          63.750  
 14 12 20  0  6 19.6540000  0 11G12G29G25G 2G24G 6G14G32G20G15G17
    -79243.360      198451.226          63.750  
   3319473.893     -968065.623          63.750  
    924236.558     -584748.666          63.750  
   2382783.920     -584305.468          63.750  
   1416065.394      958546.999          63.750  
   2315511.873       87193.392          63.750  
   2421747.857      197440.241          63.750  
   5737299.504      527430.905          63.750  
   5130170.980     -127409.201          63.750  
    -83038.777      362895.672          63.750  
   5518096.727      754621.775          63.750  
 14 12 20  0  6 20.6540000  0 11G12G29G25G 2G24G 6G14G32G20G15G17
    -79121.864      199086.787          63.750  
   3318813.981     -971533.935          63.750  
    923877.790     -586636.306          63.750  
   2382426.533     -586183.538          63.750  
   1416606.544      961387.881          63.750  
   2315581.302       87553.596          63.750  
   2421842.924      197933.899          63.750  
   5737631.858      529182.490          63.750  
   5130179.430     -127360.025          63.750  
    -82923.968      364531.230          63.750  
   5518784.566      758243.980          63.750  
 14 12 20  0  6 21.6540000  0 11G12G29G25G 2G24G 6G14G32G20G15G17
    -79001.255      199722.706          63.750  
   3318153.727     -975002.135          63.750  
    923518.012     -588523.694          63.750  
   2382070.265     -588061.206          63.750  
   1417147.238      964229.111          63.750  
   2315649.779       87914.404          63.750  
   2421937.253      198428.132          63.750  
   5737967.824      530934.479          63.750  
   5130191.737     -127310.315          63.750  
    -82807.885      366167.165          63.750  
   5519473.874      761866.164          63.750  
 14 12 20  0  6 22.6540000  0 11G12G29G25G 2G24G 6G14G32G20G15G17
    -78879.974      200359.036          63.750  
   3317492.899     -978470.172          63.750  
    923159.454     -590410.749          63.750  
   2381711.576     -589938.500          63.750  
   1417687.558      967070.743          63.750  
   2315717.373       88275.866          63.750  
   2422030.872      198922.988          63.750  
   5738301.603      532686.913          63.750  
   5130199.887     -127260.050          63.750  
    -82681.250      367803.475          63.750  
   5520164.979      765488.329          63.750  
 14 12 20  0  6 23.6540000  0 11G12G29G25G 2G24G 6G14G32G20G15G17
    -78759.265      200995.658          63.750  
   3316834.774     -981938.170          63.750  
    922800.341     -592297.619          63.750  
   2381354.461     -591815.499          63.750  
   1418228.745      969912.645          63.750  
   2315788.636       88637.844          63.750  
   2422125.247      199418.338          63.750  
   5738634.714      534439.676          63.750  
   5130209.141     -127209.320          63.750  
    -82562.043      369440.098          63.750  
   5520852.800      769110.354          63.750  
 14 12 20  0  6 24.6540000  0 11G12G29G25G 2G24G 6G14G32G20G15G17
    -78638.041      201632.972          63.750  
   3316173.634     -985405.711          63.750  
    922441.091     -594183.893          63.750  
   2380998.275     -593691.800          63.750  
   1418768.873      972755.227          63.750  
   2315855.324       89000.769          63.750  
   2422218.886      199914.593          63.750  
   5738968.119      536193.163          63.750  
   5130216.555     -127157.754          63.750  
    -82442.259      371077.413          63.750  
   5521542.432      772732.664          63.750  
 14 12 20  0  6 25.6540000  0 11G12G29G25G 2G24G 6G14G32G20G15G17
    -78516.108      202270.397          63.750  
   3315512.738     -988873.403          63.750  
    922081.798     -596070.161          63.750  
   2380641.915     -595567.985          63.750  
   1419310.187      975597.909          63.750  
   2315926.337       89364.039          63.750  
   2422313.811      200411.166          63.750  
   5739301.996      537946.790          63.750  
   5130229.422     -127105.895          63.750  
    -82323.404      372714.851          63.750  
   5522230.268      776354.676          63.750  
 14 12 20  0  6 26.6540000  0 11G12G29G25G 2G24G 6G14G32G20G15G17
    -78395.211      202908.651          63.750  
   3314853.893     -992340.522          63.750  
    921723.729     -597955.716          63.750  
   2380283.234     -597443.327          63.750  
   1419851.834      978441.396          63.750  
   2315994.456       89728.375          63.750  
   2422408.596      200908.777          63.750  
   5739637.804      539701.287          63.750  
   5130239.135     -127053.067          63.750  
    -82194.097      374353.079          63.750  
   5522921.483      779977.094          63.750  
 14 12 20  0  6 27.6540000  0 11G12G29G25G 2G24G 6G14G32G20G15G17
    -78273.289      203547.690          63.750  
   3314193.689     -995807.082          63.750  
    921364.962     -599840.555          63.750  
   2379926.612     -599317.904          63.750  
   1420392.646      981285.662          63.750  
   2316063.775       90093.737          63.750  
   2422503.146      201407.387          63.750  
   5739968.490      541456.604          63.750  
   5130248.849     -126999.279          63.750  
    -82068.839      375992.122          63.750  
   5523610.374      783599.895          63.750  
 14 12 20  0  6 28.6540000  0 11G12G29G25G 2G24G 6G14G32G20G15G17
    -78151.246      204187.174          63.750  
   3313535.087     -999273.464          63.750  
    921006.417     -601725.046          63.750  
   2379570.154     -601192.054          63.750  
   1420934.606      984130.354          63.750  
   2316134.708       90459.786          63.750  
   2422599.022      201906.648          63.750  
   5740302.147      543212.411          63.750  
   5130258.607     -126944.890          63.750  
    -81955.988      377631.581          63.750  
   5524300.491      787222.709          63.750  
 14 12 20  0  6 29.6540000  0 11G12G29G25G 2G24G 6G14G32G20G15G17
    -78030.201      204827.836          63.750  
   3312875.172    -1002738.914          63.750  
    920647.672     -603608.493          63.750  
   2379214.344     -603064.965          63.750  
   1421476.033      986976.214          63.750  
   2316203.030       90827.245          63.750  
   2422693.160      202407.286          63.750  
   5740638.835      544969.417          63.750  
   5130272.426     -126889.165          63.750  
    -81831.653      379272.256          63.750  
   5524989.955      790846.285          63.750  
 14 12 20  0  6 30.6540000  0 11G12G29G25G 2G24G 6G14G32G20G15G17
    -77907.442      205469.338          63.750  
   3312216.425    -1006203.764          63.750  
    920289.340     -605491.162          63.750  
   2378858.366     -604937.093          63.750  
   1422017.208      989822.895          63.750  
   2316274.020       91195.798          63.750  
   2422788.539      202908.984          63.750  
   5740971.547      546727.300          63.750  
   5130282.096     -126832.458          63.750  
    -81706.615      380913.786          63.750  
   5525679.854      794470.316          63.750  
 14 12 20  0  6 31.6540000  0 11G12G29G25G 2G24G 6G14G32G20G15G17
    -77785.612      206111.002          63.750  
   3311557.407    -1009668.712          63.750  
    919931.062     -607373.789          63.750  
   2378501.616     -606809.035          63.750  
   1422559.012      992669.722          63.750  
   2316344.154       91564.740          63.750  
   2422884.400      203411.053          63.750  
   5741309.182      548485.387          63.750  
   5130288.991     -126775.396          63.750  
    -81591.544      382555.415          63.750  
   5526368.327      798094.046          63.750  
 14 12 20  0  6 32.6540000  0 11G12G29G25G 2G24G 6G14G32G20G15G17
    -77664.400      206751.782          63.750  
   3310898.193    -1013134.789          63.750  
    919572.898     -609257.400          63.750  
   2378145.016     -608681.842          63.750  
   1423101.476      995515.653          63.750  
   2316412.845       91933.046          63.750  
   2422980.786      203912.444          63.750  
   5741640.060      550242.627          63.750  
   5130303.646     -126719.081          63.750  
    -81461.844      384196.244          63.750  
   5527059.264      801716.506          63.750  
 14 12 20  0  6 33.6540000  0 11G12G29G25G 2G24G 6G14G32G20G15G17
    -77541.638      207393.716          63.750  
   3310237.175    -1016599.955          63.750  
    919214.261     -611139.941          63.750  
   2377789.792     -610553.515          63.750  
   1423641.699      998362.721          63.750  
   2316485.208       92302.736          63.750  
   2423075.521      204415.199          63.750  
   5741975.999      552001.056          63.750  
   5130313.049     -126661.444          63.750  
    -81344.178      385838.142          63.750  
   5527748.842      805339.708          63.750  
 14 12 20  0  6 34.6540000  0 11G12G29G25G 2G24G 6G14G32G20G15G17
    -77419.572      208036.416          63.750  
   3309578.810    -1020064.599          63.750  
    918856.419     -613021.817          63.750  
   2377432.741     -612424.415          63.750  
   1424185.384     1001210.547          63.750  
   2316555.645       92673.440          63.750  
   2423170.465      204918.938          63.750  
   5742309.687      553760.282          63.750  
   5130323.987     -126602.872          63.750  
    -81220.316      387480.870          63.750  
   5528436.404      808963.270          63.750  
 14 12 20  0  6 35.6540000  0 11G12G29G25G 2G24G 6G14G32G20G15G17
    -77296.747      208679.604          63.750  
   3308918.022    -1023529.012          63.750  
    918497.809     -614903.298          63.750  
   2377078.191     -614294.851          63.750  
   1424726.415     1004058.840          63.750  
   2316625.587       93044.867          63.750  
   2423268.090      205423.363          63.750  
   5742642.061      555520.028          63.750  
   5130334.873     -126543.662          63.750  
    -81094.428      389124.052          63.750  
   5529127.584      812586.860          63.750  
 14 12 20  0  6 36.6540000  0 11G12G29G25G 2G24G 6G14G32G20G15G17
    -77174.292      209324.532          63.750  
   3308260.051    -1026991.935          63.750  
    918141.662     -616783.158          63.750  
   2376720.965     -616163.513          63.750  
   1425268.587     1006908.848          63.750  
   2316698.035       93418.269          63.750  
   2423364.250      205929.729          63.750  
   5742980.849      557281.555          63.750  
   5130347.347     -126482.559          63.750  
    -80974.837      390768.961          63.750  
   5529815.082      816211.797          63.750  
 14 12 20  0  6 37.6540000  0 11G12G29G25G 2G24G 6G14G32G20G15G17
    -77051.352      209969.232          63.750  
   3307599.645    -1030455.315          63.750  
    917783.177     -618663.321          63.750  
   2376365.692     -618032.413          63.750  
   1425811.437     1009758.635          63.750  
   2316766.779       93791.693          63.750  
   2423459.793      206436.087          63.750  
   5743315.743      559042.890          63.750  
   5130357.932     -126421.509          63.750  
    -80855.804      392413.655          63.750  
   5530504.218      819836.111          63.750  
 14 12 20  0  6 38.6540000  0 11G12G29G25G 2G24G 6G14G32G20G15G17
    -76928.089      210614.696          63.750  
   3306941.999    -1033918.201          63.750  
    917425.950     -620542.837          63.750  
   2376009.459     -619900.534          63.750  
   1426353.859     1012609.158          63.750  
   2316839.374       94166.121          63.750  
   2423557.410      206943.422          63.750  
   5743651.925      560805.018          63.750  
   5130371.352     -126359.546          63.750  
    -80734.061      394059.131          63.750  
   5531193.335      823460.770          63.750  
 14 12 20  0  6 39.6540000  0 11G12G29G25G 2G24G 6G14G32G20G15G17
    -76806.296      211260.777          63.750  
   3306283.429    -1037380.714          63.750  
    917067.224     -622421.827          63.750  
   2375655.067     -621768.062          63.750  
   1426895.659     1015460.279          63.750  
   2316909.948       94541.385          63.750  
   2423653.103      207451.575          63.750  
   5743984.638      562567.794          63.750  
   5130383.562     -126296.801          63.750  
    -80604.347      395705.200          63.750  
   5531884.558      827085.598          63.750  
 14 12 20  0  6 40.6540000  0 11G12G29G25G 2G24G 6G14G32G20G15G17
    -76682.349      211907.830          63.750  
   3305624.950    -1040842.503          63.750  
    916709.980     -624299.938          63.750  
   2375299.931     -623634.604          63.750  
   1427439.370     1018312.361          63.750  
   2316980.865       94917.885          63.750  
   2423750.957      207960.907          63.750  
   5744323.417      564331.585          63.750  
   5130395.020     -126232.925          63.750  
    -80480.964      397352.255          63.750  
   5532575.763      830710.989          63.750  
 14 12 20  0  6 41.6540000  0 11G12G29G25G 2G24G 6G14G32G20G15G17
    -76559.403      212554.958          63.750  
   3304966.317    -1044304.453          63.750  
    916352.952     -626178.073          63.750  
   2374945.235     -625501.068          63.750  
   1427980.859     1021164.504          63.750  
   2317054.726       95294.688          63.750  
   2423846.913      208470.532          63.750  
   5744658.128      566095.487          63.750  
   5130406.836     -126168.811          63.750  
    -80357.524      398999.400          63.750  
   5533265.279      834336.055          63.750  
 14 12 20  0  6 42.6540000  0 11G12G29G25G 2G24G 6G14G32G20G15G17
    -76436.432      213202.558          63.750  
   3304306.865    -1047766.196          63.750  
    915995.422     -628055.837          63.750  
   2374588.727     -627367.040          63.750  
   1428524.931     1024017.103          63.750  
   2317124.803       95672.211          63.750  
   2423945.157      208980.840          63.750  
   5744991.988      567859.907          63.750  
   5130419.727     -126104.050          63.750  
    -80239.877      400647.003          63.750  
   5533954.920      837961.191          63.750  
 14 12 20  0  6 43.6540000  0 11G12G29G25G 2G24G 6G14G32G20G15G17
    -76313.245      213850.537          63.750  
   3303649.151    -1051227.792          63.750  
    915637.736     -629933.326          63.750  
   2374234.396     -629232.648          63.750  
   1429066.450     1026870.065          63.750  
   2317196.148       96050.344          63.750  
   2424040.753      209491.720          63.750  
   5745329.400      569624.725          63.750  
   5130428.827     -126038.776          63.750  
    -80113.276      402294.964          63.750  
   5534649.753      841586.270          63.750  
 14 12 20  0  6 44.6540000  0 11G12G29G25G 2G24G 6G14G32G20G15G17
    -76189.347      214499.022          63.750  
   3302989.189    -1054689.122          63.750  
    915281.187     -631810.401          63.750  
   2373879.862     -631097.744          63.750  
   1429610.533     1029723.519          63.750  
   2317271.239       96429.225          63.750  
   2424139.270      210003.326          63.750  
   5745664.797      571390.079          63.750  
   5130445.771     -125972.820          63.750  
    -79994.117      403943.457          63.750  
   5535332.193      845211.430          63.750  
 14 12 20  0  6 45.6540000  0 11G12G29G25G 2G24G 6G14G32G20G15G17
    -76066.254      215147.498          63.750  
   3302330.771    -1058150.731          63.750  
    914923.323     -633687.579          63.750  
   2373524.206     -632962.854          63.750  
   1430153.413     1032576.951          63.750  
   2317341.358       96808.338          63.750  
   2424235.790      210515.132          63.750  
   5745999.404      573155.468          63.750  
   5130456.391     -125906.723          63.750  
    -79867.990      405591.900          63.750  
   5536023.850      848836.172          63.750  
 14 12 20  0  6 46.6540000  0 11G12G29G25G 2G24G 6G14G32G20G15G17
    -75942.448      215797.285          63.750  
   3301672.230    -1061611.264          63.750  
    914567.547     -635563.550          63.750  
   2373168.296     -634826.646          63.750  
   1430696.133     1035431.669          63.750  
   2317413.896       97188.992          63.750  
   2424334.938      211028.450          63.750  
   5746336.327      574922.180          63.750  
   5130471.403     -125839.148          63.750  
    -79743.548      407241.697          63.750  
   5536715.742      852461.801          63.750  
 14 12 20  0  6 47.6540000  0 11G12G29G25G 2G24G 6G14G32G20G15G17
    -75818.156      216447.834          63.750  
   3301014.068    -1065071.277          63.750  
    914210.603     -637438.854          63.750  
   2372815.017     -636689.677          63.750  
   1431239.884     1038287.141          63.750  
   2317488.713       97570.667          63.750  
   2424432.500      211542.748          63.750  
   5746672.799      576689.727          63.750  
   5130483.284     -125770.638          63.750  
    -79615.955      408892.236          63.750  
   5537403.899      856087.800          63.750  
 14 12 20  0  6 48.6540000  0 11G12G29G25G 2G24G 6G14G32G20G15G17
    -75694.557      217098.503          63.750  
   3300355.172    -1068531.426          63.750  
    913852.564     -639314.145          63.750  
   2372461.518     -638552.570          63.750  
   1431782.721     1041142.713          63.750  
   2317558.824       97952.683          63.750  
   2424530.536      212057.368          63.750  
   5747009.057      578457.403          63.750  
   5130492.984     -125701.867          63.750  
    -79494.330      410542.951          63.750  
   5538093.946      859713.479          63.750  
 14 12 20  0  6 49.6540000  0 11G12G29G25G 2G24G 6G14G32G20G15G17
    -75571.405      217748.796          63.750  
   3299697.390    -1071992.197          63.750  
    913496.261     -641189.889          63.750  
   2372106.188     -640415.861          63.750  
   1432327.097     1043997.898          63.750  
   2317632.724       98334.575          63.750  
   2424628.583      212571.825          63.750  
   5747347.495      580224.729          63.750  
   5130509.684     -125633.313          63.750  
    -79369.812      412193.233          63.750  
   5538783.178      863338.369          63.750  
 14 12 20  0  6 50.6540000  0 11G12G29G25G 2G24G 6G14G32G20G15G17
    -75447.588      218399.370          63.750  
   3299037.467    -1075452.931          63.750  
    913138.422     -643065.473          63.750  
   2371752.176     -642278.831          63.750  
   1432869.726     1046853.343          63.750  
   2317705.421       98716.979          63.750  
   2424725.744      213086.771          63.750  
   5747681.715      581992.396          63.750  
   5130522.674     -125564.307          63.750  
    -79253.582      413843.773          63.750  
   5539473.479      866963.149          63.750  
 14 12 20  0  6 51.6540000  0 11G12G29G25G 2G24G 6G14G32G20G15G17
    -75322.821      219049.858          63.750  
   3298378.896    -1078914.003          63.750  
    912782.681     -644941.225          63.750  
   2371398.015     -644141.914          63.750  
   1433413.594     1049708.695          63.750  
   2317777.723       99099.549          63.750  
   2424824.461      213601.837          63.750  
   5748019.275      583760.004          63.750  
   5130537.477     -125495.223          63.750  
    -79128.038      415494.285          63.750  
   5540162.528      870587.412          63.750  
 14 12 20  0  6 52.6540000  0 11G12G29G25G 2G24G 6G14G32G20G15G17
    -75200.574      219701.612          63.750  
   3297721.032    -1082374.043          63.750  
    912425.556     -646815.805          63.750  
   2371042.393     -646003.727          63.750  
   1433956.884     1052565.284          63.750  
   2317850.584       99483.620          63.750  
   2424921.639      214118.390          63.750  
   5748354.861      585528.904          63.750  
   5130548.954     -125424.713          63.750  
    -79001.810      417146.055          63.750  
   5540855.396      874212.516          63.750  
 14 12 20  0  6 53.6540000  0 11G12G29G25G 2G24G 6G14G32G20G15G17
    -75075.079      220353.674          63.750  
   3297062.962    -1085834.032          63.750  
    912068.839     -648690.180          63.750  
   2370689.805     -647865.229          63.750  
   1434500.139     1055422.178          63.750  
   2317925.044       99868.229          63.750  
   2425020.783      214635.445          63.750  
   5748691.753      587298.155          63.750  
   5130561.683     -125353.742          63.750  
    -78873.767      418798.096          63.750  
   5541542.676      877837.516          63.750  
 14 12 20  0  6 54.6540000  0 11G12G29G25G 2G24G 6G14G32G20G15G17
    -74951.546      221007.057          63.750  
   3296403.989    -1089292.944          63.750  
    911712.128     -650563.334          63.750  
   2370334.530     -649725.394          63.750  
   1435044.498     1058280.370          63.750  
   2317996.747      100254.403          63.750  
   2425119.079      215154.029          63.750  
   5749030.079      589068.751          63.750  
   5130578.184     -125281.283          63.750  
    -78756.446      420451.481          63.750  
   5542233.438      881463.416          63.750  
 14 12 20  0  6 55.6540000  0 11G12G29G25G 2G24G 6G14G32G20G15G17
    -74826.742      221660.235          63.750  
   3295746.332    -1092752.320          63.750  
    911355.950     -652436.793          63.750  
   2369979.954     -651585.775          63.750  
   1435588.155     1061138.342          63.750  
   2318070.851      100640.605          63.750  
   2425218.755      215672.623          63.750  
   5749366.609      590839.184          63.750  
   5130591.280     -125208.882          63.750  
    -78622.329      422104.625          63.750  
   5542924.816      885088.702          63.750  
 14 12 20  0  6 56.6540000  0 11G12G29G25G 2G24G 6G14G32G20G15G17
    -74702.086      222313.558          63.750  
   3295087.916    -1096211.784          63.750  
    910999.999     -654310.202          63.750  
   2369627.293     -653445.989          63.750  
   1436131.876     1063996.438          63.750  
   2318145.766      101027.207          63.750  
   2425315.808      216191.570          63.750  
   5749703.232      592609.785          63.750  
   5130603.601     -125136.170          63.750  
    -78505.220      423758.007          63.750  
   5543612.402      888713.713          63.750  
 14 12 20  0  6 57.6540000  0 11G12G29G25G 2G24G 6G14G32G20G15G17
    -74577.859      222967.747          63.750  
   3294429.190    -1099670.628          63.750  
    910642.953     -656182.850          63.750  
   2369273.580     -655305.335          63.750  
   1436676.279     1066855.393          63.750  
   2318216.987      101414.912          63.750  
   2425416.373      216711.595          63.750  
   5750040.776      594381.301          63.750  
   5130617.010     -125062.421          63.750  
    -78382.125      425412.141          63.750  
   5544297.552      892339.175          63.750  
 14 12 20  0  6 58.6540000  0 11G12G29G25G 2G24G 6G14G32G20G15G17
    -74453.172      223622.330          63.750  
   3293771.423    -1103129.327          63.750  
    910286.759     -658055.183          63.750  
   2368918.907     -657164.306          63.750  
   1437220.037     1069714.716          63.750  
   2318293.518      101803.236          63.750  
   2425513.102      217232.218          63.750  
   5750377.534      596153.230          63.750  
   5130631.769     -124988.128          63.750  
    -78250.089      427066.778          63.750  
   5544993.361      895964.602          63.750  
 14 12 20  0  6 59.6540000  0 11G12G29G25G 2G24G 6G14G32G20G15G17
    -74328.845      224277.820          63.750  
   3293113.499    -1106587.364          63.750  
    909930.947     -659926.724          63.750  
   2368566.484     -659022.345          63.750  
   1437764.769     1072574.932          63.750  
   2318366.594      102192.723          63.750  
   2425613.179      217753.959          63.750  
   5750716.675      597926.109          63.750  
   5130644.185     -124912.770          63.750  
    -78131.446      428722.212          63.750  
   5545684.143      899590.531          63.750  
 14 12 20  0  7  0.6540000  0 11G12G29G25G 2G24G 6G14G32G20G15G17
    -74204.147      224933.883          63.750  
   3292455.994    -1110045.069          63.750  
    909575.089     -661797.775          63.750  
   2368211.982     -660879.821          63.750  
   1438310.038     1075435.710          63.750  
   2318439.690      102583.015          63.750  
   2425712.788      218276.480          63.750  
   5751051.618      599699.581          63.750  
   5130662.690     -124836.663          63.750  
    -77996.092      430378.292          63.750  
   5546372.553      903216.613          63.750  
 14 12 20  0  7  1.6540000  0 11G12G29G25G 2G24G 6G14G32G20G15G17
    -74078.544      225589.858          63.750  
   3291797.163    -1113503.116          63.750  
    909218.698     -663669.024          63.750  
   2367858.164     -662737.365          63.750  
   1438853.450     1078296.378          63.750  
   2318515.587      102973.458          63.750  
   2425812.241      218799.112          63.750  
   5751389.945      601473.020          63.750  
   5130674.240     -124760.489          63.750  
    -77881.268      432034.271          63.750  
   5547062.148      906842.180          63.750  
 14 12 20  0  7  2.6540000  0 11G12G29G25G 2G24G 6G14G32G20G15G17
    -73954.584      226246.662          63.750  
   3291139.372    -1116960.583          63.750  
    908862.493     -665539.533          63.750  
   2367505.577     -664594.080          63.750  
   1439397.801     1081157.862          63.750  
   2318590.510      103364.974          63.750  
   2425912.986      219322.801          63.750  
   5751727.595      603247.310          63.750  
   5130688.776     -124683.330          63.750  
    -77754.037      433691.087          63.750  
   5547752.773      910468.185          63.750  
 14 12 20  0  7  3.6540000  0 11G12G29G25G 2G24G 6G14G32G20G15G17
    -73828.715      226903.121          63.750  
   3290482.026    -1120418.631          63.750  
    908506.661     -667410.487          63.750  
   2367152.941     -666451.155          63.750  
   1439942.597     1084018.983          63.750  
   2318662.958      103756.388          63.750  
   2426011.866      219846.333          63.750  
   5752065.050      605021.282          63.750  
   5130704.632     -124606.354          63.750  
    -77629.382      435347.541          63.750  
   5548441.674      914093.410          63.750  
 14 12 20  0  7  4.6540000  0 11G12G29G25G 2G24G 6G14G32G20G15G17
    -73704.461      227560.562          63.750  
   3289823.115    -1123875.953          63.750  
    908150.324     -669280.545          63.750  
   2366800.593     -668307.227          63.750  
   1440486.795     1086881.071          63.750  
   2318738.384      104149.019          63.750  
   2426112.964      220371.079          63.750  
   5752403.455      606796.284          63.750  
   5130722.415     -124528.228          63.750  
    -77508.415      437004.964          63.750  
   5549134.427      917719.200          63.750  
 14 12 20  0  7  5.6540000  0 11G12G29G25G 2G24G 6G14G32G20G15G17
    -73578.085      228218.183          63.750  
   3289165.473    -1127333.332          63.750  
    907795.224     -671150.529          63.750  
   2366443.489     -670163.122          63.750  
   1441031.532     1089743.318          63.750  
   2318814.218      104542.067          63.750  
   2426212.081      220896.204          63.750  
   5752740.923      608571.488          63.750  
   5130735.855     -124449.771          63.750  
    -77381.396      438662.581          63.750  
   5549821.458      921344.772          63.750  
 14 12 20  0  7  6.6540000  0 11G12G29G25G 2G24G 6G14G32G20G15G17
    -73453.193      228876.150          63.750  
   3288508.301    -1130790.605          63.750  
    907438.637     -673020.271          63.750  
   2366094.167     -672018.658          63.750  
   1441576.191     1092605.901          63.750  
   2318886.914      104935.703          63.750  
   2426311.924      221421.874          63.750  
   5753078.740      610347.081          63.750  
   5130748.839     -124370.804          63.750  
    -77248.160      440320.533          63.750  
   5550512.589      924970.252          63.750  
 14 12 20  0  7  7.6540000  0 11G12G29G25G 2G24G 6G14G32G20G15G17
    -73328.939      229534.927          63.750  
   3287849.380    -1134247.326          63.750  
    907084.068     -674889.282          63.750  
   2365739.460     -673873.388          63.750  
   1442120.855     1095469.274          63.750  
   2318963.102      105330.387          63.750  
   2426411.315      221948.565          63.750  
   5753414.987      612123.508          63.750  
   5130764.107     -124290.875          63.750  
    -77126.067      441979.330          63.750  
   5551199.736      928596.121          63.750  
 14 12 20  0  7  8.6540000  0 11G12G29G25G 2G24G 6G14G32G20G15G17
    -73202.409      230192.690          63.750  
   3287192.258    -1137705.312          63.750  
    906727.650     -676759.425          63.750  
   2365385.729     -675729.130          63.750  
   1442666.994     1098331.616          63.750  
   2319039.959      105724.296          63.750  
   2426513.563      222474.462          63.750  
   5753754.855      613898.957          63.750  
   5130778.378     -124211.778          63.750  
    -77002.582      443637.107          63.750  
   5551892.759      932220.562          63.750  
 14 12 20  0  7  9.6540000  0 11G12G29G25G 2G24G 6G14G32G20G15G17
    -73078.311      230852.116          63.750  
   3286533.805    -1141161.867          63.750  
    906372.524     -678627.987          63.750  
   2365033.190     -677583.194          63.750  
   1443210.210     1101195.604          63.750  
   2319113.254      106120.116          63.750  
   2426612.314      223002.227          63.750  
   5754094.632      615676.101          63.750  
   5130794.741     -124130.869          63.750  
    -76882.120      445296.530          63.750  
   5552579.328      935846.269          63.750  
 14 12 20  0  7 10.6540000  0 11G12G29G25G 2G24G 6G14G32G20G15G17
    -72951.388      231512.396          63.750  
   3285878.183    -1144617.809          63.750  
    906017.413     -680495.795          63.750  
   2364679.157     -679436.407          63.750  
   1443756.518     1104060.430          63.750  
   2319188.269      106517.021          63.750  
   2426713.491      223531.046          63.750  
   5754430.592      617454.133          63.750  
   5130809.766     -124048.938          63.750  
    -76749.713      446956.784          63.750  
   5553274.043      939472.383          63.750  
 14 12 20  0  7 11.6540000  0 11G12G29G25G 2G24G 6G14G32G20G15G17
    -72826.383      232172.199          63.750  
   3285218.015    -1148074.480          63.750  
    905660.583     -682364.176          63.750  
   2364327.649     -681290.087          63.750  
   1444301.587     1106924.763          63.750  
   2319266.481      106913.696          63.750  
   2426814.003      224059.601          63.750  
   5754768.739      619231.727          63.750  
   5130824.854     -123967.337          63.750  
    -76627.135      448616.627          63.750  
   5553960.407      943097.618          63.750  
 14 12 20  0  7 12.6540000  0 11G12G29G25G 2G24G 6G14G32G20G15G17
    -72700.491      232832.558          63.750  
   3284561.491    -1151530.846          63.750  
    905305.723     -684232.099          63.750  
   2363975.438     -683143.207          63.750  
   1444846.314     1109789.634          63.750  
   2319340.223      107311.164          63.750  
   2426913.863      224588.924          63.750  
   5755107.081      621009.896          63.750  
   5130839.665     -123885.018          63.750  
    -76499.534      450277.007          63.750  
   5554651.976      946722.988          63.750  
 14 12 20  0  7 13.6540000  0 11G12G29G25G 2G24G 6G14G32G20G15G17
    -72575.177      233493.478          63.750  
   3283903.556    -1154986.897          63.750  
    904950.065     -686099.558          63.750  
   2363623.072     -684995.755          63.750  
   1445391.515     1112655.045          63.750  
   2319415.001      107709.434          63.750  
   2427016.797      225119.018          63.750  
   5755444.988      622788.671          63.750  
   5130857.078     -123801.978          63.750  
    -76375.879      451937.892          63.750  
   5555341.802      950348.518          63.750  
 14 12 20  0  7 14.6540000  0 11G12G29G25G 2G24G 6G14G32G20G15G17
    -72449.996      234154.455          63.750  
   3283245.422    -1158443.127          63.750  
    904594.961     -687967.056          63.750  
   2363270.320     -686848.258          63.750  
   1445936.175     1115520.498          63.750  
   2319492.705      108107.995          63.750  
   2427116.739      225649.366          63.750  
   5755784.848      624567.530          63.750  
   5130874.133     -123718.696          63.750  
    -76247.271      453598.898          63.750  
   5556030.728      953973.661          63.750  
 14 12 20  0  7 15.6540000  0 11G12G29G25G 2G24G 6G14G32G20G15G17
    -72322.730      234816.746          63.750  
   3282587.926    -1161898.279          63.750  
    904240.025     -689833.332          63.750  
   2362917.876     -688699.426          63.750  
   1446482.962     1118387.252          63.750  
   2319568.714      108508.118          63.750  
   2427218.266      226181.238          63.750  
   5756121.422      626347.738          63.750  
   5130889.608     -123633.955          63.750  
    -76125.214      455261.172          63.750  
   5556723.383      957599.715          63.750  
 14 12 20  0  7 16.6540000  0 11G12G29G25G 2G24G 6G14G32G20G15G17
    -72197.245      235479.437          63.750  
   3281933.590    -1165353.291          63.750  
    903884.680     -691699.312          63.750  
   2362566.178     -690550.200          63.750  
   1447027.937     1121254.382          63.750  
   2319644.083      108908.869          63.750  
   2427317.721      226713.733          63.750  
   5756462.089      628128.376          63.750  
   5130906.699     -123548.654          63.750  
    -75997.299      456923.853          63.750  
   5557411.071      961225.744          63.750  
 14 12 20  0  7 17.6540000  0 11G12G29G25G 2G24G 6G14G32G20G15G17
    -72070.645      236142.905          63.750  
   3281272.398    -1168807.770          63.750  
    903530.712     -693564.604          63.750  
   2362214.400     -692400.180          63.750  
   1447573.664     1124122.275          63.750  
   2319721.461      109310.651          63.750  
   2427420.366      227247.198          63.750  
   5756802.994      629909.820          63.750  
   5130920.898     -123462.422          63.750  
    -75867.938      458587.306          63.750  
   5558100.741      964852.137          63.750  
 14 12 20  0  7 18.6540000  0 11G12G29G25G 2G24G 6G14G32G20G15G17
    -71944.082      236806.387          63.750  
   3280617.022    -1172262.483          63.750  
    903174.581     -695429.980          63.750  
   2361862.249     -694250.145          63.750  
   1448119.330     1126990.166          63.750  
   2319798.003      109712.671          63.750  
   2427522.506      227780.896          63.750  
   5757137.915      631691.312          63.750  
   5130937.414     -123376.004          63.750  
    -75752.845      460250.800          63.750  
   5558790.024      968478.129          63.750  
 14 12 20  0  7 19.6540000  0 11G12G29G25G 2G24G 6G14G32G20G15G17
    -71818.101      237470.618          63.750  
   3279958.303    -1175716.683          63.750  
    902819.013     -697294.707          63.750  
   2361509.563     -696099.371          63.750  
   1448665.540     1129858.791          63.750  
   2319873.068      110115.690          63.750  
   2427623.311      228315.549          63.750  
   5757477.658      633473.592          63.750  
   5130955.355     -123288.680          63.750  
    -75618.840      461915.039          63.750  
   5559479.819      972104.447          63.750  
 14 12 20  0  7 20.6540000  0 11G12G29G25G 2G24G 6G14G32G20G15G17
    -71691.759      238135.407          63.750  
   3279301.456    -1179170.554          63.750  
    902465.386     -699158.959          63.750  
   2361158.684     -697948.010          63.750  
   1449211.361     1132727.958          63.750  
   2319951.363      110519.512          63.750  
   2427726.153      228850.973          63.750  
   5757819.682      635256.456          63.750  
   5130972.163     -123200.626          63.750  
    -75493.822      463579.819          63.750  
   5560170.742      975730.908          63.750  
 14 12 20  0  7 21.6540000  0 11G12G29G25G 2G24G 6G14G32G20G15G17
    -71565.582      238800.084          63.750  
   3278644.361    -1182624.812          63.750  
    902110.392     -701023.444          63.750  
   2360805.518     -699796.766          63.750  
   1449757.895     1135596.985          63.750  
   2320029.249      110923.451          63.750  
   2427828.175      229386.482          63.750  
   5758157.416      637039.243          63.750  
   5130991.821     -123112.551          63.750  
    -75361.259      465244.492          63.750  
   5560863.820      979356.829          63.750  
 14 12 20  0  7 22.6540000  0 11G12G29G25G 2G24G 6G14G32G20G15G17
    -71437.499      239465.654          63.750  
   3277987.204    -1186078.413          63.750  
    901755.112     -702887.116          63.750  
   2360455.862     -701644.625          63.750  
   1450303.387     1138466.897          63.750  
   2320104.866      111328.526          63.750  
   2427929.642      229923.099          63.750  
   5758495.749      638822.953          63.750  
   5131006.729     -123023.390          63.750  
    -75239.624      466910.081          63.750  
   5561550.718      982983.242          63.750  
 14 12 20  0  7 23.6540000  0 11G12G29G25G 2G24G 6G14G32G20G15G17
    -71311.646      240131.290          63.750  
   3277329.348    -1189532.183          63.750  
    901399.642     -704750.815          63.750  
   2360103.905     -703492.408          63.750  
   1450849.450     1141336.850          63.750  
   2320181.446      111733.907          63.750  
   2428031.516      230459.988          63.750  
   5758835.188      640606.772          63.750  
   5131020.528     -122934.022          63.750  
    -75113.507      468575.681          63.750  
   5562242.224      986609.287          63.750  
 14 12 20  0  7 24.6540000  0 11G12G29G25G 2G24G 6G14G32G20G15G17
    -71184.633      240798.088          63.750  
   3276672.583    -1192985.041          63.750  
    901046.503     -706613.453          63.750  
   2359753.090     -705339.026          63.750  
   1451396.274     1144207.952          63.750  
   2320259.542      112140.694          63.750  
   2428134.481      230998.256          63.750  
   5759176.381      642391.771          63.750  
   5131039.207     -122843.326          63.750  
    -74988.818      470242.528          63.750  
   5562929.872      990236.085          63.750  
 14 12 20  0  7 25.6540000  0 12G12G29G25G 2G24G 6G14G32G20G15G17G31
    -71058.459      241466.497          63.750  
   3276015.783    -1196436.539          63.750  
    900692.596     -708474.581          63.750  
   2359400.317     -707184.023          63.750  
   1451942.324     1147080.644          63.750  
   2320338.388      112549.326          63.750  
   2428236.870      231538.329          63.750  
   5759515.433      644178.418          63.750  
   5131057.896     -122750.854          63.750  
    -74863.244      471910.894          63.750  
   5563621.682      993864.073          63.750  
   4680805.603       94859.742          63.750  
 14 12 20  0  7 26.6540000  0 12G12G29G25G 2G24G 6G14G32G20G15G17G31
    -70930.268      242134.470          63.750  
   3275359.108    -1199888.704          63.750  
    900338.268     -710336.230          63.750  
   2359050.116     -709029.454          63.750  
   1452489.077     1149952.891          63.750  
   2320413.938      112957.769          63.750  
   2428340.127      232078.188          63.750  
   5759854.730      645964.669          63.750  
   5131076.450     -122658.662          63.750  
    -74732.559      473578.916          63.750  
   5564315.477      997491.215          63.750  
   4680177.182       91522.607          63.750  
 14 12 20  0  7 27.6540000  0 12G12G29G25G 2G24G 6G14G32G20G15G17G31
    -70804.343      242802.856          63.750  
   3274701.663    -1203340.697          63.750  
    899983.987     -712197.565          63.750  
   2358697.397     -710874.475          63.750  
   1453035.832     1152825.522          63.750  
   2320491.590      113366.859          63.750  
   2428442.834      232618.656          63.750  
   5760197.378      647751.354          63.750  
   5131093.479     -122565.891          63.750  
    -74605.947      475247.294          63.750  
   5565001.263     1001118.335          63.750  
   4679534.025       88185.499          63.750  
 14 12 20  0  7 28.6540000  0 12G12G29G25G 2G24G 6G14G32G20G15G17G31
    -70675.682      243471.282          63.750  
   3274045.052    -1206792.911          63.750  
    899629.689     -714058.961          63.750  
   2358348.278     -712719.427          63.750  
   1453582.306     1155698.185          63.750  
   2320571.268      113776.230          63.750  
   2428546.235      233159.387          63.750  
   5760537.091      649538.110          63.750  
   5131113.320     -122472.924          63.750  
    -74478.391      476915.697          63.750  
   5565693.123     1004745.089          63.750  
   4678910.051       84848.138          63.750  
 14 12 20  0  7 29.6540000  0 12G12G29G25G 2G24G 6G14G32G20G15G17G31
    -70549.398      244139.942          63.750  
   3273387.854    -1210245.121          63.750  
    899275.125     -715920.207          63.750  
   2357996.320     -714564.158          63.750  
   1454129.737     1158571.055          63.750  
   2320649.611      114186.079          63.750  
   2428647.935      233700.546          63.750  
   5760875.202      651325.148          63.750  
   5131127.335     -122379.556          63.750  
    -74351.396      478584.316          63.750  
   5566382.612     1008371.656          63.750  
   4678271.852       81510.636          63.750  
 14 12 20  0  7 30.6540000  0 12G12G29G25G 2G24G 6G14G32G20G15G17G31
    -70421.786      244809.430          63.750  
   3272730.800    -1213696.759          63.750  
    898921.528     -717780.738          63.750  
   2357646.349     -716408.045          63.750  
   1454675.613     1161444.738          63.750  
   2320725.975      114596.988          63.750  
   2428751.218      234242.748          63.750  
   5761215.110      653113.026          63.750  
   5131145.341     -122285.217          63.750  
    -74215.992      480253.854          63.750  
   5567071.604     1011998.630          63.750  
   4677631.088       78173.621          63.750  
 14 12 20  0  7 31.6540000  0 12G12G29G25G 2G24G 6G14G32G20G15G17G31
    -70294.150      245479.571          63.750  
   3272073.418    -1217147.971          63.750  
    898567.644     -719640.698          63.750  
   2357294.744     -718251.266          63.750  
   1455223.268     1164319.062          63.750  
   2320805.213      115008.798          63.750  
   2428855.127      234785.812          63.750  
   5761555.991      654901.595          63.750  
   5131163.670     -122190.030          63.750  
    -74100.052      481924.019          63.750  
   5567762.488     1015625.846          63.750  
   4677001.867       74836.948          63.750  
 14 12 20  0  7 32.6540000  0 12G12G29G25G 2G24G 6G14G32G20G15G17G31
    -70167.024      246149.822          63.750  
   3271418.063    -1220599.321          63.750  
    898213.403     -721500.649          63.750  
   2356944.240     -720094.389          63.750  
   1455770.020     1167193.471          63.750  
   2320885.127      115420.954          63.750  
   2428958.017      235329.187          63.750  
   5761897.898      656690.309          63.750  
   5131182.101     -122094.585          63.750  
    -73960.988      483594.212          63.750  
   5568453.555     1019252.754          63.750  
   4676365.183       71500.027          63.750  
 14 12 20  0  7 33.6540000  0 12G12G29G25G 2G24G 6G14G32G20G15G17G31
    -70038.594      246820.246          63.750  
   3270760.045    -1224050.759          63.750  
    897859.967     -723360.521          63.750  
   2356593.627     -721937.321          63.750  
   1456316.631     1170068.032          63.750  
   2320961.585      115833.522          63.750  
   2429061.514      235872.962          63.750  
   5762236.428      658479.217          63.750  
   5131199.808     -121998.812          63.750  
    -73833.143      485264.648          63.750  
   5569143.559     1022879.402          63.750  
   4675730.266       68162.945          63.750  
 14 12 20  0  7 34.6540000  0 12G12G29G25G 2G24G 6G14G32G20G15G17G31
    -69912.025      247491.005          63.750  
   3270102.828    -1227502.084          63.750  
    897505.472     -725220.150          63.750  
   2356242.916     -723779.911          63.750  
   1456863.584     1172942.919          63.750  
   2321040.178      116246.671          63.750  
   2429165.732      236417.252          63.750  
   5762579.771      660268.499          63.750  
   5131220.244     -121902.547          63.750  
    -73710.411      486935.415          63.750  
   5569833.046     1026505.978          63.750  
   4675092.831       64825.881          63.750  
 14 12 20  0  7 35.6540000  0 12G12G29G25G 2G24G 6G14G32G20G15G17G31
    -69783.253      248162.139          63.750  
   3269448.905    -1230953.293          63.750  
    897152.236     -727079.508          63.750  
   2355891.263     -725622.124          63.750  
   1457411.083     1175818.157          63.750  
   2321120.498      116660.427          63.750  
   2429269.073      236962.146          63.750  
   5762917.415      662058.189          63.750  
   5131239.157     -121805.732          63.750  
    -73580.742      488606.536          63.750  
   5570524.153     1030132.499          63.750  
   4674456.240       61488.815          63.750  
 14 12 20  0  7 36.6540000  0 12G12G29G25G 2G24G 6G14G32G20G15G17G31
    -69656.030      248834.055          63.750  
   3268790.068    -1234403.960          63.750  
    896798.387     -728938.181          63.750  
   2355541.876     -727463.545          63.750  
   1457958.494     1178694.157          63.750  
   2321199.510      117075.202          63.750  
   2429372.729      237508.021          63.750  
   5763260.494      663848.683          63.750  
   5131255.088     -121707.988          63.750  
    -73459.449      490278.450          63.750  
   5571213.546     1033759.392          63.750  
   4673822.086       58152.204          63.750  
 14 12 20  0  7 37.6540000  0 12G12G29G25G 2G24G 6G14G32G20G15G17G31
    -69527.231      249506.201          63.750  
   3268134.106    -1237854.633          63.750  
    896444.914     -730796.711          63.750  
   2355190.505     -729304.729          63.750  
   1458506.130     1181570.371          63.750  
   2321277.337      117490.456          63.750  
   2429477.119      238054.337          63.750  
   5763599.360      665639.452          63.750  
   5131274.555     -121609.845          63.750  
    -73331.672      491950.588          63.750  
   5571905.408     1037386.098          63.750  
   4673185.693       54815.509          63.750  
 14 12 20  0  7 38.6540000  0 12G12G29G25G 2G24G 6G14G32G20G15G17G31
    -69401.198      250178.450          63.750  
   3267477.689    -1241305.450          63.750  
    896090.693     -732655.232          63.750  
   2354842.234     -731145.796          63.750  
   1459052.822     1184446.671          63.750  
   2321355.412      117906.053          63.750  
   2429580.651      238600.962          63.750  
   5763941.219      667430.355          63.750  
   5131292.974     -121511.455          63.750  
    -73203.023      493622.841          63.750  
   5572593.319     1041012.484          63.750  
   4672554.722       51478.556          63.750  
 14 12 20  0  7 39.6540000  0 12G12G29G25G 2G24G 6G14G32G20G15G17G31
    -69271.229      250851.263          63.750  
   3266819.966    -1244755.947          63.750  
    895737.651     -734513.295          63.750  
   2354490.472     -732986.300          63.750  
   1459600.239     1187323.517          63.750  
   2321436.407      118322.448          63.750  
   2429683.836      239148.362          63.750  
   5764281.324      669221.842          63.750  
   5131312.580     -121412.311          63.750  
    -73070.969      495295.669          63.750  
   5573283.955     1044639.014          63.750  
   4671916.616       48141.853          63.750  
 14 12 20  0  7 40.6540000  0 12G12G29G25G 2G24G 6G14G32G20G15G17G31
    -69143.822      251524.446          63.750  
   3266164.898    -1248206.303          63.750  
    895384.250     -736371.064          63.750  
   2354140.947     -734826.429          63.750  
   1460148.396     1190200.719          63.750  
   2321515.792      118739.459          63.750  
   2429789.902      239696.351          63.750  
   5764622.124      671013.744          63.750  
   5131331.687     -121312.636          63.750  
    -72945.544      496968.851          63.750  
   5573972.953     1048265.504          63.750  
   4671283.761       44805.176          63.750  
 14 12 20  0  7 41.6540000  0 12G12G29G25G 2G24G 6G14G32G20G15G17G31
    -69015.652      252198.347          63.750  
   3265509.940    -1251656.208          63.750  
    895029.937     -738228.227          63.750  
   2353790.336     -736665.826          63.750  
   1460694.863     1193078.610          63.750  
   2321594.641      119157.422          63.750  
   2429892.831      240245.248          63.750  
   5764964.157      672806.386          63.750  
   5131351.286     -121212.104          63.750  
    -72816.056      498642.749          63.750  
   5574665.217     1051892.282          63.750  
   4670648.990       41468.879          63.750  
 14 12 20  0  7 42.6540000  0 12G12G29G25G 2G24G 6G14G32G20G15G17G31
    -68887.168      252873.031          63.750  
   3264850.224    -1255105.545          63.750  
    894676.976     -740084.687          63.750  
   2353441.126     -738504.434          63.750  
   1461243.024     1195957.275          63.750  
   2321672.852      119576.416          63.750  
   2430000.845      240795.146          63.750  
   5765305.665      674599.840          63.750  
   5131370.210     -121110.598          63.750  
    -72683.354      500317.429          63.750  
   5575355.344     1055519.438          63.750  
   4670011.643       38133.035          63.750  
 14 12 20  0  7 43.6540000  0 12G12G29G25G 2G24G 6G14G32G20G15G17G31
    -68758.806      253548.180          63.750  
   3264195.757    -1258554.692          63.750  
    894324.316     -741940.799          63.750  
   2353090.236     -740342.576          63.750  
   1461791.733     1198836.379          63.750  
   2321756.072      119996.110          63.750  
   2430102.613      241345.720          63.750  
   5765646.140      676393.779          63.750  
   5131389.156     -121008.488          63.750  
    -72560.925      501992.553          63.750  
   5576045.676     1059146.617          63.750  
   4669378.412       34797.316          63.750  
 14 12 20  0  7 44.6540000  0 12G12G29G25G 2G24G 6G14G32G20G15G17G31
    -68629.845      254223.343          63.750  
   3263539.002    -1262004.046          63.750  
    893969.905     -743796.970          63.750  
   2352742.440     -742180.686          63.750  
   1462339.351     1201715.482          63.750  
   2321834.951      120416.060          63.750  
   2430207.817      241896.512          63.750  
   5765985.862      678187.798          63.750  
   5131406.641     -120906.187          63.750  
    -72430.999      503667.742          63.750  
   5576736.096     1062773.415          63.750  
   4668743.499       31461.259          63.750  
 14 12 20  0  7 45.6540000  0 12G12G29G25G 2G24G 6G14G32G20G15G17G31
    -68502.257      254898.894          63.750  
   3262882.458    -1265453.261          63.750  
    893618.244     -745652.865          63.750  
   2352390.600     -744018.408          63.750  
   1462887.047     1204594.952          63.750  
   2321914.262      120836.631          63.750  
   2430312.689      242447.896          63.750  
   5766330.121      679982.200          63.750  
   5131428.463     -120803.367          63.750  
    -72299.451      505343.274          63.750  
   5577424.564     1066400.157          63.750  
   4668109.751       28125.245          63.750  
 14 12 20  0  7 46.6540000  0 12G12G29G25G 2G24G 6G14G32G20G15G17G31
    -68371.847      255575.135          63.750  
   3262227.083    -1268902.019          63.750  
    893264.681     -747508.147          63.750  
   2352042.282     -745855.426          63.750  
   1463434.841     1207475.095          63.750  
   2321992.846      121258.140          63.750  
   2430418.470      243000.178          63.750  
   5766670.261      681777.352          63.750  
   5131448.445     -120699.667          63.750  
    -72175.457      507019.513          63.750  
   5578114.858     1070027.193          63.750  
   4667472.796       24789.634          63.750  
 14 12 20  0  7 47.6540000  0 12G12G29G25G 2G24G 6G14G32G20G15G17G31
    -68245.511      256251.771          63.750  
   3261570.072    -1272350.635          63.750  
    892911.483     -749363.142          63.750  
   2351692.694     -747692.045          63.750  
   1463982.899     1210355.609          63.750  
   2322074.875      121680.278          63.750  
   2430523.428      243553.064          63.750  
   5767010.332      683572.902          63.750  
   5131466.812     -120595.430          63.750  
    -72044.556      508696.167          63.750  
   5578804.888     1073654.192          63.750  
   4666837.726       21454.033          63.750  
 14 12 20  0  7 48.6540000  0 12G12G29G25G 2G24G 6G14G32G20G15G17G31
    -68115.466      256928.074          63.750  
   3260914.401    -1275799.824          63.750  
    892558.251     -751218.566          63.750  
   2351342.397     -749528.990          63.750  
   1464531.848     1213235.779          63.750  
   2322154.445      122102.326          63.750  
   2430629.200      244105.836          63.750  
   5767353.586      685368.174          63.750  
   5131488.666     -120491.345          63.750  
    -71911.775      510372.474          63.750  
   5579495.124     1077280.449          63.750  
   4666207.278       18117.790          63.750  
 14 12 20  0  7 49.6540000  0 12G12G29G25G 2G24G 6G14G32G20G15G17G31
    -67987.136      257604.289          63.750  
   3260257.635    -1279249.337          63.750  
    892205.883     -753074.169          63.750  
   2350992.824     -751366.014          63.750  
   1465078.803     1216115.836          63.750  
   2322236.438      122524.528          63.750  
   2430733.566      244658.719          63.750  
   5767695.560      687163.366          63.750  
   5131506.685     -120387.194          63.750  
    -71787.099      512048.701          63.750  
   5580187.155     1080906.189          63.750  
   4665569.411       14781.104          63.750  
 14 12 20  0  7 50.6540000  0 12G12G29G25G 2G24G 6G14G32G20G15G17G31
    -67857.715      258281.870          63.750  
   3259600.627    -1282697.729          63.750  
    891852.168     -754928.500          63.750  
   2350644.015     -753201.661          63.750  
   1465627.587     1218997.242          63.750  
   2322313.732      122948.332          63.750  
   2430838.965      245213.169          63.750  
   5768038.782      688959.974          63.750  
   5131526.593     -120281.512          63.750  
    -71656.305      513726.260          63.750  
   5580875.019     1084532.881          63.750  
   4664935.576       11445.471          63.750  
 14 12 20  0  7 51.6540000  0 12G12G29G25G 2G24G 6G14G32G20G15G17G31
    -67729.269      258960.176          63.750  
   3258944.687    -1286145.658          63.750  
    891500.045     -756782.196          63.750  
   2350294.677     -755036.571          63.750  
   1466175.643     1221879.355          63.750  
   2322397.498      123373.108          63.750  
   2430945.767      245768.564          63.750  
   5768377.864      690757.330          63.750  
   5131546.853     -120174.947          63.750  
    -71528.886      515404.574          63.750  
   5581567.626     1088159.874          63.750  
   4664298.530        8110.228          63.750  
 14 12 20  0  7 52.6540000  0 12G12G29G25G 2G24G 6G14G32G20G15G17G31
    -67599.351      259638.604          63.750  
   3258287.878    -1289593.682          63.750  
    891146.991     -758635.875          63.750  
   2349945.959     -756871.361          63.750  
   1466724.289     1224761.565          63.750  
   2322478.508      123798.235          63.750  
   2431051.236      246324.282          63.750  
   5768721.667      692554.824          63.750  
   5131567.619     -120068.109          63.750  
    -71399.042      517083.016          63.750  
   5582256.647     1091786.565          63.750  
   4663664.246        4774.733          63.750  
 14 12 20  0  7 53.6540000  0 12G12G29G25G 2G24G 6G14G32G20G15G17G31
    -67471.229      260316.920          63.750  
   3257631.872    -1293042.061          63.750  
    890794.392     -760489.751          63.750  
   2349596.258     -758706.247          63.750  
   1467273.458     1227643.652          63.750  
   2322558.392      124223.499          63.750  
   2431156.923      246880.100          63.750  
   5769063.268      694352.251          63.750  
   5131589.533     -119961.206          63.750  
    -71278.905      518761.312          63.750  
   5582946.157     1095412.736          63.750  
   4663031.456        1438.824          63.750  
 14 12 20  0  7 54.6540000  0 12G12G29G25G 2G24G 6G14G32G20G15G17G31
    -67341.038      260995.947          63.750  
   3256976.231    -1296489.979          63.750  
    890441.991     -762343.017          63.750  
   2349248.104     -760540.416          63.750  
   1467821.448     1230526.432          63.750  
   2322638.676      124649.713          63.750  
   2431261.733      247436.834          63.750  
   5769407.110      696150.420          63.750  
   5131610.536     -119853.435          63.750  
    -71142.655      520440.327          63.750  
   5583635.188     1099039.186          63.750  
   4662394.586       -1896.717          63.750  
 14 12 20  0  7 55.6540000  0 12G12G29G25G 2G24G 6G14G32G20G15G17G31
    -67212.857      261675.372          63.750  
   3256319.134    -1299937.737          63.750  
    890088.214     -764195.971          63.750  
   2348897.446     -762374.177          63.750  
   1468370.666     1233409.585          63.750  
   2322720.540      125076.563          63.750  
   2431367.702      247994.181          63.750  
   5769746.992      697949.015          63.750  
   5131629.956     -119745.100          63.750  
    -71011.811      522119.752          63.750  
   5584325.544     1102665.623          63.750  
   4661762.354       -5232.201          63.750  
 14 12 20  0  7 56.6540000  0 12G12G29G25G 2G24G 6G14G32G20G15G17G31
    -67082.402      262355.854          63.750  
   3255663.200    -1303384.700          63.750  
    889737.019     -766047.967          63.750  
   2348549.283     -764206.875          63.750  
   1468919.354     1236293.775          63.750  
   2322803.537      125504.707          63.750  
   2431474.955      248552.788          63.750  
   5770092.249      699748.684          63.750  
   5131649.249     -119635.552          63.750  
    -70883.143      523800.271          63.750  
   5585014.080     1106292.690          63.750  
   4661124.600       -8566.940          63.750  
 14 12 20  0  7 57.6540000  0 12G12G29G25G 2G24G 6G14G32G20G15G17G31
    -66953.114      263037.710          63.750  
   3255008.116    -1306830.495          63.750  
    889383.969     -767898.685          63.750  
   2348201.431     -766038.186          63.750  
   1469468.356     1239179.323          63.750  
   2322885.641      125934.472          63.750  
   2431581.070      249112.972          63.750  
   5770433.493      701549.771          63.750  
   5131672.022     -119524.465          63.750  
    -70747.644      525482.100          63.750  
   5585709.305     1109920.725          63.750  
   4660491.729      -11900.654          63.750  
 14 12 20  0  7 58.6540000  0 12G12G29G25G 2G24G 6G14G32G20G15G17G31
    -66823.238      263719.926          63.750  
   3254352.610    -1310276.196          63.750  
    889032.479     -769749.141          63.750  
   2347852.879     -767869.130          63.750  
   1470017.466     1242065.205          63.750  
   2322965.672      126364.831          63.750  
   2431688.143      249673.727          63.750  
   5770775.424      703351.260          63.750  
   5131691.882     -119412.859          63.750  
    -70622.570      527164.321          63.750  
   5586396.683     1113548.685          63.750  
   4659859.129      -15234.376          63.750  
 14 12 20  0  7 59.6540000  0 12G12G29G25G 2G24G 6G14G32G20G15G17G31
    -66693.294      264402.805          63.750  
   3253696.677    -1313721.469          63.750  
    888680.176     -771599.019          63.750  
   2347504.060     -769699.399          63.750  
   1470566.721     1244951.739          63.750  
   2323047.068      126796.099          63.750  
   2431794.738      250235.360          63.750  
   5771119.354      705153.424          63.750  
   5131713.924     -119300.423          63.750  
    -70497.479      528847.185          63.750  
   5587087.780     1117176.900          63.750  
   4659222.848      -18567.712          63.750  
 14 12 20  0  8  0.6540000  0 12G12G29G25G 2G24G 6G14G32G20G15G17G31
    -66563.098      265086.621          63.750  
   3253042.490    -1317166.039          63.750  
    888328.884     -773448.059          63.750  
   2347156.833     -771528.729          63.750  
   1471116.055     1247839.188          63.750  
   2323130.096      127228.538          63.750  
   2431900.796      250798.133          63.750  
   5771462.076      706956.561          63.750  
   5131736.299     -119186.898          63.750  
    -70363.096      530531.000          63.750  
   5587776.830     1120805.617          63.750  
   4658588.340      -21900.480          63.750  
 14 12 20  0  8  1.6540000  0 12G12G29G25G 2G24G 6G14G32G20G15G17G31
    -66433.362      265771.144          63.750  
   3252386.378    -1320610.141          63.750  
    887976.613     -775296.485          63.750  
   2346807.703     -773357.342          63.750  
   1471665.868     1250727.320          63.750  
   2323214.321      127661.929          63.750  
   2432009.319      251361.812          63.750  
   5771806.771      708760.426          63.750  
   5131755.729     -119072.487          63.750  
    -70237.061      532215.539          63.750  
   5588469.701     1124434.639          63.750  
   4657955.414      -25232.884          63.750  
 14 12 20  0  8  2.6540000  0 12G12G29G25G 2G24G 6G14G32G20G15G17G31
    -66302.679      266455.279          63.750  
   3251730.522    -1324054.886          63.750  
    887625.459     -777145.397          63.750  
   2346460.486     -775186.330          63.750  
   1472214.594     1253615.053          63.750  
   2323296.194      128095.173          63.750  
   2432116.326      251925.320          63.750  
   5772147.850      710563.941          63.750  
   5131777.997     -118958.327          63.750  
    -70097.405      533899.663          63.750  
   5589159.575     1128062.842          63.750  
   4657318.449      -28565.997          63.750  
 14 12 20  0  8  3.6540000  0 12G12G29G25G 2G24G 6G14G32G20G15G17G31
    -66172.500      267140.275          63.750  
   3251075.138    -1327499.002          63.750  
    887272.938     -778993.534          63.750  
   2346112.422     -777014.445          63.750  
   1472764.951     1256503.620          63.750  
   2323377.802      128529.510          63.750  
   2432223.568      252489.894          63.750  
   5772492.072      712368.345          63.750  
   5131799.097     -118843.120          63.750  
    -69977.196      535584.664          63.750  
   5589848.512     1131691.489          63.750  
   4656687.880      -31898.592          63.750  
 14 12 20  0  8  4.6540000  0 12G12G29G25G 2G24G 6G14G32G20G15G17G31
    -66041.520      267825.525          63.750  
   3250419.227    -1330943.112          63.750  
    886921.461     -780841.511          63.750  
   2345764.825     -778842.302          63.750  
   1473314.894     1259392.421          63.750  
   2323458.862      128964.343          63.750  
   2432332.682      253054.938          63.750  
   5772835.502      714173.030          63.750  
   5131821.732     -118727.516          63.750  
    -69841.377      537269.900          63.750  
   5590540.230     1135319.965          63.750  
   4656051.975      -35231.253          63.750  
 14 12 20  0  8  5.6540000  0 12G12G29G25G 2G24G 6G14G32G20G15G17G31
    -65911.148      268511.419          63.750  
   3249764.349    -1334386.818          63.750  
    886570.441     -782688.947          63.750  
   2345416.427     -780669.502          63.750  
   1473864.434     1262281.850          63.750  
   2323544.378      129400.063          63.750  
   2432438.688      253620.828          63.750  
   5773180.453      715978.398          63.750  
   5131843.313     -118611.094          63.750  
    -69712.562      538955.815          63.750  
   5591230.862     1138948.674          63.750  
   4655418.453      -38563.616          63.750  
 14 12 20  0  8  6.6540000  0 12G12G29G25G 2G24G 6G14G32G20G15G17G31
    -65780.316      269197.508          63.750  
   3249109.174    -1337830.562          63.750  
    886217.794     -784536.278          63.750  
   2345068.854     -782496.493          63.750  
   1474414.313     1265171.451          63.750  
   2323628.647      129836.221          63.750  
   2432546.825      254187.122          63.750  
   5773521.782      717783.973          63.750  
   5131868.310     -118494.314          63.750  
    -69587.211      540641.896          63.750  
   5591921.897     1142577.156          63.750  
   4654782.262      -41896.096          63.750  
 14 12 20  0  8  7.6540000  0 12G12G29G25G 2G24G 6G14G32G20G15G17G31
    -65649.565      269884.507          63.750  
   3248455.472    -1341273.648          63.750  
    885867.500     -786382.790          63.750  
   2344721.939     -784322.578          63.750  
   1474964.440     1268061.942          63.750  
   2323710.468      130273.529          63.750  
   2432654.234      254754.533          63.750  
   5773866.843      719590.503          63.750  
   5131890.862     -118376.458          63.750  
    -69451.955      542328.881          63.750  
   5592612.086     1146206.115          63.750  
   4654148.178      -45228.030          63.750  
 14 12 20  0  8  8.6540000  0 12G12G29G25G 2G24G 6G14G32G20G15G17G31
    -65518.906      270571.803          63.750  
   3247796.228    -1344716.680          63.750  
    885515.594     -788229.103          63.750  
   2344373.917     -786148.346          63.750  
   1475514.358     1270952.712          63.750  
   2323793.354      130711.366          63.750  
   2432762.623      255322.451          63.750  
   5774210.007      721397.354          63.750  
   5131914.046     -118258.157          63.750  
    -69315.906      544016.176          63.750  
   5593302.881     1149834.966          63.750  
   4653515.224      -48559.992          63.750  
 14 12 20  0  8  9.6540000  0 12G12G29G25G 2G24G 6G14G32G20G15G17G31
    -65388.585      271259.487          63.750  
   3247144.955    -1348159.541          63.750  
    885164.063     -790075.116          63.750  
   2344027.706     -787973.714          63.750  
   1476065.086     1273843.856          63.750  
   2323875.455      131149.846          63.750  
   2432872.202      255890.967          63.750  
   5774556.246      723204.628          63.750  
   5131935.057     -118139.299          63.750  
    -69191.579      545703.891          63.750  
   5593992.622     1153463.785          63.750  
   4652880.814      -51891.882          63.750  
 14 12 20  0  8 10.6540000  0 12G12G29G25G 2G24G 6G14G32G20G15G17G31
    -65257.627      271947.636          63.750  
   3246488.419    -1351602.200          63.750  
    884813.010     -791920.760          63.750  
   2343679.952     -789798.608          63.750  
   1476614.814     1276735.436          63.750  
   2323960.052      131589.020          63.750  
   2432979.460      256460.146          63.750  
   5774896.800      725012.385          63.750  
   5131955.953     -118019.820          63.750  
    -69056.920      547392.036          63.750  
   5594683.423     1157092.642          63.750  
   4652246.439      -55223.671          63.750  
 14 12 20  0  8 11.6540000  0 12G12G29G25G 2G24G 6G14G32G20G15G17G31
    -65126.806      272635.604          63.750  
   3245833.669    -1355045.270          63.750  
    884461.720     -793766.682          63.750  
   2343332.917     -791623.683          63.750  
   1477165.275     1279626.815          63.750  
   2324045.184      132028.252          63.750  
   2433087.454      257029.360          63.750  
   5775243.348      726820.003          63.750  
   5131979.664     -117900.354          63.750  
    -68927.733      549079.987          63.750  
   5595372.669     1160720.891          63.750  
   4651615.905      -58555.969          63.750  
 14 12 20  0  8 12.6540000  0 12G12G29G25G 2G24G 6G14G32G20G15G17G31
    -64995.179      273324.169          63.750  
   3245178.629    -1358487.990          63.750  
    884111.009     -795612.100          63.750  
   2342984.404     -793448.143          63.750  
   1477715.917     1282518.770          63.750  
   2324127.905      132468.323          63.750  
   2433196.351      257599.370          63.750  
   5775587.062      728628.225          63.750  
   5132002.522     -117780.134          63.750  
    -68793.839      550768.549          63.750  
   5596065.327     1164349.324          63.750  
   4650979.232      -61888.001          63.750  
 14 12 20  0  8 13.6540000  0 12G12G29G25G 2G24G 6G14G32G20G15G17G31
    -64864.707      274013.655          63.750  
   3244522.955    -1361930.027          63.750  
    883759.750     -797456.686          63.750  
   2342638.210     -795271.668          63.750  
   1478266.730     1285411.630          63.750  
   2324211.554      132909.558          63.750  
   2433305.059      258170.517          63.750  
   5775929.732      730437.420          63.750  
   5132026.658     -117658.826          63.750  
    -68662.627      552458.055          63.750  
   5596752.828     1167978.245          63.750  
   4650345.358      -65219.438          63.750  
 14 12 20  0  8 14.6540000  0 12G12G29G25G 2G24G 6G14G32G20G15G17G31
    -64733.748      274702.656          63.750  
   3243867.657    -1365372.799          63.750  
    883408.439     -799301.854          63.750  
   2342290.008     -797095.673          63.750  
   1478815.517     1288303.984          63.750  
   2324294.396      133350.541          63.750  
   2433413.790      258741.390          63.750  
   5776275.673      732246.152          63.750  
   5132047.543     -117537.836          63.750  
    -68530.595      554147.053          63.750  
   5597446.402     1171606.277          63.750  
   4649712.602      -68551.699          63.750  
 14 12 20  0  8 15.6540000  0 12G12G29G25G 2G24G 6G14G32G20G15G17G31
    -64602.078      275392.813          63.750  
   3243213.503    -1368814.636          63.750  
    883058.528     -801145.958          63.750  
   2341944.311     -798918.516          63.750  
   1479367.218     1291197.475          63.750  
   2324379.070      133792.935          63.750  
   2433522.334      259313.618          63.750  
   5776620.039      734056.062          63.750  
   5132073.541     -117415.529          63.750  
    -68405.496      555837.217          63.750  
   5598135.840     1175235.036          63.750  
   4649077.925      -71883.117          63.750  
 14 12 20  0  8 16.6540000  0 12G12G29G25G 2G24G 6G14G32G20G15G17G31
    -64469.946      276083.893          63.750  
   3242559.304    -1372255.795          63.750  
    882706.852     -802989.233          63.750  
   2341597.706     -800740.420          63.750  
   1479917.302     1294091.858          63.750  
   2324464.964      134236.478          63.750  
   2433631.156      259886.979          63.750  
   5776963.038      735866.940          63.750  
   5132096.062     -117292.147          63.750  
    -68271.734      557528.320          63.750  
   5598827.924     1178864.315          63.750  
   4648443.979      -75213.998          63.750  
 14 12 20  0  8 17.6540000  0 12G12G29G25G 2G24G 6G14G32G20G15G17G31
    -64339.102      276774.556          63.750  
   3241903.172    -1375697.620          63.750  
    882355.840     -804833.018          63.750  
   2341250.479     -802562.730          63.750  
   1480468.987     1296985.812          63.750  
   2324549.470      134679.850          63.750  
   2433740.885      260460.129          63.750  
   5777307.826      737677.424          63.750  
   5132118.424     -117169.016          63.750  
    -68147.478      559218.953          63.750  
   5599517.765     1182492.731          63.750  
   4647811.489      -78545.581          63.750  
 14 12 20  0  8 18.6540000  0 12G12G29G25G 2G24G 6G14G32G20G15G17G31
    -64207.433      277465.683          63.750  
   3241248.374    -1379139.215          63.750  
    882004.759     -806676.437          63.750  
   2340903.881     -804384.568          63.750  
   1481019.580     1299880.207          63.750  
   2324633.577      135123.923          63.750  
   2433850.840      261033.957          63.750  
   5777652.657      739488.382          63.750  
   5132145.576     -117045.260          63.750  
    -68005.686      560910.065          63.750  
   5600206.911     1186121.194          63.750  
   4647175.871      -81877.043          63.750  
 14 12 20  0  8 19.6540000  0 12G12G29G25G 2G24G 6G14G32G20G15G17G31
    -64076.551      278157.187          63.750  
   3240593.713    -1382580.669          63.750  
    881653.831     -808519.567          63.750  
   2340557.766     -806206.008          63.750  
   1481569.771     1302774.969          63.750  
   2324716.523      135568.618          63.750  
   2433959.340      261608.367          63.750  
   5777996.418      741299.770          63.750  
   5132167.581     -116920.949          63.750  
    -67881.083      562601.587          63.750  
   5600896.051     1189749.624          63.750  
   4646540.977      -85208.471          63.750  
 14 12 20  0  8 20.6540000  0 12G12G29G25G 2G24G 6G14G32G20G15G17G31
    -63943.965      278849.992          63.750  
   3239938.185    -1386021.069          63.750  
    881303.334     -810361.481          63.750  
   2340210.157     -808026.146          63.750  
   1482121.412     1305671.003          63.750  
   2324801.340      136014.859          63.750  
   2434068.692      262184.285          63.750  
   5778343.744      743112.479          63.750  
   5132192.005     -116795.198          63.750  
    -67741.965      564294.387          63.750  
   5601588.728     1193378.928          63.750  
   4645908.521      -88538.920          63.750  
 14 12 20  0  8 21.6540000  0 12G12G29G25G 2G24G 6G14G32G20G15G17G31
    -63812.222      279542.796          63.750  
   3239284.315    -1389461.696          63.750  
    880953.195     -812203.503          63.750  
   2339864.910     -809846.273          63.750  
   1482672.619     1308567.014          63.750  
   2324888.011      136461.325          63.750  
   2434179.269      262760.418          63.750  
   5778687.752      744925.218          63.750  
   5132214.512     -116669.267          63.750  
    -67620.910      565987.159          63.750  
   5602277.173     1197007.811          63.750  
   4645274.553      -91869.718          63.750  
 14 12 20  0  8 22.6540000  0 12G12G29G25G 2G24G 6G14G32G20G15G17G31
    -63680.600      280235.582          63.750  
   3238630.117    -1392902.586          63.750  
    880603.194     -814045.628          63.750  
   2339518.026     -811666.407          63.750  
   1483223.003     1311462.982          63.750  
   2324972.689      136908.018          63.750  
   2434287.888      263336.723          63.750  
   5779033.365      746737.955          63.750  
   5132238.688     -116543.205          63.750  
    -67479.435      567679.951          63.750  
   5602973.291     1200636.257          63.750  
   4644639.214      -95200.849          63.750  
 14 12 20  0  8 23.6540000  0 12G12G29G25G 2G24G 6G14G32G20G15G17G31
    -63549.048      280928.513          63.750  
   3237974.080    -1396343.583          63.750  
    880252.507     -815887.698          63.750  
   2339171.674     -813486.381          63.750  
   1483773.475     1314359.082          63.750  
   2325057.922      137355.099          63.750  
   2434396.895      263913.390          63.750  
   5779377.221      748550.875          63.750  
   5132261.887     -116416.826          63.750  
    -67350.271      569372.901          63.750  
   5603661.638     1204264.420          63.750  
   4644005.662      -98532.197          63.750  
 14 12 20  0  8 24.6540000  0 12G12G29G25G 2G24G 6G14G32G20G15G17G31
    -63416.016      281621.183          63.750  
   3237319.757    -1399785.079          63.750  
    879902.062     -817730.137          63.750  
   2338826.174     -815306.609          63.750  
   1484325.540     1317254.899          63.750  
   2325142.231      137802.156          63.750  
   2434507.867      264490.005          63.750  
   5779721.679      750363.555          63.750  
   5132283.854     -116290.556          63.750  
    -67215.918      571065.546          63.750  
   5604349.920     1207891.910          63.750  
   4643372.250     -101864.109          63.750  
 14 12 20  0  8 25.6540000  0 12G12G29G25G 2G24G 6G14G32G20G15G17G31
    -63284.703      282314.277          63.750  
   3236665.832    -1403226.377          63.750  
    879551.422     -819572.230          63.750  
   2338480.056     -817126.396          63.750  
   1484876.561     1320151.122          63.750  
   2325227.558      138249.884          63.750  
   2434616.799      265067.251          63.750  
   5780067.688      752176.692          63.750  
   5132307.319     -116163.693          63.750  
    -67089.438      572758.653          63.750  
   5605041.624     1211519.405          63.750  
   4642739.854     -105195.946          63.750  
 14 12 20  0  8 26.6540000  0 12G12G29G25G 2G24G 6G14G32G20G15G17G31
    -63152.799      283008.118          63.750  
   3236009.687    -1406667.180          63.750  
    879200.637     -821413.672          63.750  
   2338133.338     -818945.431          63.750  
   1485428.329     1323048.064          63.750  
   2325313.628      138698.595          63.750  
   2434726.905      265645.455          63.750  
   5780412.358      753990.610          63.750  
   5132336.877     -116035.918          63.750  
    -66957.182      574452.497          63.750  
   5605729.796     1215147.218          63.750  
   4642104.222     -108527.364          63.750  
 14 12 20  0  8 27.6540000  0 12G12G29G25G 2G24G 6G14G32G20G15G17G31
    -63020.662      283703.029          63.750  
   3235354.937    -1410107.144          63.750  
    878850.951     -823254.140          63.750  
   2337787.344     -820763.381          63.750  
   1485979.455     1325946.062          63.750  
   2325398.466      139148.615          63.750  
   2434836.926      266224.935          63.750  
   5780758.073      755805.618          63.750  
   5132358.392     -115906.906          63.750  
    -66822.928      576147.426          63.750  
   5606422.801     1218775.671          63.750  
   4641472.081     -111858.046          63.750  
 14 12 20  0  8 28.6540000  0 12G12G29G25G 2G24G 6G14G32G20G15G17G31
    -62887.907      284398.056          63.750  
   3234700.217    -1413547.238          63.750  
    878500.012     -825094.584          63.750  
   2337441.129     -822581.205          63.750  
   1486530.725     1328844.147          63.750  
   2325485.350      139598.994          63.750  
   2434948.125      266804.731          63.750  
   5781104.490      757620.775          63.750  
   5132385.165     -115777.640          63.750  
    -66687.878      577842.421          63.750  
   5607111.812     1222403.834          63.750  
   4640835.403     -115188.951          63.750  
 14 12 20  0  8 29.6540000  0 12G12G29G25G 2G24G 6G14G32G20G15G17G31
    -62755.943      285093.579          63.750  
   3234045.945    -1416987.069          63.750  
    878149.768     -826934.624          63.750  
   2337095.979     -824398.518          63.750  
   1487082.159     1331742.710          63.750  
   2325571.490      140050.106          63.750  
   2435058.053      267385.235          63.750  
   5781450.052      759436.451          63.750  
   5132408.167     -115647.689          63.750  
    -66558.106      579537.949          63.750  
   5607801.503     1226032.071          63.750  
   4640204.057     -118519.685          63.750  
 14 12 20  0  8 30.6540000  0 12G12G29G25G 2G24G 6G14G32G20G15G17G31
    -62622.975      285789.516          63.750  
   3233391.400    -1420426.728          63.750  
    877799.967     -828774.348          63.750  
   2336749.778     -826215.413          63.750  
   1487633.919     1334641.666          63.750  
   2325655.888      140501.875          63.750  
   2435169.331      267966.357          63.750  
   5781794.958      761252.579          63.750  
   5132435.444     -115517.173          63.750  
    -66419.728      581233.900          63.750  
   5608492.885     1229660.278          63.750  
   4639569.531     -121850.332          63.750  
 14 12 20  0  8 31.6540000  0 12G12G29G25G 2G24G 6G14G32G20G15G17G31
    -62491.459      286485.618          63.750  
   3232738.302    -1423866.453          63.750  
    877450.670     -830613.989          63.750  
   2336404.146     -828032.125          63.750  
   1488185.752     1337540.769          63.750  
   2325741.747      140954.049          63.750  
   2435279.753      268547.862          63.750  
   5782140.034      763068.889          63.750  
   5132459.302     -115386.328          63.750  
    -66292.359      582930.000          63.750  
   5609183.489     1233288.248          63.750  
   4638936.498     -125181.146          63.750  
 14 12 20  0  8 32.6540000  0 12G12G29G25G 2G24G 6G14G32G20G15G17G31
    -62358.165      287182.487          63.750  
   3232083.830    -1427305.660          63.750  
    877100.035     -832452.967          63.750  
   2336057.575     -829848.063          63.750  
   1488737.754     1340440.609          63.750  
   2325828.478      141407.225          63.750  
   2435389.614      269130.330          63.750  
   5782485.779      764885.991          63.750  
   5132483.979     -115254.562          63.750  
    -66163.148      584626.858          63.750  
   5609873.755     1236916.564          63.750  
   4638300.878     -128511.536          63.750  
 14 12 20  0  8 33.6540000  0 12G12G29G25G 2G24G 6G14G32G20G15G17G31
    -62226.190      287880.026          63.750  
   3231428.370    -1430744.433          63.750  
    876750.020     -834291.360          63.750  
   2335713.289     -831663.310          63.750  
   1489289.230     1343341.108          63.750  
   2325916.661      141861.313          63.750  
   2435500.864      269713.686          63.750  
   5782832.421      766703.801          63.750  
   5132507.734     -115121.950          63.750  
    -66027.179      586324.406          63.750  
   5610563.018     1240545.126          63.750  
   4637669.501     -131841.572          63.750  
 14 12 20  0  8 34.6540000  0 12G12G29G25G 2G24G 6G14G32G20G15G17G31
    -62092.570      288577.338          63.750  
   3230773.792    -1434183.672          63.750  
    876399.961     -836130.073          63.750  
   2335367.273     -833478.781          63.750  
   1489842.121     1346241.353          63.750  
   2326001.621      142315.418          63.750  
   2435613.506      270297.009          63.750  
   5783177.146      768521.411          63.750  
   5132535.372     -114989.408          63.750  
    -65888.901      588021.718          63.750  
   5611253.042     1244173.040          63.750  
   4637033.758     -135172.203          63.750  
 14 12 20  0  8 35.6540000  0 12G12G29G25G 2G24G 6G14G32G20G15G17G31
    -61959.804      289275.792          63.750  
   3230120.182    -1437622.009          63.750  
    876051.018     -837967.737          63.750  
   2335022.448     -835293.088          63.750  
   1490393.220     1349142.721          63.750  
   2326088.386      142770.909          63.750  
   2435724.509      270881.700          63.750  
   5783520.138      770340.191          63.750  
   5132560.208     -114855.568          63.750  
    -65756.151      589720.158          63.750  
   5611944.380     1247801.683          63.750  
   4636398.938     -138501.987          63.750  
 14 12 20  0  8 36.6540000  0 12G12G29G25G 2G24G 6G14G32G20G15G17G31
    -61827.428      289974.529          63.750  
   3229465.550    -1441060.297          63.750  
    875700.340     -839805.209          63.750  
   2334676.040     -837107.111          63.750  
   1490944.888     1352044.344          63.750  
   2326175.121      143226.919          63.750  
   2435835.129      271466.865          63.750  
   5783871.004      772159.270          63.750  
   5132588.101     -114721.264          63.750  
    -65628.191      591418.922          63.750  
   5612636.175     1251430.175          63.750  
   4635767.001     -141831.840          63.750  
 14 12 20  0  8 37.6540000  0 12G12G29G25G 2G24G 6G14G32G20G15G17G31
    -61694.388      290672.184          63.750  
   3228811.606    -1444499.903          63.750  
    875350.744     -841643.856          63.750  
   2334331.662     -838922.197          63.750  
   1491497.429     1354944.877          63.750  
   2326261.899      143682.086          63.750  
   2435945.946      272051.163          63.750  
   5784217.793      773977.306          63.750  
   5132611.727     -114587.899          63.750  
    -65490.902      593116.551          63.750  
   5613324.737     1255057.169          63.750  
   4635132.555     -145163.076          63.750  
 14 12 20  0  8 38.6540000  0 12G12G29G25G 2G24G 6G14G32G20G15G17G31
    -61561.872      291371.325          63.750  
   3228154.451    -1447938.269          63.750  
    875001.391     -843481.114          63.750  
   2333986.904     -840735.787          63.750  
   1492050.490     1357846.861          63.750  
   2326347.415      144138.976          63.750  
   2436057.499      272637.155          63.750  
   5784563.346      775796.850          63.750  
   5132635.230     -114452.880          63.750  
    -65371.582      594815.709          63.750  
   5614015.561     1258685.224          63.750  
   4634499.260     -148493.187          63.750  
 14 12 20  0  8 39.6540000  0 12G12G29G25G 2G24G 6G14G32G20G15G17G31
    -61427.540      292071.995          63.750  
   3227502.152    -1451375.332          63.750  
    874652.488     -845316.928          63.750  
   2333641.493     -842547.831          63.750  
   1492602.281     1360750.359          63.750  
   2326435.435      144597.641          63.750  
   2436169.358      273224.877          63.750  
   5784907.569      777617.951          63.750  
   5132664.385     -114316.161          63.750  
    -65227.815      596516.404          63.750  
   5614704.988     1262314.374          63.750  
   4633865.409     -151822.088          63.750  
 14 12 20  0  8 40.6540000  0 12G12G29G25G 2G24G 6G14G32G20G15G17G31
    -61295.001      292773.060          63.750  
   3226848.012    -1454812.247          63.750  
    874303.657     -847152.443          63.750  
   2333296.850     -844359.472          63.750  
   1493156.012     1363654.225          63.750  
   2326523.010      145056.942          63.750  
   2436282.502      273813.213          63.750  
   5785256.475      779439.479          63.750  
   5132689.118     -114178.883          63.750  
    -65101.319      598217.450          63.750  
   5615398.176     1265943.521          63.750  
   4633233.141     -155150.942          63.750  
 14 12 20  0  8 41.6540000  0 12G12G29G25G 2G24G 6G14G32G20G15G17G31
    -61160.935      293475.010          63.750  
   3226195.587    -1458248.521          63.750  
    873953.721     -848987.162          63.750  
   2332951.343     -846170.211          63.750  
   1493707.904     1366558.959          63.750  
   2326610.373      145517.360          63.750  
   2436392.332      274402.631          63.750  
   5785601.274      781261.917          63.750  
   5132712.547     -114040.580          63.750  
    -64962.008      599919.377          63.750  
   5616086.617     1269573.124          63.750  
   4632599.593     -158479.235          63.750  
 14 12 20  0  8 42.6540000  0 12G12G29G25G 2G24G 6G14G32G20G15G17G31
    -61027.439      294177.858          63.750  
   3225540.026    -1461684.129          63.750  
    873604.857     -850821.084          63.750  
   2332608.408     -847980.046          63.750  
   1494259.859     1369464.564          63.750  
   2326699.367      145978.922          63.750  
   2436506.020      274993.163          63.750  
   5785948.512      783085.282          63.750  
   5132742.749     -113901.202          63.750  
    -64827.537      601622.217          63.750  
   5616777.396     1273203.198          63.750  
   4631966.163     -161806.955          63.750  
 14 12 20  0  8 43.6540000  0 12G12G29G25G 2G24G 6G14G32G20G15G17G31
    -60893.035      294882.006          63.750  
   3224886.645    -1465118.672          63.750  
    873256.355     -852653.790          63.750  
   2332263.595     -849788.562          63.750  
   1494814.169     1372371.450          63.750  
   2326787.208      146442.025          63.750  
   2436619.221      275585.190          63.750  
   5786295.872      784909.965          63.750  
   5132765.801     -113760.362          63.750  
    -64697.341      603326.399          63.750  
   5617470.041     1276834.135          63.750  
   4631332.662     -165133.710          63.750  
 14 12 20  0  8 44.6540000  0 12G12G29G25G 2G24G 6G14G32G20G15G17G31
    -60759.951      295584.579          63.750  
   3224232.476    -1468555.027          63.750  
    872906.843     -854488.161          63.750  
   2331920.617     -851598.643          63.750  
   1495366.392     1375276.744          63.750  
   2326874.796      146903.798          63.750  
   2436731.588      276175.862          63.750  
   5786644.709      786733.104          63.750  
   5132793.212     -113620.924          63.750  
    -64562.413      605028.932          63.750  
   5618158.169     1280463.102          63.750  
   4630697.914     -168462.362          63.750  
 14 12 20  0  8 45.6540000  0 12G12G29G25G 2G24G 6G14G32G20G15G17G31
    -60624.798      296289.346          63.750  
   3223579.680    -1471989.433          63.750  
    872558.042     -856320.438          63.750  
   2331575.079     -853406.514          63.750  
   1495920.567     1378184.205          63.750  
   2326961.685      147367.991          63.750  
   2436843.380      276768.928          63.750  
   5786990.183      788558.468          63.750  
   5132822.999     -113479.146          63.750  
    -64422.959      606733.711          63.750  
   5618851.028     1284093.814          63.750  
   4630066.789     -171789.164          63.750  
 14 12 20  0  8 46.6540000  0 12G12G29G25G 2G24G 6G14G32G20G15G17G31
    -60491.675      296994.653          63.750  
   3222926.599    -1475423.533          63.750  
    872209.623     -858152.261          63.750  
   2331231.700     -855213.831          63.750  
   1496473.121     1381092.187          63.750  
   2327050.503      147832.982          63.750  
   2436958.628      277362.743          63.750  
   5787337.140      790384.401          63.750  
   5132847.735     -113336.645          63.750  
    -64295.640      608439.050          63.750  
   5619543.227     1287724.673          63.750  
   4629433.839     -175115.756          63.750  
 14 12 20  0  8 47.6540000  0 12G12G29G25G 2G24G 6G14G32G20G15G17G31
    -60356.752      297700.188          63.750  
   3222271.946    -1478857.639          63.750  
    871860.904     -859983.948          63.750  
   2330886.885     -857020.915          63.750  
   1497026.750     1384000.372          63.750  
   2327139.792      148298.429          63.750  
   2437069.586      277956.995          63.750  
   5787685.912      792210.591          63.750  
   5132876.705     -113193.781          63.750  
    -64158.711      610144.514          63.750  
   5620230.729     1291355.301          63.750  
   4628798.262     -178442.454          63.750  
 14 12 20  0  8 48.6540000  0 12G12G29G25G 2G24G 6G14G32G20G15G17G31
    -60222.598      298405.290          63.750  
   3221619.233    -1482292.430          63.750  
    871512.211     -861816.159          63.750  
   2330542.766     -858828.409          63.750  
   1497580.236     1386908.104          63.750  
   2327229.029      148763.689          63.750  
   2437183.185      278551.019          63.750  
   5788032.243      794036.359          63.750  
   5132901.345     -113051.165          63.750  
    -64019.581      611849.648          63.750  
   5620924.396     1294985.095          63.750  
   4628168.578     -181769.905          63.750  
 14 12 20  0  8 49.6540000  0 12G12G29G25G 2G24G 6G14G32G20G15G17G31
    -60088.430      299111.121          63.750  
   3220964.416    -1485726.706          63.750  
    871163.530     -863647.731          63.750  
   2330201.286     -860635.163          63.750  
   1498133.640     1389816.541          63.750  
   2327317.409      149229.921          63.750  
   2437297.028      279145.983          63.750  
   5788381.338      795862.894          63.750  
   5132929.118     -112907.662          63.750  
    -63895.015      613555.493          63.750  
   5621612.486     1298615.213          63.750  
   4627532.593     -185096.954          63.750  
 14 12 20  0  8 50.6540000  0 12G12G29G25G 2G24G 6G14G32G20G15G17G31
    -59953.453      299817.688          63.750  
   3220312.852    -1489160.504          63.750  
    870815.844     -865478.664          63.750  
   2329856.594     -862441.167          63.750  
   1498687.356     1392725.689          63.750  
   2327406.274      149697.115          63.750  
   2437409.672      279741.890          63.750  
   5788726.298      797690.191          63.750  
   5132959.553     -112763.268          63.750  
    -63749.745      615262.061          63.750  
   5622305.519     1302245.621          63.750  
   4626901.591     -188423.597          63.750  
 14 12 20  0  8 51.6540000  0 12G12G29G25G 2G24G 6G14G32G20G15G17G31
    -59819.833      300524.981          63.750  
   3219658.575    -1492593.799          63.750  
    870467.616     -867308.963          63.750  
   2329512.991     -864246.434          63.750  
   1499241.896     1395635.548          63.750  
   2327495.237      150165.289          63.750  
   2437523.911      280338.727          63.750  
   5789075.516      799518.245          63.750  
   5132983.068     -112617.969          63.750  
    -63616.188      616969.332          63.750  
   5622995.391     1305876.347          63.750  
   4626268.288     -191749.875          63.750  
 14 12 20  0  8 52.6540000  0 12G12G29G25G 2G24G 6G14G32G20G15G17G31
    -59684.386      301233.123          63.750  
   3219005.235    -1496026.487          63.750  
    870119.445     -869138.504          63.750  
   2329169.898     -866050.840          63.750  
   1499794.426     1398546.225          63.750  
   2327584.852      150634.542          63.750  
   2437635.949      280936.615          63.750  
   5789425.831      801347.166          63.750  
   5133015.454     -112471.682          63.750  
    -63483.146      618677.485          63.750  
   5623686.124     1309507.479          63.750  
   4625634.096     -195075.611          63.750  
 14 12 20  0  8 53.6540000  0 12G12G29G25G 2G24G 6G14G32G20G15G17G31
    -59549.850      301942.524          63.750  
   3218352.555    -1499458.158          63.750  
    869771.451     -870966.876          63.750  
   2328825.404     -867853.976          63.750  
   1500348.707     1401458.149          63.750  
   2327672.613      151105.306          63.750  
   2437750.887      281535.983          63.750  
   5789771.393      803177.378          63.750  
   5133042.861     -112323.944          63.750  
    -63350.925      620386.909          63.750  
   5624376.657     1313139.469          63.750  
   4625000.918     -198400.407          63.750  
 14 12 20  0  8 54.6540000  0 12G12G29G25G 2G24G 6G14G32G20G15G17G31
    -59414.004      302651.851          63.750  
   3217700.678    -1502890.142          63.750  
    869423.199     -872795.414          63.750  
   2328483.177     -869657.165          63.750  
   1500903.669     1404369.964          63.750  
   2327763.630      151576.230          63.750  
   2437865.389      282135.480          63.750  
   5790120.353      805007.542          63.750  
   5133067.848     -112176.144          63.750  
    -63216.341      622096.234          63.750  
   5625069.237     1316770.940          63.750  
   4624368.224     -201725.621          63.750  
 14 12 20  0  8 55.6540000  0 12G12G29G25G 2G24G 6G14G32G20G15G17G31
    -59279.710      303362.116          63.750  
   3217046.898    -1506321.424          63.750  
    869074.795     -874623.106          63.750  
   2328140.586     -871459.403          63.750  
   1501456.647     1407282.703          63.750  
   2327852.546      152048.332          63.750  
   2437979.189      282736.111          63.750  
   5790470.295      806838.664          63.750  
   5133098.416     -112027.233          63.750  
    -63080.391      623806.481          63.750  
   5625759.223     1320402.942          63.750  
   4623734.991     -205050.229          63.750  
 14 12 20  0  8 56.6540000  0 12G12G29G25G 2G24G 6G14G32G20G15G17G31
    -59143.749      304073.903          63.750  
   3216394.302    -1509751.401          63.750  
    868727.384     -876449.363          63.750  
   2327797.026     -873260.108          63.750  
   1502011.387     1410196.939          63.750  
   2327943.679      152522.198          63.750  
   2438094.271      283338.478          63.750  
   5790816.728      808671.334          63.750  
   5133129.526     -111876.636          63.750  
    -62945.738      625518.273          63.750  
   5626452.959     1324036.047          63.750  
   4623103.104     -208373.647          63.750  
 14 12 20  0  8 57.6540000  0 12G12G29G25G 2G24G 6G14G32G20G15G17G31
    -59008.988      304785.900          63.750  
   3215741.907    -1513181.427          63.750  
    868379.930     -878275.508          63.750  
   2327454.948     -875060.581          63.750  
   1502566.848     1413111.359          63.750  
   2328034.125      152996.520          63.750  
   2438208.701      283941.264          63.750  
   5791166.053      810504.247          63.750  
   5133153.142     -111725.661          63.750  
    -62811.007      627230.282          63.750  
   5627142.050     1327668.930          63.750  
   4622471.413     -211697.185          63.750  
 14 12 20  0  8 58.6540000  0 12G12G29G25G 2G24G 6G14G32G20G15G17G31
    -58873.271      305496.843          63.750  
   3215088.379    -1516612.733          63.750  
    868032.598     -880102.786          63.750  
   2327112.365     -876862.099          63.750  
   1503121.500     1416024.711          63.750  
   2328125.252      153470.022          63.750  
   2438323.652      284543.202          63.750  
   5791515.254      812336.138          63.750  
   5133183.751     -111575.593          63.750  
    -62677.055      628941.231          63.750  
   5627833.985     1331300.352          63.750  
   4621840.564     -215022.092          63.750  
 14 12 20  0  8 59.6540000  0 12G12G29G25G 2G24G 6G14G32G20G15G17G31
    -58738.261      306208.534          63.750  
   3214434.596    -1520043.531          63.750  
    867685.273     -881929.418          63.750  
   2326768.569     -878662.855          63.750  
   1503675.099     1418938.785          63.750  
   2328214.873      153944.506          63.750  
   2438437.421      285146.107          63.750  
   5791864.599      814168.795          63.750  
   5133211.424     -111424.597          63.750  
    -62538.568      630652.915          63.750  
   5628523.753     1334932.089          63.750  
   4621206.056     -218346.591          63.750  
 14 12 20  0  9  0.6540000  0 12G12G29G25G 2G24G 6G14G32G20G15G17G31
    -58602.711      306920.570          63.750  
   3213782.810    -1523474.223          63.750  
    867337.380     -883755.794          63.750  
   2326426.845     -880463.257          63.750  
   1504229.883     1421853.180          63.750  
   2328305.549      154419.580          63.750  
   2438553.178      285749.546          63.750  
   5792212.251      816001.825          63.750  
   5133238.640     -111273.103          63.750  
    -62398.820      632364.981          63.750  
   5629215.848     1338563.731          63.750  
   4620574.247     -221671.076          63.750  
 14 12 20  0  9  1.6540000  0 12G12G29G25G 2G24G 6G14G32G20G15G17G31
    -58466.796      307632.955          63.750  
   3213129.569    -1526904.804          63.750  
    866989.657     -885581.918          63.750  
   2326083.931     -882263.286          63.750  
   1504784.761     1424767.893          63.750  
   2328395.234      154895.245          63.750  
   2438668.137      286353.549          63.750  
   5792562.081      817835.224          63.750  
   5133268.943     -111121.095          63.750  
    -62267.329      634077.325          63.750  
   5629907.698     1342195.317          63.750  
   4619941.289     -224995.550          63.750  
 14 12 20  0  9  2.6540000  0 12G12G29G25G 2G24G 6G14G32G20G15G17G31
    -58331.437      308346.133          63.750  
   3212476.526    -1530334.815          63.750  
    866642.265     -887407.327          63.750  
   2325741.809     -884062.510          63.750  
   1505338.951     1427683.386          63.750  
   2328485.333      155371.950          63.750  
   2438782.847      286958.549          63.750  
   5792910.357      819669.446          63.750  
   5133298.495     -110968.131          63.750  
    -62138.785      635790.494          63.750  
   5630597.812     1345827.261          63.750  
   4619307.513     -228319.544          63.750  
 14 12 20  0  9  3.6540000  0 12G12G29G25G 2G24G 6G14G32G20G15G17G31
    -58194.225      309060.754          63.750  
   3211825.491    -1533763.631          63.750  
    866295.229     -889231.395          63.750  
   2325399.621     -885860.280          63.750  
   1505894.358     1430600.301          63.750  
   2328575.811      155850.324          63.750  
   2438897.537      287565.201          63.750  
   5793260.569      821505.137          63.750  
   5133328.534     -110813.552          63.750  
    -61986.976      637505.121          63.750  
   5631288.244     1349460.244          63.750  
   4618676.160     -231642.439          63.750  
 14 12 20  0  9  4.6540000  0 12G12G29G25G 2G24G 6G14G32G20G15G17G31
    -58059.630      309775.333          63.750  
   3211171.383    -1537192.724          63.750  
    865948.717     -891055.593          63.750  
   2325057.897     -887658.073          63.750  
   1506449.888     1433517.143          63.750  
   2328667.499      156328.905          63.750  
   2439014.507      288172.019          63.750  
   5793610.241      823340.812          63.750  
   5133356.097     -110658.861          63.750  
    -61865.050      639219.706          63.750  
   5631981.885     1353092.747          63.750  
   4618045.458     -234965.697          63.750  
 14 12 20  0  9  5.6540000  0 12G12G29G25G 2G24G 6G14G32G20G15G17G31
    -57922.454      310490.468          63.750  
   3210520.155    -1540621.507          63.750  
    865601.498     -892879.324          63.750  
   2324715.420     -889455.296          63.750  
   1507004.982     1436434.526          63.750  
   2328758.052      156808.284          63.750  
   2439130.339      288779.605          63.750  
   5793959.597      825177.069          63.750  
   5133388.419     -110503.446          63.750  
    -61719.870      640934.861          63.750  
   5632673.228     1356725.382          63.750  
   4617409.377     -238288.727          63.750  
 14 12 20  0  9  6.6540000  0 12G12G29G25G 2G24G 6G14G32G20G15G17G31
    -57787.176      311205.530          63.750  
   3209866.833    -1544050.571          63.750  
    865254.290     -894703.216          63.750  
   2324373.980     -891252.578          63.750  
   1507559.408     1439351.808          63.750  
   2328850.225      157287.826          63.750  
   2439244.497      289387.317          63.750  
   5794307.851      827013.278          63.750  
   5133417.904     -110347.957          63.750  
    -61589.938      642649.902          63.750  
   5633361.124     1360357.531          63.750  
   4616780.262     -241612.162          63.750  
 14 12 20  0  9  7.6540000  0 12G12G29G25G 2G24G 6G14G32G20G15G17G31
    -57650.591      311921.626          63.750  
   3209214.079    -1547478.866          63.750  
    864906.358     -896526.175          63.750  
   2324031.688     -893048.818          63.750  
   1508115.447     1442270.099          63.750  
   2328942.984      157768.646          63.750  
   2439360.098      289996.271          63.750  
   5794660.607      828850.539          63.750  
   5133445.361     -110191.257          63.750  
    -61450.800      644365.972          63.750  
   5634057.215     1363990.280          63.750  
   4616145.643     -244934.887          63.750  
 14 12 20  0  9  8.6540000  0 12G12G29G25G 2G24G 6G14G32G20G15G17G31
    -57514.544      312638.128          63.750  
   3208561.395    -1550906.979          63.750  
    864560.344     -898348.807          63.750  
   2323690.101     -894844.631          63.750  
   1508670.366     1445188.776          63.750  
   2329033.538      158250.110          63.750  
   2439475.049      290605.837          63.750  
   5795008.534      830688.242          63.750  
   5133476.810     -110033.972          63.750  
    -61314.168      646082.472          63.750  
   5634746.365     1367623.013          63.750  
   4615517.341     -248257.545          63.750  
 14 12 20  0  9  9.6540000  0 12G12G29G25G 2G24G 6G14G32G20G15G17G31
    -57378.354      313353.378          63.750  
   3207909.750    -1554336.575          63.750  
    864213.584     -900172.781          63.750  
   2323348.375     -896641.672          63.750  
   1509225.592     1448106.180          63.750  
   2329125.780      158730.569          63.750  
   2439592.310      291214.362          63.750  
   5795357.150      832524.724          63.750  
   5133504.352     -109877.795          63.750  
    -61181.308      647797.733          63.750  
   5635436.683     1371254.075          63.750  
   4614881.006     -251581.772          63.750  
 14 12 20  0  9 10.6540000  0 12G12G29G25G 2G24G 6G14G32G20G15G17G31
    -57241.513      314070.161          63.750  
   3207255.580    -1557764.881          63.750  
    863865.332     -901995.321          63.750  
   2323005.852     -898437.174          63.750  
   1509780.374     1451025.089          63.750  
   2329217.747      159212.795          63.750  
   2439709.862      291824.627          63.750  
   5795708.172      834362.757          63.750  
   5133540.045     -109719.922          63.750  
    -61039.487      649514.521          63.750  
   5636127.096     1374886.249          63.750  
   4614248.540     -254904.811          63.750  
 14 12 20  0  9 11.6540000  0 12G12G29G25G 2G24G 6G14G32G20G15G17G31
    -57106.161      314787.398          63.750  
   3206605.223    -1561192.968          63.750  
    863519.442     -903817.498          63.750  
   2322664.177     -900232.199          63.750  
   1510337.114     1453944.424          63.750  
   2329309.375      159695.714          63.750  
   2439825.081      292435.555          63.750  
   5796056.119      836201.271          63.750  
   5133568.590     -109561.437          63.750  
    -60907.236      651231.755          63.750  
   5636820.949     1378518.438          63.750  
   4613616.088     -258227.710          63.750  
 14 12 20  0  9 12.6540000  0 12G12G29G25G 2G24G 6G14G32G20G15G17G31
    -56969.115      315504.466          63.750  
   3205952.278    -1564621.452          63.750  
    863173.418     -905639.929          63.750  
   2322323.825     -902027.388          63.750  
   1510892.628     1456863.577          63.750  
   2329400.938      160178.704          63.750  
   2439941.213      293046.513          63.750  
   5796405.580      838039.627          63.750  
   5133594.555     -109402.956          63.750  
    -60774.640      652948.819          63.750  
   5637510.612     1382150.061          63.750  
   4612985.409     -261551.118          63.750  
 14 12 20  0  9 13.6540000  0 12G12G29G25G 2G24G 6G14G32G20G15G17G31
    -56832.402      316222.653          63.750  
   3205300.403    -1568049.062          63.750  
    862825.441     -907461.337          63.750  
   2321982.159     -903821.441          63.750  
   1511447.508     1459783.812          63.750  
   2329492.932      160663.054          63.750  
   2440058.484      293658.798          63.750  
   5796755.351      839879.138          63.750  
   5133628.617     -109243.188          63.750  
    -60630.574      654667.007          63.750  
   5638200.051     1385782.358          63.750  
   4612353.502     -264873.721          63.750  
 14 12 20  0  9 14.6540000  0 12G12G29G25G 2G24G 6G14G32G20G15G17G31
    -56696.213      316940.735          63.750  
   3204647.153    -1571477.008          63.750  
    862479.893     -909282.932          63.750  
   2321639.291     -905615.583          63.750  
   1512004.017     1462703.932          63.750  
   2329583.730      161147.545          63.750  
   2440174.314      294271.190          63.750  
   5797106.396      841718.573          63.750  
   5133656.703     -109083.366          63.750  
    -60501.634      656385.102          63.750  
   5638891.629     1389414.138          63.750  
   4611721.079     -268196.768          63.750  
 14 12 20  0  9 15.6540000  0 12G12G29G25G 2G24G 6G14G32G20G15G17G31
    -56558.393      317659.765          63.750  
   3203996.093    -1574904.245          63.750  
    862132.722     -911103.674          63.750  
   2321299.414     -907408.756          63.750  
   1512560.416     1465624.973          63.750  
   2329677.205      161633.223          63.750  
   2440290.882      294884.736          63.750  
   5797457.031      843558.973          63.750  
   5133689.475     -108922.438          63.750  
    -60359.909      658104.135          63.750  
   5639583.206     1393046.450          63.750  
   4611089.053     -271519.193          63.750  
 14 12 20  0  9 16.6540000  0 12G12G29G25G 2G24G 6G14G32G20G15G17G31
    -56421.976      318378.904          63.750  
   3203343.111    -1578331.607          63.750  
    861787.126     -912924.402          63.750  
   2320958.739     -909201.806          63.750  
   1513115.535     1468546.098          63.750  
   2329768.922      162119.245          63.750  
   2440407.747      295498.598          63.750  
   5797807.024      845399.522          63.750  
   5133719.443     -108761.219          63.750  
    -60225.748      659823.257          63.750  
   5640277.878     1396678.430          63.750  
   4610456.249     -274841.845          63.750  
 14 12 20  0  9 17.6540000  0 12G12G29G25G 2G24G 6G14G32G20G15G17G31
    -56284.688      319099.065          63.750  
   3202691.938    -1581758.191          63.750  
    861439.832     -914744.193          63.750  
   2320616.746     -910993.819          63.750  
   1513671.116     1471468.221          63.750  
   2329862.451      162606.535          63.750  
   2440525.041      296113.688          63.750  
   5798156.726      847241.104          63.750  
   5133749.847     -108598.811          63.750  
    -60085.507      661543.408          63.750  
   5640965.058     1400310.999          63.750  
   4609822.563     -278163.791          63.750  
 14 12 20  0  9 18.6540000  0 12G12G29G25G 2G24G 6G14G32G20G15G17G31
    -56149.110      319817.981          63.750  
   3202039.014    -1585186.236          63.750  
    861095.085     -916565.317          63.750  
   2320275.592     -912787.054          63.750  
   1514227.428     1474389.079          63.750  
   2329955.125      163092.823          63.750  
   2440642.049      296727.748          63.750  
   5798507.860      849081.470          63.750  
   5133779.986     -108437.495          63.750  
    -59948.150      663262.344          63.750  
   5641657.410     1403941.918          63.750  
   4609193.142     -281487.311          63.750  
 14 12 20  0  9 19.6540000  0 12G12G29G25G 2G24G 6G14G32G20G15G17G31
    -56011.324      320538.736          63.750  
   3201386.921    -1588612.691          63.750  
    860746.910     -918384.702          63.750  
   2319935.364     -914578.445          63.750  
   1514782.706     1477311.739          63.750  
   2330048.216      163581.177          63.750  
   2440759.500      297343.842          63.750  
   5798856.661      850923.705          63.750  
   5133811.962     -108274.207          63.750  
    -59813.048      664983.092          63.750  
   5642348.377     1407574.237          63.750  
   4608558.242     -284809.320          63.750  
 14 12 20  0  9 20.6540000  0 12G12G29G25G 2G24G 6G14G32G20G15G17G31
    -55873.043      321260.087          63.750  
   3200734.180    -1592038.773          63.750  
    860401.922     -920203.576          63.750  
   2319594.269     -916369.223          63.750  
   1515339.911     1480234.982          63.750  
   2330141.964      164070.378          63.750  
   2440876.650      297960.735          63.750  
   5799208.802      852766.545          63.750  
   5133842.110     -108110.116          63.750  
    -59669.803      666704.443          63.750  
   5643039.884     1411206.760          63.750  
   4607925.133     -288131.078          63.750  
 14 12 20  0  9 21.6540000  0 12G12G29G25G 2G24G 6G14G32G20G15G17G31
    -55736.829      321981.305          63.750  
   3200083.724    -1595465.234          63.750  
    860055.635     -922022.666          63.750  
   2319253.267     -918160.109          63.750  
   1515895.441     1483158.070          63.750  
   2330234.003      164559.683          63.750  
   2440993.831      298577.711          63.750  
   5799559.854      854609.292          63.750  
   5133875.546     -107946.008          63.750  
    -59538.371      668425.688          63.750  
   5643729.840     1414838.697          63.750  
   4607293.851     -291453.280          63.750  
 14 12 20  0  9 22.6540000  0 12G12G29G25G 2G24G 6G14G32G20G15G17G31
    -55598.767      322702.741          63.750  
   3199431.759    -1598891.709          63.750  
    859708.289     -923841.636          63.750  
   2318912.785     -919950.770          63.750  
   1516452.701     1486081.351          63.750  
   2330327.650      165049.451          63.750  
   2441110.643      299195.121          63.750  
   5799908.718      856452.272          63.750  
   5133906.351     -107781.531          63.750  
    -59397.890      670147.124          63.750  
   5644420.889     1418470.422          63.750  
   4606661.612     -294775.604          63.750  
 14 12 20  0  9 23.6540000  0 12G12G29G25G 2G24G 6G14G32G20G15G17G31
    -55461.257      323425.129          63.750  
   3198777.630    -1602317.466          63.750  
    859363.157     -925659.737          63.750  
   2318571.186     -921740.459          63.750  
   1517007.997     1489005.555          63.750  
   2330421.871      165540.410          63.750  
   2441229.395      299813.673          63.750  
   5800260.223      858296.241          63.750  
   5133938.034     -107615.934          63.750  
    -59261.337      671869.496          63.750  
   5645114.202     1422102.699          63.750  
   4606031.402     -298097.286          63.750  
 14 12 20  0  9 24.6540000  0 12G12G29G25G 2G24G 6G14G32G20G15G17G31
    -55323.789      324148.308          63.750  
   3198128.349    -1605742.663          63.750  
    859017.196     -927477.150          63.750  
   2318231.541     -923529.340          63.750  
   1517565.057     1491930.531          63.750  
   2330515.322      166032.390          63.750  
   2441346.689      300433.233          63.750  
   5800613.734      860141.017          63.750  
   5133969.496     -107449.362          63.750  
    -59128.650      673592.684          63.750  
   5645803.675     1425735.333          63.750  
   4605399.212     -301418.528          63.750  
 14 12 20  0  9 25.6540000  0 12G12G29G25G 2G24G 6G14G32G20G15G17G31
    -55186.789      324871.390          63.750  
   3197475.490    -1609168.199          63.750  
    858670.871     -929294.737          63.750  
   2317890.494     -925318.298          63.750  
   1518122.086     1494855.388          63.750  
   2330608.755      166524.529          63.750  
   2441464.921      301052.898          63.750  
   5800963.181      861985.717          63.750  
   5134003.719     -107282.738          63.750  
    -58985.765      675315.759          63.750  
   5646496.926     1429367.445          63.750  
   4604766.201     -304740.168          63.750  
 14 12 20  0  9 26.6540000  0 12G12G29G25G 2G24G 6G14G32G20G15G17G31
    -55049.108      325594.886          63.750  
   3196823.536    -1612593.548          63.750  
    858325.765     -931112.001          63.750  
   2317549.971     -927106.827          63.750  
   1518678.453     1497780.625          63.750  
   2330702.072      167017.316          63.750  
   2441583.458      301673.182          63.750  
   5801315.039      863830.867          63.750  
   5134032.363     -107115.551          63.750  
    -58851.578      677039.243          63.750  
   5647184.120     1432999.545          63.750  
   4604134.130     -308061.734          63.750  
 14 12 20  0  9 27.6540000  0 12G12G29G25G 2G24G 6G14G32G20G15G17G31
    -54910.757      326319.753          63.750  
   3196172.311    -1616017.770          63.750  
    857979.722     -932927.997          63.750  
   2317210.626     -928893.974          63.750  
   1519235.435     1500707.215          63.750  
   2330797.140      167511.711          63.750  
   2441701.213      302295.050          63.750  
   5801665.675      865677.402          63.750  
   5134067.309     -106946.819          63.750  
    -58708.081      678764.105          63.750  
   5647879.114     1436632.565          63.750  
   4603501.996     -311382.261          63.750  
 14 12 20  0  9 28.6540000  0 12G12G29G25G 2G24G 6G14G32G20G15G17G31
    -54772.890      327045.501          63.750  
   3195520.349    -1619441.333          63.750  
    857633.953     -934743.185          63.750  
   2316871.154     -930680.218          63.750  
   1519793.061     1503634.658          63.750  
   2330891.192      168007.228          63.750  
   2441821.288      302918.004          63.750  
   5802019.039      867524.841          63.750  
   5134098.158     -106777.028          63.750  
    -58572.845      680489.849          63.750  
   5648568.051     1440266.099          63.750  
   4602871.758     -314702.223          63.750  
 14 12 20  0  9 29.6540000  0 12G12G29G25G 2G24G 6G14G32G20G15G17G31
    -54634.405      327771.367          63.750  
   3194868.260    -1622865.015          63.750  
    857289.162     -936558.351          63.750  
   2316530.923     -932466.324          63.750  
   1520349.197     1506562.207          63.750  
   2330984.679      168503.115          63.750  
   2441938.794      303541.281          63.750  
   5802368.354      869372.428          63.750  
   5134129.627     -106606.975          63.750  
    -58440.897      682215.736          63.750  
   5649259.939     1443899.295          63.750  
   4602238.091     -318022.397          63.750  
 14 12 20  0  9 30.6540000  0 12G12G29G25G 2G24G 6G14G32G20G15G17G31
    -54496.585      328497.604          63.750  
   3194217.902    -1626288.578          63.750  
    856944.306     -938373.239          63.750  
   2316190.868     -934252.051          63.750  
   1520906.216     1509490.085          63.750  
   2331078.535      168999.599          63.750  
   2442056.787      304165.133          63.750  
   5802720.470      871220.406          63.750  
   5134161.915     -106436.392          63.750  
    -58296.014      683941.947          63.750  
   5649952.236     1447532.434          63.750  
   4601607.954     -321342.545          63.750  
 14 12 20  0  9 31.6540000  0 12G12G29G25G 2G24G 6G14G32G20G15G17G31
    -54358.910      329223.780          63.750  
   3193565.117    -1629712.406          63.750  
    856597.965     -940188.270          63.750  
   2315850.998     -936037.814          63.750  
   1521464.079     1512417.887          63.750  
   2331174.197      169496.271          63.750  
   2442175.234      304789.140          63.750  
   5803071.964      873068.358          63.750  
   5134196.382     -106265.693          63.750  
    -58159.886      685668.147          63.750  
   5650645.080     1451165.091          63.750  
   4600974.549     -324663.062          63.750  
 14 12 20  0  9 32.6540000  0 12G12G29G25G 2G24G 6G14G32G20G15G17G31
    -54219.503      329950.292          63.750  
   3192913.652    -1633136.151          63.750  
    856253.756     -942003.065          63.750  
   2315511.020     -937823.228          63.750  
   1522019.694     1515345.996          63.750  
   2331268.615      169993.513          63.750  
   2442294.306      305413.680          63.750  
   5803425.681      874916.659          63.750  
   5134226.772     -106094.494          63.750  
    -58023.434      687394.638          63.750  
   5651334.719     1454797.669          63.750  
   4600342.540     -327983.576          63.750  
 14 12 20  0  9 33.6540000  0 12G12G29G25G 2G24G 6G14G32G20G15G17G31
    -54082.009      330677.739          63.750  
   3192264.288    -1636559.196          63.750  
    855907.735     -943817.006          63.750  
   2315171.793     -939607.687          63.750  
   1522578.466     1518275.019          63.750  
   2331362.169      170491.938          63.750  
   2442413.121      306039.357          63.750  
   5803775.722      876765.918          63.750  
   5134260.513     -105922.175          63.750  
    -57880.393      689122.079          63.750  
   5652026.426     1458430.754          63.750  
   4599714.044     -331303.479          63.750  
 14 12 20  0  9 34.6540000  0 12G12G29G25G 2G24G 6G14G32G20G15G17G31
    -53942.947      331405.800          63.750  
   3191612.955    -1639981.854          63.750  
    855562.038     -945630.428          63.750  
   2314832.551     -941391.516          63.750  
   1523136.069     1521204.630          63.750  
   2331456.798      170991.207          63.750  
   2442533.628      306665.867          63.750  
   5804126.422      878615.824          63.750  
   5134292.597     -105749.108          63.750  
    -57745.359      690850.155          63.750  
   5652716.408     1462064.015          63.750  
   4599079.263     -334623.101          63.750  
 14 12 20  0  9 35.6540000  0 12G12G29G25G 2G24G 6G14G32G20G15G17G31
    -53804.625      332134.948          63.750  
   3190961.272    -1643403.657          63.750  
    855217.960     -947442.848          63.750  
   2314492.664     -943174.242          63.750  
   1523692.894     1524135.311          63.750  
   2331552.605      171491.810          63.750  
   2442652.132      307293.669          63.750  
   5804479.874      880466.840          63.750  
   5134325.345     -105574.809          63.750  
    -57599.508      692579.296          63.750  
   5653407.597     1465697.947          63.750  
   4598447.211     -337941.947          63.750  
 14 12 20  0  9 36.6540000  0 12G12G29G25G 2G24G 6G14G32G20G15G17G31
    -53665.773      332864.717          63.750  
   3190310.366    -1646825.084          63.750  
    854872.377     -949254.740          63.750  
   2314154.221     -944956.326          63.750  
   1524250.658     1527066.575          63.750  
   2331648.487      171993.278          63.750  
   2442771.772      307922.293          63.750  
   5804833.000      882318.480          63.750  
   5134357.467     -105399.701          63.750  
    -57467.870      694309.049          63.750  
   5654100.102     1469332.083          63.750  
   4597817.751     -341260.506          63.750  
 14 12 20  0  9 37.6540000  0 12G12G29G25G 2G24G 6G14G32G20G15G17G31
    -53526.089      333594.177          63.750  
   3189657.379    -1650247.043          63.750  
    854528.295     -951067.022          63.750  
   2313813.970     -946738.708          63.750  
   1524808.076     1529997.517          63.750  
   2331744.036      172494.670          63.750  
   2442891.290      308550.823          63.750  
   5805184.387      884169.861          63.750  
   5134392.207     -105224.725          63.750  
    -57326.827      696038.535          63.750  
   5654791.375     1472965.467          63.750  
   4597185.026     -344579.727          63.750  
 14 12 20  0  9 38.6540000  0 12G12G29G25G 2G24G 6G14G32G20G15G17G31
    -53387.509      334324.599          63.750  
   3189007.222    -1653668.285          63.750  
    854184.225     -952878.443          63.750  
   2313475.922     -948520.100          63.750  
   1525367.842     1532929.384          63.750  
   2331838.957      172997.271          63.750  
   2443011.600      309180.509          63.750  
   5805536.606      886022.219          63.750  
   5134424.096     -105048.642          63.750  
    -57184.593      697768.940          63.750  
   5655484.421     1476599.399          63.750  
   4596553.883     -347898.284          63.750  
 14 12 20  0  9 39.6540000  0 12G12G29G25G 2G24G 6G14G32G20G15G17G31
    -53248.266      335055.709          63.750  
   3188356.163    -1657089.063          63.750  
    853838.929     -954689.254          63.750  
   2313136.389     -950300.793          63.750  
   1525925.201     1535861.920          63.750  
   2331934.548      173500.799          63.750  
   2443130.906      309811.103          63.750  
   5805888.949      887875.288          63.750  
   5134458.854     -104871.700          63.750  
    -57053.176      699500.074          63.750  
   5656174.460     1480233.616          63.750  
   4595923.117     -351216.479          63.750  
 14 12 20  0  9 40.6540000  0 12G12G29G25G 2G24G 6G14G32G20G15G17G31
    -53109.604      335787.124          63.750  
   3187705.061    -1660509.769          63.750  
    853494.031     -956499.864          63.750  
   2312798.065     -952081.162          63.750  
   1526482.890     1538794.740          63.750  
   2332029.959      174004.867          63.750  
   2443251.955      310442.196          63.750  
   5806244.553      889728.679          63.750  
   5134492.393     -104694.291          63.750  
    -56902.873      701231.498          63.750  
   5656866.254     1483867.689          63.750  
   4595290.460     -354534.705          63.750  
 14 12 20  0  9 41.6540000  0 12G12G29G25G 2G24G 6G14G32G20G15G17G31
    -52970.213      336518.092          63.750  
   3187056.017    -1663931.165          63.750  
    853150.477     -958310.996          63.750  
   2312459.457     -953861.956          63.750  
   1527040.843     1541727.080          63.750  
   2332127.695      174508.734          63.750  
   2443372.199      311073.058          63.750  
   5806593.076      891581.655          63.750  
   5134526.613     -104517.183          63.750  
    -56778.023      702962.447          63.750  
   5657557.243     1487500.895          63.750  
   4594660.176     -357853.696          63.750  
 14 12 20  0  9 42.6540000  0 12G12G29G25G 2G24G 6G14G32G20G15G17G31
    -52831.062      337250.204          63.750  
   3186402.698    -1667351.635          63.750  
    852805.279     -960121.077          63.750  
   2312120.194     -955641.595          63.750  
   1527599.271     1544660.541          63.750  
   2332223.439      175013.991          63.750  
   2443492.778      311705.266          63.750  
   5806947.320      893435.792          63.750  
   5134560.581     -104338.737          63.750  
    -56630.627      704694.565          63.750  
   5658246.987     1491134.815          63.750  
   4594027.672     -361171.863          63.750  
 14 12 20  0  9 43.6540000  0 12G12G29G25G 2G24G 6G14G32G20G15G17G31
    -52691.428      337982.167          63.750  
   3185751.750    -1670772.486          63.750  
    852461.219     -961931.397          63.750  
   2311781.382     -957421.353          63.750  
   1528157.454     1547593.837          63.750  
   2332319.280      175519.331          63.750  
   2443611.658      312337.534          63.750  
   5807301.084      895289.812          63.750  
   5134593.074     -104160.283          63.750  
    -56487.277      706426.520          63.750  
   5658940.072     1494768.163          63.750  
   4593394.010     -364490.527          63.750  
