     2.10           OBSERVATION DATA    G (GPS)             RINEX VERSION / TYPE
GOGEO               M.KREJ              20230323 192705 UTC PGM / RUN BY / DATE 
COMMENT1                                                    COMMENT             
MARKER1                                                     MARKER NAME         
                                                            MARKER NUMBER       
MKREJ               INNOVA                                  OBSERVER / AGENCY   
RCV1                                                        REC # / TYPE / VERS 
ANT1                                                        ANT # / TYPE        
  3642325.0000  1411093.3420  5025370.3360                  APPROX POSITION XYZ 
        0.0000        0.0000        0.0000                  ANTENNA: DELTA H/E/N
     1     1                                                WAVELENGTH FACT L1/2
     3    C1    L1    S1                                    # / TYPES OF OBSERV 
     1.000                                                  INTERVAL            
  2023     3    18    23    56   25.9320000     GPS         TIME OF FIRST OBS   
  2023     3    18    23    56   25.9320000     GPS         TIME OF LAST OBS    
                                                            END OF HEADER       
 23  3 18 23 56 25.9320000  0  1G 4
   -148937.880                1         63.750  
 23  3 18 23 56 26.9319998  0  1G 4
   -148907.683         161.408          63.750  
 23  3 18 23 56 27.9319995  0  1G 4
   -148874.481         323.319          63.750  
 23  3 18 23 56 28.9319993  0  1G 4
   -148843.908         485.735          63.750  
 23  3 18 23 56 29.9319991  0  1G 4
   -148811.979         648.649          63.750  
 23  3 18 23 56 30.9319989  0  1G 4
   -148779.672         812.070          63.750  
 23  3 18 23 56 31.9319986  0  2G 9G 4
    718707.634       50921.380          63.750  
   -148749.750         975.988          63.750  
 23  3 18 23 56 32.9319984  0  2G 9G 4
    718315.337       48874.496          63.750  
   -148718.525        1140.409          63.750  
 23  3 18 23 56 33.9319982  0  2G 9G 4
    717930.475       46828.012          63.750  
   -148686.864        1305.335          63.750  
 23  3 18 23 56 34.9319980  0  2G 9G 4
    717537.283       44781.945          63.750  
   -148655.149        1470.763          63.750  
 23  3 18 23 56 35.9319977  0  2G 9G 4
    717147.993       42736.294          63.750  
   -148622.447        1636.691          63.750  
 23  3 18 23 56 36.9319975  0  2G 9G 4
    716758.252       40691.052          63.750  
   -148591.886        1803.122          63.750  
 23  3 18 23 56 37.9319973  0  3G 9G11G 4
    716370.167       38646.223          63.750  
   3653322.174      204542.232          63.750  
   -148561.382        1970.056          63.750  
 23  3 18 23 56 38.9319970  0  3G 9G11G 4
    715982.926       36601.810          63.750  
   3652721.433      201395.484          63.750  
   -148528.804        2137.491          63.750  
 23  3 18 23 56 39.9319968  0  3G 9G11G 4
    715591.693       34557.804          63.750  
   3652125.779      198249.068          63.750  
   -148497.530        2305.430          63.750  
 23  3 18 23 56 40.9319966  0  3G 9G11G 4
    715202.543       32514.214          63.750  
   3651534.212      195102.986          63.750  
   -148464.037        2473.869          63.750  
 23  3 18 23 56 41.9319964  0  3G 9G11G 4
    714814.521       30471.031          63.750  
   3650920.902      191957.235          63.750  
   -148433.364        2642.811          63.750  
 23  3 18 23 56 42.9319961  0  3G 9G11G 4
    714424.146       28428.268          63.750  
   3650326.554      188811.805          63.750  
   -148399.809        2812.252          63.750  
 23  3 18 23 56 43.9319959  0  3G 9G11G 4
    714036.556       26385.912          63.750  
   3649731.733      185666.705          63.750  
   -148367.648        2982.200          63.750  
 23  3 18 23 56 44.9319957  0  3G 9G11G 4
    713647.731       24343.969          63.750  
   3649130.350      182521.942          63.750  
   -148335.130        3152.646          63.750  
 23  3 18 23 56 45.9319955  0  3G 9G11G 4
    713259.813       22302.441          63.750  
   3648531.845      179377.508          63.750  
   -148301.293        3323.594          63.750  
 23  3 18 23 56 46.9319952  0  3G 9G11G 4
    712870.659       20261.322          63.750  
   3647939.397      176233.394          63.750  
   -148271.324        3495.044          63.750  
 23  3 18 23 56 47.9319950  0  3G 9G11G 4
    712482.651       18220.622          63.750  
   3647335.649      173089.624          63.750  
   -148237.242        3666.996          63.750  
 23  3 18 23 56 48.9319948  0  3G 9G11G 4
    712094.846       16180.331          63.750  
   3646738.949      169946.179          63.750  
   -148205.910        3839.451          63.750  
 23  3 18 23 56 49.9319945  0  3G 9G11G 4
    711705.078       14140.450          63.750  
   3646137.032      166803.063          63.750  
   -148172.504        4012.408          63.750  
 23  3 18 23 56 50.9319943  0  3G 9G11G 4
    711317.781       12100.986          63.750  
   3645542.717      163660.278          63.750  
   -148138.682        4185.865          63.750  
 23  3 18 23 56 51.9319941  0  3G 9G11G 4
    710930.648       10061.934          63.750  
   3644944.308      160517.833          63.750  
   -148105.958        4359.826          63.750  
 23  3 18 23 56 52.9319939  0  3G 9G11G 4
    710542.185        8023.292          63.750  
   3644349.605      157375.706          63.750  
   -148073.400        4534.287          63.750  
 23  3 18 23 56 53.9319936  0  3G 9G11G 4
    710154.474        5985.066          63.750  
   3643750.802      154233.914          63.750  
   -148039.127        4709.249          63.750  
 23  3 18 23 56 54.9319934  0  3G 9G11G 4
    709766.782        3947.252          63.750  
   3643149.857      151092.454          63.750  
   -148006.279        4884.713          63.750  
 23  3 18 23 56 55.9319932  0  4G 9G26G11G 4
    709377.727        1909.849          63.750  
   3566084.584       35674.203          63.750  
   3642552.458      147951.331          63.750  
   -147971.563        5060.681          63.750  
 23  3 18 23 56 56.9319930  0  4G 9G26G11G 4
    708990.678        -127.141          63.750  
   3565806.677       34281.468          63.750  
   3641958.576      144810.530          63.750  
   -147938.223        5237.148          63.750  
 23  3 18 23 56 57.9319927  0  4G 9G26G11G 4
    708604.994       -2163.715          63.750  
   3565541.896       32889.276          63.750  
   3641359.126      141670.063          63.750  
   -147904.437        5414.118          63.750  
 23  3 18 23 56 58.9319925  0  4G 9G26G11G 4
    708216.429       -4199.878          63.750  
   3565278.052       31497.630          63.750  
   3640759.384      138529.935          63.750  
   -147871.176        5591.589          63.750  
 23  3 18 23 56 59.9319923  0  4G 9G26G11G 4
    707829.654       -6235.628          63.750  
   3565011.363       30106.542          63.750  
   3640163.356      135390.133          63.750  
   -147836.439        5769.561          63.750  
 23  3 18 23 57  0.9319920  0  4G 9G26G11G 4
    707441.495       -8270.964          63.750  
   3564747.143       28716.006          63.750  
   3639565.460      132250.652          63.750  
   -147802.945        5948.033          63.750  
 23  3 18 23 57  1.9319918  0  4G 9G26G11G 4
    707054.148      -10305.888          63.750  
   3564483.883       27326.023          63.750  
   3638968.002      129111.519          63.750  
   -147767.631        6127.010          63.750  
 23  3 18 23 57  2.9319916  0  4G 9G26G11G 4
    706668.762      -12340.396          63.750  
   3564216.045       25936.598          63.750  
   3638368.541      125972.713          63.750  
   -147736.178        6306.489          63.750  
 23  3 18 23 57  3.9319914  0  4G 9G26G11G 4
    706279.727      -14374.495          63.750  
   3563952.980       24547.728          63.750  
   3637774.405      122834.234          63.750  
   -147700.704        6486.465          63.750  
 23  3 18 23 57  4.9319911  0  4G 9G26G11G 4
    705893.489      -16408.180          63.750  
   3563690.216       23159.408          63.750  
   3637177.584      119696.088          63.750  
   -147667.374        6666.945          63.750  
 23  3 18 23 57  5.9319909  0  4G 9G26G11G 4
    705505.816      -18441.451          63.750  
   3563423.965       21771.643          63.750  
   3636581.702      116558.280          63.750  
   -147631.641        6847.928          63.750  
 23  3 18 23 57  6.9319907  0  4G 9G26G11G 4
    705118.592      -20474.306          63.750  
   3563163.855       20384.438          63.750  
   3635983.804      113420.795          63.750  
   -147599.078        7029.409          63.750  
 23  3 18 23 57  7.9319905  0  5G31G 9G26G11G 4
   3925949.127       57515.757          63.750  
    704731.955      -22506.751          63.750  
   3562897.827       18997.783          63.750  
   3635388.968      110283.645          63.750  
   -147562.544        7211.395          63.750  
 23  3 18 23 57  8.9319902  0  5G31G 9G26G11G 4
   3926587.038       60859.462          63.750  
    704345.939      -24538.786          63.750  
   3562631.030       17611.682          63.750  
   3634789.056      107146.835          63.750  
   -147529.233        7393.877          63.750  
 23  3 18 23 57  9.9319900  0  5G31G 9G26G11G 4
   3927221.612       64203.484          63.750  
    703959.917      -26570.401          63.750  
   3562369.833       16226.141          63.750  
   3634192.982      104010.354          63.750  
   -147493.547        7576.864          63.750  
 23  3 18 23 57 10.9319898  0  5G31G 9G26G11G 4
   3927861.478       67547.847          63.750  
    703573.183      -28601.607          63.750  
   3562107.916       14841.152          63.750  
   3633591.924      100874.210          63.750  
   -147459.209        7760.353          63.750  
 23  3 18 23 57 11.9319895  0  5G31G 9G26G11G 4
   3928499.198       70892.533          63.750  
    703186.111      -30632.397          63.750  
   3561842.763       13456.713          63.750  
   3632996.892       97738.386          63.750  
   -147423.874        7944.341          63.750  
 23  3 18 23 57 12.9319893  0  5G31G 9G26G11G 4
   3929134.574       74237.553          63.750  
    702799.829      -32662.775          63.750  
   3561579.676       12072.831          63.750  
   3632399.703       94602.906          63.750  
   -147389.690        8128.832          63.750  
 23  3 18 23 57 13.9319891  0  6G31G 9G26G11G 6G 4
   3929772.303       77582.896          63.750  
    702413.450      -34692.740          63.750  
   3561320.044       10689.503          63.750  
   3631806.744       91467.754          63.750  
    896657.803      113835.948          63.750  
   -147352.753        8313.822          63.750  
 23  3 18 23 57 14.9319889  0  6G31G 9G26G11G 6G 4
   3930404.346       80928.574          63.750  
    702026.719      -36722.289          63.750  
   3561054.114        9306.732          63.750  
   3631207.206       88332.941          63.750  
    896495.303      112980.556          63.750  
   -147318.646        8499.316          63.750  
 23  3 18 23 57 15.9319886  0  6G31G 9G26G11G 6G 4
   3931043.926       84274.571          63.750  
    701642.595      -38751.428          63.750  
   3560790.042        7924.517          63.750  
   3630608.390       85198.450          63.750  
    896332.026      112125.811          63.750  
   -147282.977        8685.310          63.750  
 23  3 18 23 57 16.9319884  0  6G31G 9G26G11G 6G 4
   3931684.365       87620.905          63.750  
    701255.646      -40780.149          63.750  
   3560528.740        6542.857          63.750  
   3630016.695       82064.310          63.750  
    896166.682      111271.736          63.750  
   -147246.820        8871.805          63.750  
 23  3 18 23 57 17.9319882  0  6G31G 9G26G11G 6G 4
   3932318.469       90967.573          63.750  
    700870.755      -42808.462          63.750  
   3560263.626        5161.751          63.750  
   3629424.641       78930.482          63.750  
    896003.112      110418.323          63.750  
   -147211.584        9058.801          63.750  
 23  3 18 23 57 18.9319880  0  6G31G 9G26G11G 6G 4
   3932956.010       94314.558          63.750  
    700483.972      -44836.356          63.750  
   3560001.857        3781.192          63.750  
   3628819.385       75797.005          63.750  
    895842.591      109565.571          63.750  
   -147176.718        9246.298          63.750  
 23  3 18 23 57 19.9319877  0  6G31G 9G26G11G 6G 4
   3933589.368       97661.876          63.750  
    700097.587      -46863.840          63.750  
   3559742.410        2401.200          63.750  
   3628226.402       72663.844          63.750  
    895681.452      108713.481          63.750  
   -147139.163        9434.296          63.750  
 23  3 18 23 57 20.9319875  0  6G31G 9G26G11G 6G 4
   3934225.705      101009.519          63.750  
    699710.432      -48890.911          63.750  
   3559478.565        1021.758          63.750  
   3627631.926       69531.032          63.750  
    895518.558      107862.052          63.750  
   -147104.718        9622.795          63.750  
 23  3 18 23 57 21.9319873  0  6G31G 9G26G11G 6G 4
   3934866.527      104357.491          63.750  
    699325.662      -50917.569          63.750  
   3559216.390        -357.125          63.750  
   3627034.616       66398.553          63.750  
    895357.003      107011.287          63.750  
   -147068.543        9811.794          63.750  
 23  3 18 23 57 22.9319870  0  6G31G 9G26G11G 6G 4
   3935503.146      107705.791          63.750  
    698940.593      -52943.810          63.750  
   3558954.683       -1735.452          63.750  
   3626434.936       63266.408          63.750  
    895193.927      106161.183          63.750  
   -147032.024       10001.298          63.750  
 23  3 18 23 57 23.9319868  0  6G31G 9G26G11G 6G 4
   3936137.774      111054.419          63.750  
    698555.433      -54969.636          63.750  
   3558689.988       -3113.227          63.750  
   3625842.780       60134.589          63.750  
    895032.928      105311.741          63.750  
   -146997.047       10191.298          63.750  
 23  3 18 23 57 24.9319866  0  6G31G 9G26G11G 6G 4
   3936778.896      114403.372          63.750  
    698169.084      -56995.052          63.750  
   3558425.995       -4490.445          63.750  
   3625246.525       57003.106          63.750  
    894871.425      104462.962          63.750  
   -146958.798       10381.801          63.750  
 23  3 18 23 57 25.9319864  0  6G31G 9G26G11G 6G 4
   3937414.993      117752.663          63.750  
    697784.343      -59020.052          63.750  
   3558165.716       -5867.109          63.750  
   3624652.229       53871.957          63.750  
    894709.360      103614.843          63.750  
   -146924.175       10572.805          63.750  
 23  3 18 23 57 26.9319861  0  6G31G 9G26G11G 6G 4
   3938050.172      121102.271          63.750  
    697398.213      -61044.641          63.750  
   3557903.151       -7243.216          63.750  
   3624054.151       50741.146          63.750  
    894548.532      102767.390          63.750  
   -146885.848       10764.310          63.750  
 23  3 18 23 57 27.9319859  0  6G31G 9G26G11G 6G 4
   3938692.125      124452.209          63.750  
    697012.950      -63068.813          63.750  
   3557644.683       -8618.767          63.750  
   3623456.755       47610.671          63.750  
    894388.354      101920.597          63.750  
   -146850.717       10956.315          63.750  
 23  3 18 23 57 28.9319857  0  6G31G 9G26G11G 6G 4
   3939326.904      127802.478          63.750  
    696629.491      -65092.572          63.750  
   3557381.447       -9993.761          63.750  
   3622865.165       44480.524          63.750  
    894225.817      101074.468          63.750  
   -146813.134       11148.820          63.750  
 23  3 18 23 57 29.9319855  0  6G31G 9G26G11G 6G 4
   3939965.211      131153.070          63.750  
    696243.800      -67115.916          63.750  
   3557119.223      -11368.198          63.750  
   3622268.793       41350.716          63.750  
    894064.864      100228.999          63.750  
   -146778.396       11341.828          63.750  
 23  3 18 23 57 30.9319852  0  6G31G 9G26G11G 6G 4
   3940603.646      134503.986          63.750  
    695860.628      -69138.849          63.750  
   3556863.234      -12742.084          63.750  
   3621671.349       38221.243          63.750  
    893904.732       99384.194          63.750  
   -146740.876       11535.336          63.750  
 23  3 18 23 57 31.9319850  0  6G31G 9G26G11G 6G 4
   3941239.771      137855.231          63.750  
    695473.897      -71161.366          63.750  
   3556596.168      -14115.408          63.750  
   3621072.857       35092.100          63.750  
    893742.683       98540.054          63.750  
   -146703.696       11729.346          63.750  
 23  3 18 23 57 32.9319848  0  6G31G 9G26G11G 6G 4
   3941878.707      141206.804          63.750  
    695088.110      -73183.470          63.750  
   3556336.083      -15488.177          63.750  
   3620479.402       31963.296          63.750  
    893583.949       97696.574          63.750  
   -146665.044       11923.855          63.750  
 23  3 18 23 57 33.9319845  0  6G31G 9G26G11G 6G 4
   3942514.416      144558.704          63.750  
    694703.744      -75205.158          63.750  
   3556074.445      -16860.390          63.750  
   3619886.755       28834.826          63.750  
    893423.697       96853.756          63.750  
   -146628.779       12118.866          63.750  
 23  3 18 23 57 34.9319843  0  6G31G 9G26G11G 6G 4
   3943153.521      147910.933          63.750  
    694317.951      -77226.435          63.750  
   3555817.779      -18232.050          63.750  
   3619291.137       25706.682          63.750  
    893264.374       96011.601          63.750  
   -146591.546       12314.377          63.750  
 23  3 18 23 57 35.9319841  0  6G31G 9G26G11G 6G 4
   3943792.134      151263.486          63.750  
    693935.115      -79247.295          63.750  
   3555551.075      -19603.150          63.750  
   3618693.802       22578.886          63.750  
    893102.891       95170.110          63.750  
   -146553.646       12510.389          63.750  
 23  3 18 23 57 36.9319839  0  6G31G 9G26G11G 6G 4
   3944429.233      154616.361          63.750  
    693552.838      -81267.743          63.750  
   3555289.266      -20973.692          63.750  
   3618094.963       19451.424          63.750  
    892942.907       94329.283          63.750  
   -146518.064       12706.899          63.750  
 23  3 18 23 57 37.9319836  0  6G31G 9G26G11G 6G 4
   3945067.660      157969.564          63.750  
    693166.412      -83287.775          63.750  
   3555030.978      -22343.684          63.750  
   3617505.921       16324.290          63.750  
    892782.941       93489.114          63.750  
   -146478.892       12903.915          63.750  
 23  3 18 23 57 38.9319834  0  6G31G 9G26G11G 6G 4
   3945706.883      161323.097          63.750  
    692780.784      -85307.394          63.750  
   3554770.191      -23713.115          63.750  
   3616916.239       13197.491          63.750  
    892624.527       92649.609          63.750  
   -146442.822       13101.427          63.750  
 23  3 18 23 57 39.9319832  0  6G31G 9G26G11G 6G 4
   3946348.182      164676.959          63.750  
    692398.935      -87326.600          63.750  
   3554508.331      -25081.987          63.750  
   3616324.744       10071.032          63.750  
    892464.025       91810.771          63.750  
   -146404.155       13299.440          63.750  
 23  3 18 23 57 40.9319830  0  6G31G 9G26G11G 6G 4
   3946981.856      168031.139          63.750  
    692014.574      -89345.388          63.750  
   3554254.116      -26450.309          63.750  
   3615719.840        6944.921          63.750  
    892306.759       90972.593          63.750  
   -146367.739       13497.954          63.750  
 23  3 18 23 57 41.9319827  0  6G31G 9G26G11G 6G 4
   3947623.021      171385.650          63.750  
    691629.172      -91363.762          63.750  
   3553993.441      -27818.064          63.750  
   3615129.617        3819.124          63.750  
    892146.732       90135.076          63.750  
   -146328.354       13696.971          63.750  
 23  3 18 23 57 42.9319825  0  6G31G 9G26G11G 6G 4
   3948260.626      174740.484          63.750  
    691246.207      -93381.726          63.750  
   3553726.367      -29185.267          63.750  
   3614529.386         693.683          63.750  
    891986.078       89298.229          63.750  
   -146291.308       13896.486          63.750  
 23  3 18 23 57 43.9319823  0  6G31G 9G26G11G 6G 4
   3948899.496      178095.640          63.750  
    690861.140      -95399.271          63.750  
   3553469.061      -30551.916          63.750  
   3613942.216       -2431.442          63.750  
    891825.401       88462.045          63.750  
   -146252.315       14096.501          63.750  
 23  3 18 23 57 44.9319820  0  6G31G 9G26G11G 6G 4
   3949535.168      181451.134          63.750  
    690477.760      -97416.406          63.750  
   3553207.690      -31918.003          63.750  
   3613344.429       -5556.219          63.750  
    891666.464       87626.514          63.750  
   -146214.889       14297.018          63.750  
 23  3 18 23 57 45.9319818  0  6G31G 9G26G11G 6G 4
   3950175.234      184806.943          63.750  
    690092.922      -99433.126          63.750  
   3552948.030      -33283.531          63.750  
   3612749.684       -8680.664          63.750  
    891508.472       86791.653          63.750  
   -146176.837       14498.037          63.750  
 23  3 18 23 57 46.9319816  0  6G31G 9G26G11G 6G 4
   3950811.825      188163.076          63.750  
    689710.201     -101449.428          63.750  
   3552689.346      -34648.513          63.750  
   3612150.365      -11804.768          63.750  
    891349.801       85957.454          63.750  
   -146137.639       14699.553          63.750  
 23  3 18 23 57 47.9319814  0  6G31G 9G26G11G 6G 4
   3951451.714      191519.539          63.750  
    689325.698     -103465.318          63.750  
   3552429.600      -36012.926          63.750  
   3611557.152      -14928.532          63.750  
    891191.314       85123.917          63.750  
   -146099.830       14901.571          63.750  
 23  3 18 23 57 48.9319811  0  6G31G 9G26G11G 6G 4
   3952091.847      194876.323          63.750  
    688942.647     -105480.792          63.750  
   3552169.414      -37376.784          63.750  
   3610970.755      -18051.983          63.750  
    891032.477       84291.048          63.750  
   -146060.750       15104.088          63.750  
 23  3 18 23 57 49.9319809  0  6G31G 9G26G11G 6G 4
   3952729.996      198233.439          63.750  
    688559.479     -107495.854          63.750  
   3551910.918      -38740.087          63.750  
   3610371.336      -21175.070          63.750  
    890873.197       83458.838          63.750  
   -146022.143       15307.107          63.750  
 23  3 18 23 57 50.9319807  0  6G31G 9G26G11G 6G 4
   3953365.345      201590.876          63.750  
    688176.327     -109510.503          63.750  
   3551652.477      -40102.830          63.750  
   3609776.489      -24297.837          63.750  
    890716.906       82627.291          63.750  
   -145983.484       15510.625          63.750  
 23  3 18 23 57 51.9319805  0  6G31G 9G26G11G 6G 4
   3954007.777      204948.636          63.750  
    687793.526     -111524.732          63.750  
   3551396.484      -41465.022          63.750  
   3609181.892      -27420.260          63.750  
    890558.607       81796.410          63.750  
   -145945.406       15714.645          63.750  
 23  3 18 23 57 52.9319802  0  6G31G 9G26G11G 6G 4
   3954645.371      208306.723          63.750  
    687408.742     -113538.552          63.750  
   3551137.495      -42826.650          63.750  
   3608585.846      -30542.351          63.750  
    890400.529       80966.194          63.750  
   -145906.855       15919.163          63.750  
 23  3 18 23 57 53.9319800  0  6G31G 9G26G11G 6G 4
   3955288.727      211665.133          63.750  
    687025.565     -115551.951          63.750  
   3550874.868      -44187.721          63.750  
   3607993.312      -33664.093          63.750  
    890243.380       80136.635          63.750  
   -145866.172       16124.185          63.750  
 23  3 18 23 57 54.9319798  0  6G31G 9G26G11G 6G 4
   3955923.854      215023.867          63.750  
    686644.441     -117564.939          63.750  
   3550614.460      -45548.229          63.750  
   3607403.947      -36785.518          63.750  
    890084.450       79307.745          63.750  
   -145827.919       16329.703          63.750  
 23  3 18 23 57 55.9319795  0  6G31G 9G26G11G 6G 4
   3956562.094      218382.925          63.750  
    686260.336     -119577.511          63.750  
   3550357.659      -46908.188          63.750  
   3606806.356      -39906.590          63.750  
    889927.557       78479.517          63.750  
   -145789.292       16535.724          63.750  
 23  3 18 23 57 56.9319793  0  6G31G 9G26G11G 6G 4
   3957201.926      221742.313          63.750  
    685878.503     -121589.669          63.750  
   3550097.609      -48267.586          63.750  
   3606212.786      -43027.328          63.750  
    889769.351       77651.950          63.750  
   -145750.433       16742.244          63.750  
 23  3 18 23 57 57.9319791  0  6G31G 9G26G11G 6G 4
   3957843.290      225102.016          63.750  
    685493.280     -123601.414          63.750  
   3549839.817      -49626.420          63.750  
   3605617.718      -46147.729          63.750  
    889611.935       76825.050          63.750  
   -145709.473       16949.263          63.750  
 23  3 18 23 57 58.9319789  0  6G31G 9G26G11G 6G 4
   3958482.802      228462.054          63.750  
    685111.748     -125612.741          63.750  
   3549581.953      -50984.706          63.750  
   3605026.298      -49267.798          63.750  
    889455.337       75998.812          63.750  
   -145671.219       17156.782          63.750  
 23  3 18 23 57 59.9319786  0  6G31G 9G26G11G 6G 4
   3959120.062      231822.402          63.750  
    684729.496     -127623.655          63.750  
   3549323.916      -52342.424          63.750  
   3604430.502      -52387.523          63.750  
    889296.194       75173.239          63.750  
   -145631.729       17364.803          63.750  
 23  3 18 23 58  0.9319784  0  6G31G 9G26G11G 6G 4
   3959763.329      235183.086          63.750  
    684349.214     -129634.153          63.750  
   3549065.116      -53699.588          63.750  
   3603837.696      -55506.915          63.750  
    889142.072       74348.326          63.750  
   -145591.003       17573.324          63.750  
 23  3 18 23 58  1.9319782  0  7G31G 9G26G11G 6G 4G17
   3960402.108      238544.087          63.750  
    683964.509     -131644.239          63.750  
   3548807.635      -55056.202          63.750  
   3603246.102      -58625.968          63.750  
    888983.706       73524.082          63.750  
   -145552.089       17782.346          63.750  
   4917477.184      100219.260          63.750  
 23  3 18 23 58  2.9319780  0  7G31G 9G26G11G 6G 4G17
   3961040.101      241905.415          63.750  
    683581.528     -133653.909          63.750  
   3548550.943      -56412.246          63.750  
   3602649.039      -61744.683          63.750  
    888829.198       72700.501          63.750  
   -145512.213       17991.864          63.750  
   4918063.630      103266.584          63.750  
 23  3 18 23 58  3.9319777  0  7G31G 9G26G11G 6G 4G17
   3961680.384      245267.063          63.750  
    683199.601     -135663.164          63.750  
   3548292.551      -57767.732          63.750  
   3602056.922      -64863.061          63.750  
    888671.380       71877.586          63.750  
   -145472.604       18201.884          63.750  
   4918645.120      106313.886          63.750  
 23  3 18 23 58  4.9319775  0  7G31G 9G26G11G 6G 4G17
   3962319.926      248629.037          63.750  
    682817.229     -137672.001          63.750  
   3548031.303      -59122.662          63.750  
   3601459.073      -67981.093          63.750  
    888514.760       71055.331          63.750  
   -145431.780       18412.405          63.750  
   4919219.563      109361.195          63.750  
 23  3 18 23 58  5.9319773  0  7G31G 9G26G11G 6G 4G17
   3962958.053      251991.338          63.750  
    682434.811     -139680.430          63.750  
   3547774.696      -60477.031          63.750  
   3600868.664      -71098.790          63.750  
    888357.475       70233.739          63.750  
   -145390.018       18623.427          63.750  
   4919798.854      112408.530          63.750  
 23  3 18 23 58  6.9319770  0  7G31G 9G26G11G 6G 4G17
   3963601.173      255353.956          63.750  
    682053.264     -141688.438          63.750  
   3547513.052      -61830.844          63.750  
   3600275.635      -74216.162          63.750  
    888201.953       69412.813          63.750  
   -145351.214       18834.946          63.750  
   4920379.311      115455.858          63.750  
 23  3 18 23 58  7.9319768  0  7G31G 9G26G11G 6G 4G17
   3964239.192      258716.897          63.750  
    681672.090     -143696.031          63.750  
   3547258.156      -63184.101          63.750  
   3599681.338      -77333.182          63.750  
    888044.254       68592.553          63.750  
   -145311.560       19046.966          63.750  
   4920957.292      118503.204          63.750  
 23  3 18 23 58  8.9319766  0  7G31G 9G26G11G 6G 4G17
   3964877.803      262080.160          63.750  
    681290.028     -145703.208          63.750  
   3547000.703      -64536.794          63.750  
   3599091.225      -80449.875          63.750  
    887890.556       67772.955          63.750  
   -145270.379       19259.484          63.750  
   4921543.149      121550.545          63.750  
 23  3 18 23 58  9.9319764  0  7G31G 9G26G11G 6G 4G17
   3965522.152      265443.748          63.750  
    680905.991     -147709.975          63.750  
   3546747.822      -65888.929          63.750  
   3598497.908      -83566.221          63.750  
    887733.086       66954.019          63.750  
   -145230.271       19472.506          63.750  
   4922121.219      124597.886          63.750  
 23  3 18 23 58 10.9319761  0  7G31G 9G26G11G 6G 4G17
   3966161.030      268807.663          63.750  
    680525.926     -149716.322          63.750  
   3546483.539      -67240.501          63.750  
   3597902.421      -86682.227          63.750  
    887579.135       66135.747          63.750  
   -145188.701       19686.026          63.750  
   4922696.244      127645.237          63.750  
 23  3 18 23 58 11.9319759  0  7G31G 9G26G11G 6G 4G17
   3966797.174      272171.895          63.750  
    680142.950     -151722.258          63.750  
   3546231.483      -68591.517          63.750  
   3597314.308      -89797.895          63.750  
    887421.883       65318.141          63.750  
   -145147.961       19900.044          63.750  
   4923280.530      130692.605          63.750  
 23  3 18 23 58 12.9319757  0  7G31G 9G26G11G 6G 4G17
   3967438.798      275536.452          63.750  
    679762.468     -153727.776          63.750  
   3545972.639      -69941.976          63.750  
   3596722.657      -92913.229          63.750  
    887268.354       64501.202          63.750  
   -145107.243       20114.563          63.750  
   4923860.157      133739.975          63.750  
 23  3 18 23 58 13.9319755  0  7G31G 9G26G11G 6G 4G17
   3968080.277      278901.331          63.750  
    679379.061     -155732.877          63.750  
   3545717.672      -71291.878          63.750  
   3596124.887      -96028.218          63.750  
    887113.115       63684.925          63.750  
   -145067.676       20329.580          63.750  
   4924438.729      136787.335          63.750  
 23  3 18 23 58 14.9319752  0  7G31G 9G26G11G 6G 4G17
   3968721.476      282266.534          63.750  
    678998.489     -157737.567          63.750  
   3545458.122      -72641.217          63.750  
   3595531.151      -99142.867          63.750  
    886956.408       62869.312          63.750  
   -145024.756       20545.101          63.750  
   4925016.040      139834.720          63.750  
 23  3 18 23 58 15.9319750  0  7G31G 9G26G11G 6G 4G17
   3969363.495      285632.052          63.750  
    678618.343     -159741.840          63.750  
   3545204.523      -73989.995          63.750  
   3594941.679     -102257.191          63.750  
    886801.396       62054.365          63.750  
   -144982.537       20761.121          63.750  
   4925600.207      142882.099          63.750  
 23  3 18 23 58 16.9319748  0  7G31G 9G26G11G 6G 4G17
   3970001.154      288997.899          63.750  
    678235.130     -161745.697          63.750  
   3544945.387      -75338.214          63.750  
   3594349.533     -105371.156          63.750  
    886646.148       61240.078          63.750  
   -144943.640       20977.638          63.750  
   4926182.181      145929.492          63.750  
 23  3 18 23 58 17.9319745  0  7G31G 9G26G11G 6G 4G17
   3970641.170      292364.064          63.750  
    677854.860     -163749.141          63.750  
   3544690.801      -76685.876          63.750  
   3593751.948     -108484.796          63.750  
    886491.598       60426.462          63.750  
   -144902.088       21194.656          63.750  
   4926762.051      148976.885          63.750  
 23  3 18 23 58 18.9319743  0  7G31G 9G26G11G 6G 4G17
   3971282.672      295730.553          63.750  
    677473.851     -165752.164          63.750  
   3544434.629      -78032.975          63.750  
   3593168.164     -111598.095          63.750  
    886337.280       59613.505          63.750  
   -144860.735       21412.174          63.750  
   4927341.466      152024.283          63.750  
 23  3 18 23 58 19.9319741  0  8G31G 9G26G11G 6G19G 4G17
   3971923.670      299097.369          63.750  
    677093.350     -167754.780          63.750  
   3544176.424      -79379.514          63.750  
   3592571.697     -114711.051          63.750  
    886181.246       58801.219          63.750  
   3723132.502      182515.676          63.750  
   -144818.185       21630.188          63.750  
   4927919.397      155071.691          63.750  
 23  3 18 23 58 20.9319739  0  8G31G 9G26G11G 6G19G 4G17
   3972562.964      302464.501          63.750  
    676709.831     -169756.974          63.750  
   3543921.260      -80725.502          63.750  
   3591979.387     -117823.666          63.750  
    886027.026       57989.595          63.750  
   3723729.230      185485.179          63.750  
   -144777.556       21848.704          63.750  
   4928505.270      158119.093          63.750  
 23  3 18 23 58 21.9319736  0  8G31G 9G26G11G 6G19G 4G17
   3973205.256      305831.955          63.750  
    676329.509     -171758.754          63.750  
   3543665.830      -82070.916          63.750  
   3591387.260     -120935.947          63.750  
    885872.997       57178.632          63.750  
   3724273.978      188455.013          63.750  
   -144736.132       22067.721          63.750  
   4929079.185      161166.508          63.750  
 23  3 18 23 58 22.9319734  0  8G31G 9G26G11G 6G19G 4G17
   3973848.595      309199.728          63.750  
    675950.319     -173760.120          63.750  
   3543408.217      -83415.778          63.750  
   3590797.536     -124047.892          63.750  
    885718.184       56368.336          63.750  
   3724843.961      191425.177          63.750  
   -144693.828       22287.235          63.750  
   4929658.021      164213.917          63.750  
 23  3 18 23 58 23.9319732  0  8G31G 9G26G11G 6G19G 4G17
   3974488.085      312567.825          63.750  
    675569.025     -175761.067          63.750  
   3543158.835      -84760.084          63.750  
   3590200.053     -127159.486          63.750  
    885563.965       55558.703          63.750  
   3725408.674      194395.618          63.750  
   -144652.662       22507.252          63.750  
   4930235.584      167261.350          63.750  
 23  3 18 23 58 24.9319730  0  8G31G 9G26G11G 6G19G 4G17
   3975128.630      315936.245          63.750  
    675188.809     -177761.605          63.750  
   3542898.206      -86103.824          63.750  
   3589610.641     -130270.742          63.750  
    885410.658       54749.735          63.750  
   3725964.566      197366.393          63.750  
   -144611.669       22727.767          63.750  
   4930819.361      170308.780          63.750  
 23  3 18 23 58 25.9319727  0  8G31G 9G26G11G 6G19G 4G17
   3975769.295      319304.983          63.750  
    674809.022     -179761.721          63.750  
   3542642.083      -87447.002          63.750  
   3589013.890     -133381.658          63.750  
    885256.991       53941.432          63.750  
   3726535.521      200337.448          63.750  
   -144567.811       22948.781          63.750  
   4931399.177      173356.202          63.750  
 23  3 18 23 58 26.9319725  0  8G31G 9G26G11G 6G19G 4G17
   3976409.970      322674.047          63.750  
    674426.938     -181761.426          63.750  
   3542385.494      -88789.617          63.750  
   3588425.258     -136492.235          63.750  
    885103.393       53133.797          63.750  
   3727107.536      203308.853          63.750  
   -144525.967       23170.293          63.750  
   4931978.617      176403.642          63.750  
 23  3 18 23 58 27.9319723  0  8G31G 9G26G11G 6G19G 4G17
   3977052.208      326043.423          63.750  
    674045.430     -183760.708          63.750  
   3542130.308      -90131.685          63.750  
   3587833.119     -139602.479          63.750  
    884948.729       52326.827          63.750  
   3727671.358      206280.548          63.750  
   -144483.658       23392.305          63.750  
   4932557.262      179451.081          63.750  
 23  3 18 23 58 28.9319720  0  8G31G 9G26G11G 6G19G 4G17
   3977690.513      329413.130          63.750  
    673666.411     -185759.581          63.750  
   3541875.232      -91473.179          63.750  
   3587241.066     -142712.368          63.750  
    884796.933       51520.517          63.750  
   3728234.518      209252.551          63.750  
   -144440.979       23614.816          63.750  
   4933138.284      182498.522          63.750  
 23  3 18 23 58 29.9319718  0  8G31G 9G26G11G 6G19G 4G17
   3978333.685      332783.149          63.750  
    673286.236     -187758.036          63.750  
   3541621.284      -92814.116          63.750  
   3586649.461     -145821.928          63.750  
    884643.305       50714.873          63.750  
   3728800.790      212224.873          63.750  
   -144398.995       23837.831          63.750  
   4933717.052      185545.977          63.750  
 23  3 18 23 58 30.9319716  0  8G31G 9G26G11G 6G19G 4G17
   3978974.860      336153.494          63.750  
    672904.848     -189756.076          63.750  
   3541367.391      -94154.500          63.750  
   3586064.361     -148931.153          63.750  
    884491.261       49909.901          63.750  
   3729366.837      215197.496          63.750  
   -144356.562       24061.338          63.750  
   4934301.113      188593.424          63.750  
 23  3 18 23 58 31.9319714  0  8G31G 9G26G11G 6G19G 4G17
   3979615.783      339524.158          63.750  
    672527.278     -191753.701          63.750  
   3541111.428      -95494.307          63.750  
   3585463.224     -152040.017          63.750  
    884336.348       49105.585          63.750  
   3729925.844      218170.443          63.750  
   -144313.166       24285.350          63.750  
   4934874.066      191640.878          63.750  
 23  3 18 23 58 32.9319711  0  8G31G 9G26G11G 6G19G 4G17
   3980258.734      342895.140          63.750  
    672145.227     -193750.909          63.750  
   3540854.528      -96833.571          63.750  
   3584874.767     -155148.559          63.750  
    884184.710       48301.943          63.750  
   3730500.421      221143.681          63.750  
   -144272.947       24509.857          63.750  
   4935455.406      194688.339          63.750  
 23  3 18 23 58 33.9319709  0  8G31G 9G26G11G 6G19G 4G17
   3980900.852      346266.445          63.750  
    671765.563     -195747.703          63.750  
   3540601.757      -98172.271          63.750  
   3584280.731     -158256.750          63.750  
    884030.413       47498.962          63.750  
   3731060.043      224117.239          63.750  
   -144227.177       24734.864          63.750  
   4936039.736      197735.808          63.750  
 23  3 18 23 58 34.9319707  0  8G31G 9G26G11G 6G19G 4G17
   3981542.748      349638.074          63.750  
    671385.546     -197744.082          63.750  
   3540348.128      -99510.403          63.750  
   3583695.996     -161364.606          63.750  
    883879.453       46696.637          63.750  
   3731626.290      227091.114          63.750  
   -144186.834       24960.375          63.750  
   4936615.029      200783.261          63.750  
 23  3 18 23 58 35.9319705  0  8G31G 9G26G11G 6G19G 4G17
   3982179.441      353010.016          63.750  
    671005.291     -199740.041          63.750  
   3540095.873     -100847.979          63.750  
   3583101.949     -164472.115          63.750  
    883728.082       45894.988          63.750  
   3732194.839      230065.289          63.750  
   -144142.373       25186.383          63.750  
   4937203.756      203830.729          63.750  
 23  3 18 23 58 36.9319702  0  8G31G 9G26G11G 6G19G 4G17
   3982823.862      356382.282          63.750  
    670626.285     -201735.583          63.750  
   3539839.627     -102184.993          63.750  
   3582514.614     -167579.294          63.750  
    883574.689       45094.004          63.750  
   3732762.194      233039.773          63.750  
   -144098.891       25412.886          63.750  
   4937777.400      206878.201          63.750  
 23  3 18 23 58 37.9319700  0  8G31G 9G26G11G 6G19G 4G17
   3983467.178      359754.859          63.750  
    670246.923     -203730.714          63.750  
   3539584.051     -103521.442          63.750  
   3581917.125     -170686.120          63.750  
    883422.922       44293.685          63.750  
   3733325.011      236014.565          63.750  
   -144058.044       25639.893          63.750  
   4938360.125      209925.679          63.750  
 23  3 18 23 58 38.9319698  0  8G31G 9G26G11G 6G19G 4G17
   3984109.582      363127.767          63.750  
    669868.042     -205725.427          63.750  
   3539328.579     -104857.337          63.750  
   3581325.114     -173792.607          63.750  
    883269.473       43494.024          63.750  
   3733893.736      238989.674          63.750  
   -144013.188       25867.396          63.750  
   4938936.556      212973.161          63.750  
 23  3 18 23 58 39.9319695  0  8G31G 9G26G11G 6G19G 4G17
   3984750.704      366500.996          63.750  
    669488.480     -207719.725          63.750  
   3539070.526     -106192.662          63.750  
   3580734.346     -176898.752          63.750  
    883116.417       42695.034          63.750  
   3734459.644      241965.083          63.750  
   -143970.077       26095.399          63.750  
   4939517.504      216020.644          63.750  
 23  3 18 23 58 40.9319693  0  8G31G 9G26G11G 6G19G 4G17
   3985394.756      369874.537          63.750  
    669107.966     -209713.604          63.750  
   3538820.254     -107527.432          63.750  
   3580151.071     -180004.566          63.750  
    882967.179       41896.711          63.750  
   3735024.303      244940.808          63.750  
   -143926.947       26323.902          63.750  
   4940099.952      219068.127          63.750  
 23  3 18 23 58 41.9319691  0  8G31G 9G26G11G 6G19G 4G17
   3986033.038      373248.400          63.750  
    668729.753     -211707.069          63.750  
   3538572.156     -108861.643          63.750  
   3579554.294     -183110.021          63.750  
    882815.039       41099.051          63.750  
   3735595.368      247916.836          63.750  
   -143883.148       26552.905          63.750  
   4940677.238      222115.617          63.750  
 23  3 18 23 58 42.9319689  0  8G31G 9G26G11G 6G19G 4G17
   3986673.205      376622.581          63.750  
    668349.705     -213700.119          63.750  
   3538311.031     -110195.274          63.750  
   3578961.641     -186215.143          63.750  
    882661.339       40302.056          63.750  
   3736159.332      250893.181          63.750  
   -143838.592       26782.404          63.750  
   4941264.813      225163.107          63.750  
 23  3 18 23 58 43.9319686  0  8G31G 9G26G11G 6G19G 4G17
   3987318.351      379997.085          63.750  
    667969.962     -215692.748          63.750  
   3538062.860     -111528.368          63.750  
   3578375.681     -189319.929          63.750  
    882510.731       39505.726          63.750  
   3736724.367      253869.821          63.750  
   -143795.455       27012.403          63.750  
   4941835.712      228210.596          63.750  
 23  3 18 23 58 44.9319684  0  8G31G 9G26G11G 6G19G 4G17
   3987961.415      383371.904          63.750  
    667591.633     -217684.968          63.750  
   3537805.499     -112860.892          63.750  
   3577781.645     -192424.362          63.750  
    882360.135       38710.062          63.750  
   3737292.104      256846.783          63.750  
   -143750.290       27242.902          63.750  
   4942418.848      231258.094          63.750  
 23  3 18 23 58 45.9319682  0  8G31G 9G26G11G 6G19G 4G17
   3988604.330      386747.043          63.750  
    667212.430     -219676.771          63.750  
   3537552.815     -114192.848          63.750  
   3577193.832     -195528.460          63.750  
    882209.767       37915.066          63.750  
   3737857.015      259824.046          63.750  
   -143707.370       27473.898          63.750  
   4942996.598      234305.591          63.750  
 23  3 18 23 58 46.9319680  0  8G31G 9G26G11G 6G19G 4G17
   3989245.490      390122.502          63.750  
    666833.282     -221668.155          63.750  
   3537300.855     -115524.248          63.750  
   3576603.014     -198632.223          63.750  
    882055.468       37120.735          63.750  
   3738418.242      262801.624          63.750  
   -143663.290       27705.396          63.750  
   4943573.090      237353.087          63.750  
 23  3 18 23 58 47.9319677  0  8G31G 9G26G11G 6G19G 4G17
   3989886.575      393498.279          63.750  
    666454.938     -223659.119          63.750  
   3537046.008     -116855.083          63.750  
   3576009.341     -201735.629          63.750  
    881903.711       36327.068          63.750  
   3738991.930      265779.501          63.750  
   -143617.225       27937.393          63.750  
   4944155.862      240400.577          63.750  
 23  3 18 23 58 48.9319675  0  8G31G 9G26G11G 6G19G 4G17
   3990529.865      396874.372          63.750  
    666076.892     -225649.671          63.750  
   3536794.105     -118185.354          63.750  
   3575417.488     -204838.698          63.750  
    881753.439       35534.069          63.750  
   3739553.212      268757.687          63.750  
   -143575.171       28169.885          63.750  
   4944735.394      243448.082          63.750  
 23  3 18 23 58 49.9319673  0  8G31G 9G26G11G 6G19G 4G17
   3991172.463      400250.787          63.750  
    665696.797     -227639.809          63.750  
   3536541.374     -119515.066          63.750  
   3574827.206     -207941.425          63.750  
    881604.277       34741.735          63.750  
   3740123.765      271736.182          63.750  
   -143529.019       28402.877          63.750  
   4945312.136      246495.591          63.750  
 23  3 18 23 58 50.9319670  0  8G31G 9G26G11G 6G19G 4G17
   3991813.730      403627.523          63.750  
    665320.498     -229629.528          63.750  
   3536285.897     -120844.223          63.750  
   3574239.237     -211043.810          63.750  
    881454.102       33950.069          63.750  
   3740691.414      274714.986          63.750  
   -143485.766       28636.368          63.750  
   4945899.998      249543.104          63.750  
 23  3 18 23 58 51.9319668  0  8G31G 9G26G11G 6G19G 4G17
   3992457.957      407004.572          63.750  
    664938.976     -231618.831          63.750  
   3536032.907     -122172.812          63.750  
   3573646.975     -214145.850          63.750  
    881302.785       33159.066          63.750  
   3741257.864      277694.097          63.750  
   -143441.967       28870.358          63.750  
   4946478.103      252590.608          63.750  
 23  3 18 23 58 52.9319666  0  8G31G 9G26G11G 6G19G 4G17
   3993101.956      410381.939          63.750  
    664561.104     -233607.716          63.750  
   3535780.745     -123500.842          63.750  
   3573058.694     -217247.549          63.750  
    881151.335       32368.727          63.750  
   3741824.310      280673.511          63.750  
   -143397.115       29104.850          63.750  
   4947062.269      255638.122          63.750  
 23  3 18 23 58 53.9319664  0  8G31G 9G26G11G 6G19G 4G17
   3993745.655      413759.633          63.750  
    664183.113     -235596.186          63.750  
   3535529.095     -124828.304          63.750  
   3572472.104     -220348.913          63.750  
    881002.865       31579.062          63.750  
   3742392.407      283653.243          63.750  
   -143352.516       29339.835          63.750  
   4947636.497      258685.628          63.750  
 23  3 18 23 58 54.9319661  0  8G31G 9G26G11G 6G19G 4G17
   3994384.407      417137.640          63.750  
    663803.646     -237584.239          63.750  
   3535276.324     -126155.205          63.750  
   3571878.224     -223449.924          63.750  
    880852.789       30790.050          63.750  
   3742960.904      286633.278          63.750  
   -143307.563       29575.325          63.750  
   4948216.903      261733.138          63.750  
 23  3 18 23 58 55.9319659  0  8G31G 9G26G11G 6G19G 4G17
   3995026.107      420515.961          63.750  
    663426.048     -239571.878          63.750  
   3535024.704     -127481.548          63.750  
   3571290.476     -226550.594          63.750  
    880703.216       30001.715          63.750  
   3743527.473      289613.614          63.750  
   -143262.116       29811.309          63.750  
   4948796.781      264780.662          63.750  
 23  3 18 23 58 56.9319657  0  8G31G 9G26G11G 6G19G 4G17
   3995671.011      423894.604          63.750  
    663048.756     -241559.097          63.750  
   3534773.496     -128807.316          63.750  
   3570696.362     -229650.921          63.750  
    880549.715       29214.039          63.750  
   3744091.661      292594.260          63.750  
   -143216.418       30047.794          63.750  
   4949377.202      267828.170          63.750  
 23  3 18 23 58 57.9319655  0  8G31G 9G26G11G 6G19G 4G17
   3996313.826      427273.559          63.750  
    662670.980     -243545.900          63.750  
   3534521.449     -130132.530          63.750  
   3570108.261     -232750.910          63.750  
    880401.727       28427.032          63.750  
   3744658.468      295575.219          63.750  
   -143172.489       30284.775          63.750  
   4949953.857      270875.692          63.750  
 23  3 18 23 58 58.9319652  0  8G31G 9G26G11G 6G19G 4G17
   3996959.790      430652.833          63.750  
    662292.062     -245532.290          63.750  
   3534270.695     -131457.191          63.750  
   3569516.844     -235850.549          63.750  
    880253.176       27640.691          63.750  
   3745231.648      298556.477          63.750  
   -143127.450       30522.258          63.750  
   4950536.799      273923.203          63.750  
 23  3 18 23 58 59.9319650  0  8G31G 9G26G11G 6G19G 4G17
   3997601.457      434032.428          63.750  
    661914.069     -247518.259          63.750  
   3534015.373     -132781.279          63.750  
   3568932.747     -238949.851          63.750  
    880104.349       26855.019          63.750  
   3745793.604      301538.043          63.750  
   -143083.113       30760.237          63.750  
   4951112.725      276970.716          63.750  
 23  3 18 23 59  0.9319648  0  8G31G 9G26G11G 6G19G 4G17
   3998244.302      437412.345          63.750  
    661536.337     -249503.813          63.750  
   3533760.553     -134104.804          63.750  
   3568335.154     -242048.805          63.750  
    879952.735       26070.013          63.750  
   3746363.246      304519.909          63.750  
   -143036.047       30998.715          63.750  
   4951696.155      280018.234          63.750  
 23  3 18 23 59  1.9319645  0  8G31G 9G26G11G 6G19G 4G17
   3998884.577      440792.570          63.750  
    661159.481     -251488.952          63.750  
   3533512.080     -135427.761          63.750  
   3567747.403     -245147.411          63.750  
    879805.183       25285.671          63.750  
   3746928.808      307502.093          63.750  
   -142990.255       31237.690          63.750  
   4952278.385      283065.763          63.750  
 23  3 18 23 59  2.9319643  0  8G31G 9G26G11G 6G19G 4G17
   3999529.823      444173.113          63.750  
    660781.185     -253473.674          63.750  
   3533261.510     -136750.162          63.750  
   3567155.059     -248245.678          63.750  
    879650.690       24501.990          63.750  
   3747496.727      310484.576          63.750  
   -142943.994       31477.169          63.750  
   4952855.465      286113.288          63.750  
 23  3 18 23 59  3.9319641  0  8G31G 9G26G11G 6G19G 4G17
   4000174.180      447553.986          63.750  
    660404.462     -255457.979          63.750  
   3533011.038     -138072.002          63.750  
   3566570.827     -251343.606          63.750  
    879504.907       23718.980          63.750  
   3748065.797      313467.370          63.750  
   -142899.602       31717.145          63.750  
   4953433.763      289160.805          63.750  
 23  3 18 23 59  4.9319639  0  8G31G 9G26G11G 6G19G 4G17
   4000817.466      450935.166          63.750  
    660025.988     -257441.862          63.750  
   3532755.510     -139393.275          63.750  
   3565981.500     -254441.185          63.750  
    879358.562       22936.639          63.750  
   3748633.491      316450.463          63.750  
   -142853.709       31957.614          63.750  
   4954016.309      292208.324          63.750  
 23  3 18 23 59  5.9319636  0  8G31G 9G26G11G 6G19G 4G17
   4001461.521      454316.663          63.750  
    659646.845     -259425.334          63.750  
   3532505.909     -140713.986          63.750  
   3565392.938     -257538.419          63.750  
    879210.747       22154.966          63.750  
   3749200.312      319433.868          63.750  
   -142809.384       32198.585          63.750  
   4954597.473      295255.844          63.750  
 23  3 18 23 59  6.9319634  0  8G31G 9G26G11G 6G19G 4G17
   4002104.895      457698.475          63.750  
    659270.707     -261408.390          63.750  
   3532253.833     -142034.136          63.750  
   3564799.912     -260635.315          63.750  
    879060.452       21373.955          63.750  
   3749768.972      322417.578          63.750  
   -142762.380       32440.056          63.750  
   4955175.805      298303.360          63.750  
 23  3 18 23 59  7.9319632  0  8G31G 9G26G11G 6G19G 4G17
   4002750.186      461080.604          63.750  
    658894.076     -263391.025          63.750  
   3532004.669     -143353.718          63.750  
   3564212.291     -263731.854          63.750  
    878912.014       20593.608          63.750  
   3750340.381      325401.588          63.750  
   -142717.475       32682.022          63.750  
   4955753.684      301350.887          63.750  
 23  3 18 23 59  8.9319630  0  8G31G 9G26G11G 6G19G 4G17
   4003391.594      464463.051          63.750  
    658516.698     -265373.245          63.750  
   3531756.136     -144672.742          63.750  
   3563626.261     -266828.059          63.750  
    878762.562       19813.934          63.750  
   3750903.104      328385.905          63.750  
   -142670.312       32924.490          63.750  
   4956334.491      304398.402          63.750  
 23  3 18 23 59  9.9319627  0  8G31G 9G26G11G 6G19G 4G17
   4004036.301      467845.813          63.750  
    658137.813     -267355.051          63.750  
   3531504.641     -145991.202          63.750  
   3563036.055     -269923.922          63.750  
    878615.703       19034.922          63.750  
   3751473.381      331370.529          63.750  
   -142623.426       33167.454          63.750  
   4956916.237      307445.928          63.750  
 23  3 18 23 59 10.9319625  0  8G31G 9G26G11G 6G19G 4G17
   4004678.309      471228.894          63.750  
    657761.766     -269336.434          63.750  
   3531251.517     -147309.088          63.750  
   3562447.269     -273019.435          63.750  
    878467.201       18256.578          63.750  
   3752040.559      334355.456          63.750  
   -142576.263       33410.917          63.750  
   4957492.471      310493.438          63.750  
 23  3 18 23 59 11.9319623  0  8G31G 9G26G11G 6G19G 4G17
   4005325.201      474612.295          63.750  
    657384.681     -271317.406          63.750  
   3531000.363     -148626.420          63.750  
   3561855.393     -276114.604          63.750  
    878317.020       17478.903          63.750  
   3752605.999      337340.696          63.750  
   -142529.719       33654.877          63.750  
   4958074.412      313540.985          63.750  
 23  3 18 23 59 12.9319620  0  8G31G 9G26G11G 6G19G 4G17
   4005968.248      477996.006          63.750  
    657008.308     -273297.959          63.750  
   3530753.063     -149943.191          63.750  
   3561269.554     -279209.432          63.750  
    878171.442       16701.892          63.750  
   3753174.851      340326.238          63.750  
   -142485.725       33899.338          63.750  
   4958657.145      316588.484          63.750  
 23  3 18 23 59 13.9319618  0  8G31G 9G26G11G 6G19G 4G17
   4006610.790      481380.033          63.750  
    656631.853     -275278.093          63.750  
   3530497.480     -151259.390          63.750  
   3560678.791     -282303.905          63.750  
    878025.687       15925.543          63.750  
   3753746.240      343312.076          63.750  
   -142437.728       34144.296          63.750  
   4959230.515      319636.008          63.750  
 23  3 18 23 59 14.9319616  0  8G31G 9G26G11G 6G19G 4G17
   4007253.626      484764.379          63.750  
    656254.629     -277257.812          63.750  
   3530249.983     -152575.029          63.750  
   3560089.690     -285398.041          63.750  
    877875.353       15149.871          63.750  
   3754314.110      346298.227          63.750  
   -142391.373       34389.751          63.750  
   4959813.486      322683.515          63.750  
 23  3 18 23 59 15.9319614  0  8G31G 9G26G11G 6G19G 4G17
   4007898.169      488149.038          63.750  
    655877.109     -279237.115          63.750  
   3529995.177     -153890.106          63.750  
   3559499.502     -288491.835          63.750  
    877728.725       14374.860          63.750  
   3754882.273      349284.673          63.750  
   -142343.991       34635.704          63.750  
   4960395.549      325731.035          63.750  
 23  3 18 23 59 16.9319611  0  8G31G 9G26G11G 6G19G 4G17
   4008540.872      491534.018          63.750  
    655501.405     -281216.000          63.750  
   3529750.152     -155204.619          63.750  
   3558913.660     -291585.280          63.750  
    877579.285       13600.519          63.750  
   3755451.047      352271.432          63.750  
   -142297.955       34882.158          63.750  
   4960976.187      328778.554          63.750  
 23  3 18 23 59 17.9319609  0  8G31G 9G26G11G 6G19G 4G17
   4009187.571      494919.305          63.750  
    655124.709     -283194.463          63.750  
   3529496.734     -156518.560          63.750  
   3558322.946     -294678.375          63.750  
    877436.346       12826.841          63.750  
   3756016.629      355258.489          63.750  
   -142250.948       35129.108          63.750  
   4961552.840      331826.058          63.750  
 23  3 18 23 59 18.9319607  0  8G31G 9G26G11G 6G19G 4G17
   4009829.929      498304.913          63.750  
    654748.895     -285172.516          63.750  
   3529245.568     -157831.949          63.750  
   3557735.488     -297771.132          63.750  
    877286.041       12053.832          63.750  
   3756588.907      358245.854          63.750  
   -142203.429       35376.556          63.750  
   4962136.124      334873.589          63.750  
 23  3 18 23 59 19.9319605  0  8G31G 9G26G11G 6G19G 4G17
   4010477.861      501690.836          63.750  
    654371.598     -287150.146          63.750  
   3528998.890     -159144.765          63.750  
   3557144.495     -300863.542          63.750  
    877137.938       11281.491          63.750  
   3757156.855      361233.523          63.750  
   -142156.945       35624.502          63.750  
   4962713.482      337921.100          63.750  
 23  3 18 23 59 20.9319602  0  8G31G 9G26G11G 6G19G 4G17
   4011118.567      505077.070          63.750  
    653996.504     -289127.362          63.750  
   3528750.440     -160457.022          63.750  
   3556557.847     -303955.603          63.750  
    876989.900       10509.816          63.750  
   3757726.433      364221.495          63.750  
   -142108.655       35872.945          63.750  
   4963298.047      340968.601          63.750  
 23  3 18 23 59 21.9319600  0  8G31G 9G26G11G 6G19G 4G17
   4011765.632      508463.626          63.750  
    653621.363     -291104.164          63.750  
   3528498.346     -161768.715          63.750  
   3555970.397     -307047.326          63.750  
    876846.736        9738.805          63.750  
   3758294.072      367209.771          63.750  
   -142061.219       36121.892          63.750  
   4963874.619      344016.119          63.750  
 23  3 18 23 59 22.9319598  0  8G31G 9G26G11G 6G19G 4G17
   4012409.873      511850.490          63.750  
    653243.591     -293080.545          63.750  
   3528253.744     -163079.835          63.750  
   3555383.354     -310138.695          63.750  
    876699.305        8968.465          63.750  
   3758862.912      370198.358          63.750  
   -142014.524       36371.332          63.750  
   4964451.089      347063.634          63.750  
 23  3 18 23 59 23.9319595  0  8G31G 9G26G11G 6G19G 4G17
   4013053.289      515237.676          63.750  
    652866.403     -295056.510          63.750  
   3527997.838     -164390.402          63.750  
   3554792.322     -313229.723          63.750  
    876553.186        8198.794          63.750  
   3759432.645      373187.242          63.750  
   -141966.114       36621.267          63.750  
   4965034.749      350111.142          63.750  
 23  3 18 23 59 24.9319593  0  8G31G 9G26G11G 6G19G 4G17
   4013698.173      518625.172          63.750  
    652492.876     -297032.059          63.750  
   3527753.764     -165700.394          63.750  
   3554206.299     -316320.406          63.750  
    876407.796        7429.779          63.750  
   3759997.170      376176.432          63.750  
   -141918.348       36871.706          63.750  
   4965611.532      353158.657          63.750  
 23  3 18 23 59 25.9319591  0  8G31G 9G26G11G 6G19G 4G17
   4014341.035      522012.986          63.750  
    652116.645     -299007.186          63.750  
   3527503.788     -167009.831          63.750  
   3553615.533     -319410.736          63.750  
    876260.464        6661.441          63.750  
   3760570.111      379165.917          63.750  
   -141872.514       37122.641          63.750  
   4966193.535      356206.144          63.750  
 23  3 18 23 59 26.9319589  0  8G31G 9G26G11G 6G19G 4G17
   4014992.451      525401.114          63.750  
    651738.574     -300981.894          63.750  
   3527253.263     -168318.698          63.750  
   3553029.354     -322500.729          63.750  
    876113.142        5893.768          63.750  
   3761134.958      382155.714          63.750  
   -141823.754       37374.072          63.750  
   4966772.512      359253.645          63.750  
 23  3 18 23 59 27.9319586  0  8G31G 9G26G11G 6G19G 4G17
   4015630.061      528789.557          63.750  
    651365.066     -302956.190          63.750  
   3527003.538     -169626.999          63.750  
   3552443.630     -325590.370          63.750  
    875967.860        5126.767          63.750  
   3761705.358      385145.808          63.750  
   -141774.583       37626.001          63.750  
   4967352.034      362301.146          63.750  
 23  3 18 23 59 28.9319584  0  8G31G 9G26G11G 6G19G 4G17
   4016276.997      532178.312          63.750  
    650989.026     -304930.068          63.750  
   3526756.420     -170934.741          63.750  
   3551855.895     -328679.670          63.750  
    875822.968        4360.431          63.750  
   3762272.594      388136.204          63.750  
   -141727.109       37878.429          63.750  
   4967932.973      365348.646          63.750  
 23  3 18 23 59 29.9319582  0  8G31G 9G26G11G 6G19G 4G17
   4016925.258      535567.384          63.750  
    650614.193     -306903.527          63.750  
   3526507.939     -172241.913          63.750  
   3551264.729     -331768.616          63.750  
    875675.789        3594.753          63.750  
   3762844.554      391126.912          63.750  
   -141679.782       38131.358          63.750  
   4968514.502      368396.146          63.750  
 23  3 18 23 59 30.9319580  0  8G31G 9G26G11G 6G19G 4G17
   4017565.768      538956.766          63.750  
    650236.311     -308876.569          63.750  
   3526260.289     -173548.517          63.750  
   3550680.870     -334857.220          63.750  
    875532.176        2829.758          63.750  
   3763408.896      394117.914          63.750  
   -141630.964       38384.776          63.750  
   4969093.645      371443.629          63.750  
 23  3 18 23 59 31.9319577  0  8G31G 9G26G11G 6G19G 4G17
   4018212.618      542346.461          63.750  
    649862.184     -310849.191          63.750  
   3526010.125     -174854.564          63.750  
   3550094.562     -337945.479          63.750  
    875385.241        2065.418          63.750  
   3763981.635      397109.217          63.750  
   -141581.077       38638.703          63.750  
   4969672.503      374491.121          63.750  
 23  3 18 23 59 32.9319575  0  8G31G 9G26G11G 6G19G 4G17
   4018855.806      545736.476          63.750  
    649487.353     -312821.401          63.750  
   3525758.152     -176160.043          63.750  
   3549504.771     -341033.394          63.750  
    875241.043        1301.753          63.750  
   3764549.052      400100.835          63.750  
   -141534.855       38893.120          63.750  
   4970251.711      377538.614          63.750  
 23  3 18 23 59 33.9319573  0  8G31G 9G26G11G 6G19G 4G17
   4019503.931      549126.801          63.750  
    649112.608     -314793.189          63.750  
   3525512.288     -177464.956          63.750  
   3548914.587     -344120.959          63.750  
    875094.824         538.753          63.750  
   3765120.625      403092.738          63.750  
   -141485.314       39148.035          63.750  
   4970834.873      380586.103          63.750  
 23  3 18 23 59 34.9319570  0  8G31G 9G26G11G 6G19G 4G17
   4020148.518      552517.439          63.750  
    648738.945     -316764.563          63.750  
   3525265.186     -178769.304          63.750  
   3548329.913     -347208.167          63.750  
    874951.625        -223.587          63.750  
   3765692.854      406084.947          63.750  
   -141436.501       39403.455          63.750  
   4971414.947      383633.575          63.750  
 23  3 18 23 59 35.9319568  0  8G31G 9G26G11G 6G19G 4G17
   4020791.969      555908.397          63.750  
    648361.827     -318735.520          63.750  
   3525018.123     -180073.085          63.750  
   3547740.190     -350295.045          63.750  
    874805.316        -985.242          63.750  
   3766256.489      409077.472          63.750  
   -141389.729       39659.361          63.750  
   4971988.111      386681.058          63.750  
 23  3 18 23 59 36.9319566  0  8G31G 9G26G11G 6G19G 4G17
   4021436.011      559299.664          63.750  
    647987.316     -320706.054          63.750  
   3524768.440     -181376.296          63.750  
   3547154.689     -353381.564          63.750  
    874661.983       -1746.249          63.750  
   3766833.264      412070.283          63.750  
   -141340.910       39915.776          63.750  
   4972579.283      389728.536          63.750  
 23  3 18 23 59 37.9319564  0  8G31G 9G26G11G 6G19G 4G17
   4022081.875      562691.244          63.750  
    647611.177     -322676.172          63.750  
   3524521.808     -182678.955          63.750  
   3546565.792     -356467.739          63.750  
    874513.802       -2506.574          63.750  
   3767398.254      415063.402          63.750  
   -141290.129       40172.682          63.750  
   4973157.079      392776.007          63.750  
 23  3 18 23 59 38.9319561  0  8G31G 9G26G11G 6G19G 4G17
   4022730.782      566083.143          63.750  
    647236.145     -324645.878          63.750  
   3524273.479     -183981.032          63.750  
   3545977.544     -359553.569          63.750  
    874368.313       -3266.236          63.750  
   3767971.820      418056.824          63.750  
   -141240.196       40430.086          63.750  
   4973738.642      395823.482          63.750  
 23  3 18 23 59 39.9319559  0  8G31G 9G26G11G 6G19G 4G17
   4023372.353      569475.349          63.750  
    646861.711     -326615.158          63.750  
   3524024.826     -185282.554          63.750  
   3545392.961     -362639.049          63.750  
    874227.619       -4025.233          63.750  
   3768539.573      421050.543          63.750  
   -141191.890       40687.992          63.750  
   4974313.377      398870.942          63.750  
 23  3 18 23 59 40.9319557  0  8G31G 9G26G11G 6G19G 4G17
   4024019.877      572867.870          63.750  
    646488.266     -328584.024          63.750  
   3523778.332     -186583.509          63.750  
   3544805.078     -365724.185          63.750  
    874081.188       -4783.562          63.750  
   3769107.860      424044.574          63.750  
   -141142.970       40946.392          63.750  
   4974890.597      401918.420          63.750  
 23  3 18 23 59 41.9319555  0  8G31G 9G26G11G 6G19G 4G17
   4024664.539      576260.709          63.750  
    646113.742     -330552.472          63.750  
   3523529.341     -187883.896          63.750  
   3544216.291     -368808.972          63.750  
    873939.875       -5541.221          63.750  
   3769674.405      427038.894          63.750  
   -141094.616       41205.289          63.750  
   4975467.955      404965.860          63.750  
 23  3 18 23 59 42.9319552  0  8G31G 9G26G11G 6G19G 4G17
   4025311.671      579653.851          63.750  
    645736.584     -332520.500          63.750  
   3523283.222     -189183.724          63.750  
   3543631.118     -371893.405          63.750  
    873791.704       -6298.211          63.750  
   3770244.709      430033.515          63.750  
   -141044.930       41464.685          63.750  
   4976056.900      408013.335          63.750  
 23  3 18 23 59 43.9319550  0  8G31G 9G26G11G 6G19G 4G17
   4025956.251      583047.312          63.750  
    645363.730     -334488.116          63.750  
   3523035.744     -190482.979          63.750  
   3543043.303     -374977.502          63.750  
    873650.332       -7054.538          63.750  
   3770821.360      433028.448          63.750  
   -140996.566       41724.579          63.750  
   4976629.350      411060.776          63.750  
 23  3 18 23 59 44.9319548  0  8G31G 9G26G11G 6G19G 4G17
   4026603.040      586441.082          63.750  
    644989.162     -336455.310          63.750  
   3522788.594     -191781.669          63.750  
   3542460.667     -378061.240          63.750  
    873507.496       -7810.191          63.750  
   3771387.411      436023.679          63.750  
   -140944.805       41984.967          63.750  
   4977213.435      414108.229          63.750  
 23  3 18 23 59 45.9319545  0  8G31G 9G26G11G 6G19G 4G17
   4027249.472      589835.163          63.750  
    644616.717     -338422.083          63.750  
   3522538.187     -193079.792          63.750  
   3541870.482     -381144.634          63.750  
    873362.122       -8565.176          63.750  
   3771955.854      439019.199          63.750  
   -140895.363       42245.854          63.750  
   4977792.046      417155.679          63.750  
 23  3 18 23 59 46.9319543  0  8G31G 9G26G11G 6G19G 4G17
   4027893.064      593229.566          63.750  
    644241.353     -340388.442          63.750  
   3522290.451     -194377.350          63.750  
   3541284.125     -384227.688          63.750  
    873220.760       -9319.497          63.750  
   3772531.403      442015.027          63.750  
   -140847.927       42507.241          63.750  
   4978368.337      420203.113          63.750  
 23  3 18 23 59 47.9319541  0  8G31G 9G26G11G 6G19G 4G17
   4028540.022      596624.274          63.750  
    643868.300     -342354.386          63.750  
   3522047.677     -195674.346          63.750  
   3540693.771     -387310.383          63.750  
    873079.106      -10073.149          63.750  
   3773094.606      445011.172          63.750  
   -140797.392       42769.124          63.750  
   4978949.148      423250.553          63.750  
 23  3 18 23 59 48.9319539  0  8G31G 9G26G11G 6G19G 4G17
   4029188.444      600019.295          63.750  
    643493.681     -344319.903          63.750  
   3521800.000     -196970.766          63.750  
   3540111.201     -390392.736          63.750  
    872935.435      -10826.137          63.750  
   3773668.367      448007.585          63.750  
   -140747.033       43031.505          63.750  
   4979528.805      426297.983          63.750  
 23  3 18 23 59 49.9319536  0  8G31G 9G26G11G 6G19G 4G17
   4029833.975      603414.634          63.750  
    643119.802     -346285.009          63.750  
   3521555.538     -198266.629          63.750  
   3539523.123     -393474.737          63.750  
    872790.546      -11578.447          63.750  
   3774237.296      451004.321          63.750  
   -140697.757       43294.382          63.750  
   4980110.144      429345.411          63.750  
 23  3 18 23 59 50.9319534  0  8G31G 9G26G11G 6G19G 4G17
   4030477.936      606810.274          63.750  
    642745.484     -348249.696          63.750  
   3521307.663     -199561.926          63.750  
   3538937.596     -396556.394          63.750  
    872641.746      -12330.094          63.750  
   3774809.306      454001.354          63.750  
   -140646.795       43557.757          63.750  
   4980691.547      432392.840          63.750  
 23  3 18 23 59 51.9319532  0  8G31G 9G26G11G 6G19G 4G17
   4031122.576      610206.236          63.750  
    642372.681     -350213.961          63.750  
   3521062.604     -200856.651          63.750  
   3538352.213     -399637.698          63.750  
    872508.874      -13081.077          63.750  
   3775381.300      456998.677          63.750  
   -140595.234       43821.629          63.750  
   4981274.822      435440.250          63.750  
 23  3 18 23 59 52.9319530  0  8G31G 9G26G11G 6G19G 4G17
   4031770.619      613602.510          63.750  
    641997.548     -352177.812          63.750  
   3520816.518     -202150.816          63.750  
   3537766.877     -402718.654          63.750  
    872355.426      -13831.384          63.750  
   3775946.590      459996.309          63.750  
   -140545.859       44085.996          63.750  
   4981850.176      438487.670          63.750  
 23  3 18 23 59 53.9319527  0  8G31G 9G26G11G 6G19G 4G17
   4032419.146      616999.087          63.750  
    641623.468     -354141.247          63.750  
   3520571.497     -203444.406          63.750  
   3537175.482     -405799.261          63.750  
    872216.027      -14581.023          63.750  
   3776516.884      462994.231          63.750  
   -140494.800       44350.862          63.750  
   4982440.486      441535.092          63.750  
 23  3 18 23 59 54.9319525  0  8G31G 9G26G11G 6G19G 4G17
   4033062.870      620395.982          63.750  
    641249.325     -356104.263          63.750  
   3520319.335     -204737.429          63.750  
   3536592.223     -408879.525          63.750  
    872072.025      -15329.997          63.750  
   3777087.063      465992.466          63.750  
   -140445.052       44616.226          63.750  
   4983011.036      444582.492          63.750  
 23  3 18 23 59 55.9319523  0  8G31G 9G26G11G 6G19G 4G17
   4033711.921      623793.188          63.750  
    640877.492     -358066.855          63.750  
   3520075.508     -206029.889          63.750  
   3536007.439     -411959.435          63.750  
    871936.264      -16078.307          63.750  
   3777660.431      468990.991          63.750  
   -140394.018       44882.088          63.750  
   4983592.783      447629.889          63.750  
 23  3 18 23 59 56.9319520  0  8G31G 9G26G11G 6G19G 4G17
   4034357.855      627190.707          63.750  
    640503.217     -360029.033          63.750  
   3519833.307     -207321.782          63.750  
   3535421.075     -415038.995          63.750  
    871792.782      -16825.945          63.750  
   3778231.709      471989.820          63.750  
   -140343.267       45148.446          63.750  
   4984176.180      450677.287          63.750  
 23  3 18 23 59 57.9319518  0  8G31G 9G26G11G 6G19G 4G17
   4035000.498      630588.538          63.750  
    640129.569     -361990.791          63.750  
   3519581.291     -208613.105          63.750  
   3534837.277     -418118.210          63.750  
    871645.961      -17572.910          63.750  
   3778800.789      474988.949          63.750  
   -140292.921       45415.300          63.750  
   4984754.914      453724.677          63.750  
 23  3 18 23 59 58.9319516  0  8G31G 9G26G11G 6G19G 4G17
   4035650.358      633986.676          63.750  
    639758.386     -363952.133          63.750  
   3519340.120     -209903.873          63.750  
   3534244.104     -421197.067          63.750  
    871509.188      -18319.213          63.750  
   3779367.970      477988.371          63.750  
   -140242.380       45682.654          63.750  
   4985334.467      456772.068          63.750  
 23  3 18 23 59 59.9319514  0  8G31G 9G26G11G 6G19G 4G17
   4036292.989      637385.124          63.750  
    639385.549     -365913.055          63.750  
   3519096.771     -211194.065          63.750  
   3533659.800     -424275.581          63.750  
    871366.611      -19064.843          63.750  
   3779945.860      480988.096          63.750  
   -140191.536       45950.501          63.750  
   4985906.324      459819.442          63.750  
 23  3 19  0  0  0.9319511  0  8G31G 9G26G11G 6G19G 4G17
   4036946.400      640783.882          63.750  
    639010.970     -367873.560          63.750  
   3518846.957     -212483.681          63.750  
   3533078.798     -427353.753          63.750  
    871223.357      -19809.806          63.750  
   3780512.655      483988.120          63.750  
   -140139.845       46218.848          63.750  
   4986489.483      462866.829          63.750  
 23  3 19  0  0  1.9319509  0  8G31G 9G26G11G 6G19G 4G17
                    644182.961          63.750  
                   -369833.646          63.750  
                   -213772.744          63.750  
                   -430431.564          63.750  
                    -20554.097          63.750  
                    486988.444          63.750  
                     46487.690          63.750  
                    465914.194          63.750  
 23  3 12  0  0  2.9180000  0  8G31G 9G26G11G 6G19G 4G17
   -144072.858      647582.342          63.750  
  -3544043.324     -371793.310          63.750  
   -663946.339     -215061.236          63.750  
   -650404.643     -433509.031          63.750  
  -3311370.083      -21297.729          63.750  
   -400650.954      489989.062          63.750  
  -4322346.789       46757.032          63.750  
    805342.987      468961.538          63.750  
 23  3 12  0  0  3.9179998  0  8G31G 9G26G11G 6G19G 4G17
   -143422.873      650982.035          63.750  
  -3544416.141     -373752.560          63.750  
   -664195.348     -216349.161          63.750  
   -650990.839     -436586.150          63.750  
  -3311511.402      -22040.677          63.750  
   -400083.357      492989.982          63.750  
  -4322295.127       47026.866          63.750  
    805921.799      472008.897          63.750  
 23  3 12  0  0  4.9179995  0  8G31G 9G26G11G 6G19G 4G17
   -142778.898      654382.047          63.750  
  -3544791.462     -375711.393          63.750  
   -664440.940     -217636.517          63.750  
   -651576.240     -439662.915          63.750  
  -3311650.818      -22782.974          63.750  
   -399512.099      495991.201          63.750  
  -4322244.725       47297.203          63.750  
    806499.008      475056.273          63.750  
 23  3 12  0  0  5.9179993  0  8G31G 9G26G11G 6G19G 4G17
   -142129.963      657782.356          63.750  
  -3545162.351     -377669.799          63.750  
   -664684.169     -218923.304          63.750  
   -652162.219     -442739.334          63.750  
  -3311793.573      -23524.590          63.750  
   -398938.596      498992.719          63.750  
  -4322191.684       47568.031          63.750  
    807085.960      478103.603          63.750  
 23  3 12  0  0  6.9179991  0  8G31G 9G26G11G 6G19G 4G17
   -141482.334      661182.981          63.750  
  -3545535.356     -379627.796          63.750  
   -664930.937     -220209.517          63.750  
   -652742.984     -445815.395          63.750  
  -3311933.484      -24265.538          63.750  
   -398367.497      501994.534          63.750  
  -4322141.572       47839.358          63.750  
    807663.247      481150.940          63.750  
 23  3 12  0  0  7.9179989  0  8G31G 9G26G11G 6G19G 4G17
   -140839.749      664583.920          63.750  
  -3545905.172     -381585.369          63.750  
   -665175.908     -221495.179          63.750  
   -653328.876     -448891.114          63.750  
  -3312072.038      -25005.824          63.750  
   -397797.336      504996.645          63.750  
  -4322090.169       48111.186          63.750  
    808234.447      484198.268          63.750  
 23  3 12  0  0  8.9179986  0  8G31G 9G26G11G 6G19G 4G17
   -140186.891      667985.165          63.750  
  -3546279.154     -383542.525          63.750  
   -665424.731     -222780.254          63.750  
   -653919.874     -451966.481          63.750  
  -3312214.557      -25745.439          63.750  
   -397226.565      507999.053          63.750  
  -4322035.442       48383.508          63.750  
    808822.433      487245.606          63.750  
 23  3 12  0  0  9.9179984  0  8G31G 9G26G11G 6G19G 4G17
   -139539.494      671386.718          63.750  
  -3546651.162     -385499.263          63.750  
   -665666.614     -224064.770          63.750  
   -654499.372     -455041.496          63.750  
  -3312355.792      -26484.376          63.750  
   -396654.701      511001.761          63.750  
  -4321986.625       48656.323          63.750  
    809403.552      490292.924          63.750  
 23  3 12  0  0 10.9179982  0  8G31G 9G26G11G 6G19G 4G17
   -138895.360      674788.585          63.750  
  -3547024.097     -387455.582          63.750  
   -665914.074     -225348.726          63.750  
   -655084.792     -458116.156          63.750  
  -3312497.106      -27222.659          63.750  
   -396086.940      514004.765          63.750  
  -4321933.198       48929.641          63.750  
    809975.677      493340.237          63.750  
 23  3 12  0  0 11.9179980  0  8G31G 9G26G11G 6G19G 4G17
   -138248.772      678190.761          63.750  
  -3547396.799     -389411.483          63.750  
   -666159.325     -226632.101          63.750  
   -655669.428     -461190.473          63.750  
  -3312634.895      -27960.263          63.750  
   -395508.012      517008.072          63.750  
  -4321882.659       49203.451          63.750  
    810556.058      496387.541          63.750  
 23  3 12  0  0 12.9179977  0  8G31G 9G26G11G 6G19G 4G17
   -137600.366      681593.250          63.750  
  -3547768.667     -391366.964          63.750  
   -666399.819     -227914.917          63.750  
   -656257.941     -464264.440          63.750  
  -3312777.418      -28697.202          63.750  
   -394940.365      520011.666          63.750  
  -4321828.807       49477.762          63.750  
    811137.607      499434.850          63.750  
 23  3 12  0  0 13.9179975  0  8G31G 9G26G11G 6G19G 4G17
   -136951.017      684996.041          63.750  
  -3548140.386     -393322.025          63.750  
   -666639.917     -229197.167          63.750  
   -656842.848     -467338.050          63.750  
  -3312917.788      -29433.472          63.750  
   -394367.891      523015.557          63.750  
  -4321775.497       49752.567          63.750  
    811719.461      502482.141          63.750  
 23  3 12  0  0 14.9179973  0  8G31G 9G26G11G 6G19G 4G17
   -136305.041      688399.150          63.750  
  -3548511.775     -395276.669          63.750  
   -666892.811     -230478.837          63.750  
   -657424.370     -470411.317          63.750  
  -3313052.751      -30169.069          63.750  
   -393793.991      526019.757          63.750  
  -4321726.000       50027.868          63.750  
    812299.264      505529.428          63.750  
 23  3 12  0  0 15.9179970  0  8G31G 9G26G11G 6G19G 4G17
   -135654.387      691802.563          63.750  
  -3548883.602     -397230.898          63.750  
   -667129.180     -231759.946          63.750  
   -658009.830     -473484.227          63.750  
  -3313195.507      -30903.999          63.750  
   -393226.116      529024.249          63.750  
  -4321672.533       50303.669          63.750  
    812880.421      508576.701          63.750  
 23  3 12  0  0 16.9179968  0  8G31G 9G26G11G 6G19G 4G17
   -135007.772      695206.288          63.750  
  -3549256.678     -399184.699          63.750  
   -667375.661     -233040.493          63.750  
   -658596.276     -476556.787          63.750  
  -3313336.041      -31638.255          63.750  
   -392651.369      532029.036          63.750  
  -4321617.534       50579.960          63.750  
    813468.237      511623.965          63.750  
 23  3 12  0  0 17.9179966  0  8G31G 9G26G11G 6G19G 4G17
   -134359.677      698610.318          63.750  
  -3549627.256     -401138.089          63.750  
   -667624.204     -234320.459          63.750  
   -659177.755     -479628.996          63.750  
  -3313476.643      -32371.851          63.750  
   -392080.395      535034.120          63.750  
  -4321566.609       50856.754          63.750  
    814039.151      514671.247          63.750  
 23  3 12  0  0 18.9179964  0  8G31G 9G26G11G 6G19G 4G17
   -133711.537      702014.661          63.750  
  -3549997.846     -403091.056          63.750  
   -667859.185     -235599.877          63.750  
   -659762.739     -482700.857          63.750  
  -3313616.295      -33104.772          63.750  
   -391507.103      538039.491          63.750  
  -4321514.351       51134.043          63.750  
    814612.509      517718.513          63.750  
 23  3 12  0  0 19.9179961  0  8G31G 9G26G11G 6G19G 4G17
   -133065.191      705419.315          63.750  
  -3550372.997     -405043.607          63.750  
   -668101.556     -236878.713          63.750  
   -660350.354     -485772.359          63.750  
  -3313755.740      -33837.024          63.750  
   -390934.702      541045.184          63.750  
  -4321460.913       51411.828          63.750  
    815209.739      520765.766          63.750  
 23  3 12  0  0 20.9179959  0  8G31G 9G26G11G 6G19G 4G17
   -132417.338      708824.278          63.750  
  -3550741.932     -406995.737          63.750  
   -668338.413     -238156.982          63.750  
   -660934.822     -488843.518          63.750  
  -3313896.827      -34568.604          63.750  
   -390367.588      544051.148          63.750  
  -4321407.432       51690.108          63.750  
    815779.092      523813.007          63.750  
 23  3 12  0  0 21.9179957  0  8G31G 9G26G11G 6G19G 4G17
   -131767.072      712229.541          63.750  
  -3551115.866     -408947.447          63.750  
   -668589.687     -239434.664          63.750  
   -661518.306     -491914.320          63.750  
  -3314034.064      -35299.524          63.750  
   -389795.915      547057.421          63.750  
  -4321354.260       51968.887          63.750  
    816366.322      526860.243          63.750  
 23  3 12  0  0 22.9179955  0  8G31G 9G26G11G 6G19G 4G17
   -131122.590      715635.122          63.750  
  -3551485.634     -410898.744          63.750  
   -668834.399     -240711.805          63.750  
   -662104.024     -494984.778          63.750  
  -3314173.627      -36029.767          63.750  
   -389221.545      550063.987          63.750  
  -4321302.277       52248.161          63.750  
    816939.207      529907.464          63.750  
 23  3 12  0  0 23.9179952  0  8G31G 9G26G11G 6G19G 4G17
   -130474.568      719041.008          63.750  
  -3551855.323     -412849.617          63.750  
   -669073.330     -241988.365          63.750  
   -662683.511     -498054.878          63.750  
  -3314310.437      -36759.343          63.750  
   -388650.960      553070.851          63.750  
  -4321249.496       52527.932          63.750  
    817509.017      532954.700          63.750  
 23  3 12  0  0 24.9179950  0  8G31G 9G26G11G 6G19G 4G17
   -129822.540      722447.204          63.750  
  -3552227.729     -414800.071          63.750  
   -669310.158     -243264.365          63.750  
   -663268.498     -501124.633          63.750  
  -3314450.617      -37488.250          63.750  
   -388075.614      556078.006          63.750  
  -4321195.472       52808.199          63.750  
    818095.942      536001.910          63.750  
 23  3 12  0  0 25.9179948  0  8G31G 9G26G11G 6G19G 4G17
   -129176.428      725853.707          63.750  
  -3552600.107     -416750.107          63.750  
   -669561.722     -244539.778          63.750  
   -663854.658     -504194.021          63.750  
  -3314591.180      -38216.485          63.750  
   -387506.779      559085.469          63.750  
  -4321141.552       53088.963          63.750  
    818691.478      539049.109          63.750  
 23  3 12  0  0 26.9179945  0  8G31G 9G26G11G 6G19G 4G17
   -128531.695      729260.516          63.750  
  -3552970.125     -418699.726          63.750  
   -669801.300     -245814.637          63.750  
   -664441.874     -507263.066          63.750  
  -3314727.228      -38944.055          63.750  
   -386931.076      562093.215          63.750  
  -4321088.204       53370.225          63.750  
    819260.172      542096.306          63.750  
 23  3 12  0  0 27.9179943  0  8G31G 9G26G11G 6G19G 4G17
   -127880.311      732667.638          63.750  
  -3553342.146     -420648.922          63.750  
   -670041.445     -247088.922          63.750  
   -665022.903     -510331.760          63.750  
  -3314868.775      -39670.950          63.750  
   -386359.684      565101.258          63.750  
  -4321033.755       53651.981          63.750  
    819848.550      545143.506          63.750  
 23  3 12  0  0 28.9179941  0  8G31G 9G26G11G 6G19G 4G17
   -127232.267      736075.064          63.750  
  -3553710.601     -422597.701          63.750  
   -670289.747     -248362.626          63.750  
   -665605.747     -513400.102          63.750  
  -3315002.643      -40397.175          63.750  
   -385788.554      568109.598          63.750  
  -4320982.359       53934.231          63.750  
    820418.674      548190.678          63.750  
 23  3 12  0  0 29.9179939  0  8G31G 9G26G11G 6G19G 4G17
   -126583.049      739482.803          63.750  
  -3554082.898     -424546.058          63.750  
   -670533.848     -249635.770          63.750  
   -666192.246     -516468.093          63.750  
  -3315140.588      -41122.739          63.750  
   -385215.204      571118.237          63.750  
  -4320928.792       54216.984          63.750  
    820997.038      551237.840          63.750  
 23  3 12  0  0 30.9179936  0  8G31G 9G26G11G 6G19G 4G17
   -125934.460      742890.845          63.750  
  -3554451.967     -426493.998          63.750  
   -670770.129     -250908.356          63.750  
   -666774.063     -519535.728          63.750  
  -3315279.131      -41847.627          63.750  
   -384642.313      574127.153          63.750  
  -4320872.567       54500.229          63.750  
    821579.275      554285.010          63.750  
 23  3 12  0  0 31.9179934  0  8G31G 9G26G11G 6G19G 4G17
   -125283.655      746299.190          63.750  
  -3554823.622     -428441.518          63.750  
   -671015.259     -252180.367          63.750  
   -667358.490     -522603.016          63.750  
  -3315418.492      -42571.843          63.750  
   -384071.070      577136.387          63.750  
  -4320817.084       54783.968          63.750  
    822156.246      557332.158          63.750  
 23  3 12  0  0 32.9179932  0  8G31G 9G26G11G 6G19G 4G17
   -124636.330      749707.854          63.750  
  -3555193.593     -430388.621          63.750  
   -671257.658     -253451.804          63.750  
   -667939.768     -525669.943          63.750  
  -3315555.824      -43295.391          63.750  
   -383495.269      580145.911          63.750  
  -4320765.616       55068.204          63.750  
    822733.480      560379.308          63.750  
 23  3 12  0  0 33.9179930  0  8G31G 9G26G11G 6G19G 4G17
   -123986.154      753116.818          63.750  
  -3555564.752     -432335.302          63.750  
   -671493.956     -254722.678          63.750  
   -668525.985     -528736.521          63.750  
  -3315691.111      -44018.273          63.750  
   -382919.488      583155.722          63.750  
  -4320712.210       55352.940          63.750  
    823319.403      563426.435          63.750  
 23  3 12  0  0 34.9179927  0  8G31G 9G26G11G 6G19G 4G17
   -123339.938      756526.093          63.750  
  -3555935.382     -434281.562          63.750  
   -671737.120     -255992.975          63.750  
   -669108.946     -531802.755          63.750  
  -3315829.792      -44740.481          63.750  
   -382351.487      586165.831          63.750  
  -4320656.496       55638.170          63.750  
    823900.503      566473.561          63.750  
 23  3 12  0  0 35.9179925  0  8G31G 9G26G11G 6G19G 4G17
   -122690.730      759935.674          63.750  
  -3556305.090     -436227.407          63.750  
   -671985.734     -257262.707          63.750  
   -669692.933     -534868.627          63.750  
  -3315966.099      -45462.017          63.750  
   -381777.217      589176.234          63.750  
  -4320603.492       55923.895          63.750  
    824476.528      569520.697          63.750  
 23  3 12  0  0 36.9179923  0  8G31G 9G26G11G 6G19G 4G17
   -122042.634      763345.559          63.750  
  -3556676.297     -438172.831          63.750  
   -672227.688     -258531.855          63.750  
   -670275.244     -537934.149          63.750  
  -3316105.381      -46182.887          63.750  
   -381204.802      592186.932          63.750  
  -4320547.845       56210.117          63.750  
    825053.289      572567.794          63.750  
 23  3 12  0  0 37.9179920  0  8G31G 9G26G11G 6G19G 4G17
   -121394.289      766755.760          63.750  
  -3557044.400     -440117.836          63.750  
   -672460.998     -259800.460          63.750  
   -670858.794     -540999.313          63.750  
  -3316240.355      -46903.087          63.750  
   -380635.094      595197.923          63.750  
  -4320495.436       56496.836          63.750  
    825631.482      575614.907          63.750  
 23  3 12  0  0 38.9179918  0  8G31G 9G26G11G 6G19G 4G17
   -120744.286      770166.261          63.750  
  -3557415.219     -442062.418          63.750  
   -672698.748     -261068.470          63.750  
   -671440.929     -544064.129          63.750  
  -3316380.623      -47622.616          63.750  
   -380062.425      598209.214          63.750  
  -4320438.382       56784.050          63.750  
    826214.998      578661.992          63.750  
 23  3 12  0  0 39.9179916  0  8G31G 9G26G11G 6G19G 4G17
   -120092.532      773577.069          63.750  
  -3557786.348     -444006.583          63.750  
   -672947.184     -262335.920          63.750  
   -672027.482     -547128.589          63.750  
  -3316515.249      -48341.479          63.750  
   -379489.708      601220.789          63.750  
  -4320383.301       57071.761          63.750  
    826801.970      581709.073          63.750  
 23  3 12  0  0 40.9179914  0  8G31G 9G26G11G 6G19G 4G17
   -119446.032      776988.186          63.750  
  -3558155.988     -445950.335          63.750  
   -673185.335     -263602.805          63.750  
   -672609.698     -550192.694          63.750  
  -3316652.048      -49059.665          63.750  
   -378911.797      604232.664          63.750  
  -4320329.146       57359.969          63.750  
    827376.503      584756.146          63.750  
 23  3 12  0  0 41.9179911  0  8G31G 9G26G11G 6G19G 4G17
   -118797.461      780399.607          63.750  
  -3558525.233     -447893.658          63.750  
   -673441.498     -264869.104          63.750  
   -673192.212     -553256.451          63.750  
  -3316787.563      -49777.187          63.750  
   -378345.441      607244.834          63.750  
  -4320274.485       57648.671          63.750  
    827955.576      587803.211          63.750  
 23  3 12  0  0 42.9179909  0  8G31G 9G26G11G 6G19G 4G17
   -118145.674      783811.334          63.750  
  -3558895.124     -449836.563          63.750  
   -673664.652     -266134.867          63.750  
   -673771.950     -556319.857          63.750  
  -3316927.543      -50494.035          63.750  
   -377763.931      610257.296          63.750  
  -4320219.107       57937.870          63.750  
    828532.001      590850.262          63.750  
 23  3 12  0  0 43.9179907  0  8G31G 9G26G11G 6G19G 4G17
   -117496.901      787223.377          63.750  
  -3559265.053     -451779.054          63.750  
   -673917.676     -267400.017          63.750  
   -674355.801     -559382.903          63.750  
  -3317061.974      -51210.215          63.750  
   -377192.027      613270.040          63.750  
  -4320163.939       58227.562          63.750  
    829111.698      593897.307          63.750  
 23  3 12  0  0 44.9179905  0  8G31G 9G26G11G 6G19G 4G17
   -116851.138      790635.714          63.750  
  -3559633.371     -453721.121          63.750  
   -674156.274     -268664.615          63.750  
   -674941.122     -562445.593          63.750  
  -3317197.037      -51925.726          63.750  
   -376621.581      616283.101          63.750  
  -4320109.442       58517.755          63.750  
    829690.624      596944.335          63.750  
 23  3 12  0  0 45.9179902  0  8G31G 9G26G11G 6G19G 4G17
   -116204.046      794048.367          63.750  
  -3560003.753     -455662.771          63.750  
   -674387.889     -269928.665          63.750  
   -675522.219     -565507.938          63.750  
  -3317333.436      -52640.562          63.750  
   -376047.348      619296.443          63.750  
  -4320054.469       58808.440          63.750  
    830272.658      599991.365          63.750  
 23  3 12  0  0 46.9179900  0  8G31G 9G26G11G 6G19G 4G17
   -115549.412      797461.321          63.750  
  -3560372.860     -457603.999          63.750  
   -674630.142     -271192.123          63.750  
   -676104.087     -568569.923          63.750  
  -3317468.586      -53354.726          63.750  
   -375474.619      622310.073          63.750  
  -4319998.934       59099.618          63.750  
    830854.103      603038.378          63.750  
 23  3 12  0  0 47.9179898  0  8G31G 9G26G11G 6G19G 4G17
   -114897.957      800874.583          63.750  
  -3560741.428     -459544.809          63.750  
   -674864.779     -272455.005          63.750  
   -676683.311     -571631.555          63.750  
  -3317602.699      -54068.225          63.750  
   -374897.138      625324.011          63.750  
  -4319943.793       59391.297          63.750  
    831434.754      606085.379          63.750  
 23  3 12  0  0 48.9179895  0  8G31G 9G26G11G 6G19G 4G17
   -114249.024      804288.146          63.750  
  -3561109.297     -461485.198          63.750  
   -675108.329     -273717.330          63.750  
   -677266.265     -574692.833          63.750  
  -3317741.177      -54781.055          63.750  
   -374327.326      628338.222          63.750  
  -4319888.064       59683.474          63.750  
    832006.127      609132.378          63.750  
 23  3 12  0  0 49.9179893  0  8G31G 9G26G11G 6G19G 4G17
   -113601.593      807702.019          63.750  
  -3561479.972     -463425.167          63.750  
   -675348.646     -274979.068          63.750  
   -677851.587     -577753.756          63.750  
  -3317876.275      -55493.215          63.750  
   -373752.924      631352.733          63.750  
  -4319831.991       59976.145          63.750  
    832598.582      612179.353          63.750  
 23  3 12  0  0 50.9179891  0  8G31G 9G26G11G 6G19G 4G17
   -112952.380      811116.197          63.750  
  -3561849.512     -465364.717          63.750  
   -675593.580     -276240.244          63.750  
   -678436.048     -580814.326          63.750  
  -3318009.545      -56204.699          63.750  
   -373179.132      634367.535          63.750  
  -4319775.618       60269.307          63.750  
    833173.864      615226.334          63.750  
 23  3 12  0  0 51.9179889  0  8G31G 9G26G11G 6G19G 4G17
   -112302.812      814530.678          63.750  
  -3562218.659     -467303.844          63.750  
   -675837.822     -277500.834          63.750  
   -679016.562     -583874.536          63.750  
  -3318144.509      -56915.510          63.750  
   -372606.659      637382.642          63.750  
  -4319720.944       60562.965          63.750  
    833751.426      618273.280          63.750  
 23  3 12  0  0 52.9179886  0  8G31G 9G26G11G 6G19G 4G17
   -111652.503      817945.468          63.750  
  -3562588.074     -469242.554          63.750  
   -676060.047     -278760.899          63.750  
   -679600.792     -586934.396          63.750  
  -3318282.628      -57625.658          63.750  
   -372028.831      640398.022          63.750  
  -4319662.938       60857.123          63.750  
    834329.642      621320.236          63.750  
 23  3 12  0  0 53.9179884  0  8G31G 9G26G11G 6G19G 4G17
   -111002.856      821360.560          63.750  
  -3562957.159     -471180.846          63.750  
   -676322.275     -280020.346          63.750  
   -680182.748     -589993.907          63.750  
  -3318414.982      -58335.135          63.750  
   -371457.235      643413.706          63.750  
  -4319609.193       61151.776          63.750  
    834915.242      624367.170          63.750  
 23  3 12  0  0 54.9179882  0  8G31G 9G26G11G 6G19G 4G17
   -110354.008      824775.961          63.750  
  -3563325.114     -473118.714          63.750  
   -676553.758     -281279.232          63.750  
   -680760.770     -593053.059          63.750  
  -3318552.706      -59043.938          63.750  
   -370880.935      646429.685          63.750  
  -4319552.052       61446.924          63.750  
    835495.333      627414.100          63.750  
 23  3 12  0  0 55.9179880  0  8G31G 9G26G11G 6G19G 4G17
   -109702.130      828191.671          63.750  
  -3563694.711     -475056.164          63.750  
   -676785.271     -282537.575          63.750  
   -681347.823     -596111.851          63.750  
  -3318686.262      -59752.075          63.750  
   -370312.159      649445.951          63.750  
  -4319496.360       61742.568          63.750  
    836070.296      630461.025          63.750  
 23  3 12  0  0 56.9179877  0  8G31G 9G26G11G 6G19G 4G17
   -109053.858      831607.674          63.750  
  -3564063.138     -476993.195          63.750  
   -677038.863     -283795.297          63.750  
   -681928.370     -599170.294          63.750  
  -3318820.574      -60459.535          63.750  
   -369734.382      652462.509          63.750  
  -4319438.665       62038.706          63.750  
    836652.910      633507.928          63.750  
 23  3 12  0  0 57.9179875  0  8G31G 9G26G11G 6G19G 4G17
   -108403.539      835023.995          63.750  
  -3564431.466     -478929.805          63.750  
   -677279.092     -285052.478          63.750  
   -682508.711     -602228.381          63.750  
  -3318957.050      -61166.329          63.750  
   -369161.782      655479.356          63.750  
  -4319383.172       62335.341          63.750  
    837233.812      636554.819          63.750  
 23  3 12  0  0 58.9179873  0  8G31G 9G26G11G 6G19G 4G17
   -107752.948      838440.613          63.750  
  -3564797.840     -480865.994          63.750  
   -677507.528     -286309.120          63.750  
   -683092.008     -605286.108          63.750  
  -3319091.379      -61872.446          63.750  
   -368588.928      658496.503          63.750  
  -4319326.046       62632.469          63.750  
    837814.102      639601.698          63.750  
 23  3 12  0  0 59.9179870  0  8G31G 9G26G11G 6G19G 4G17
   -107103.546      841857.538          63.750  
  -3565166.646     -482801.765          63.750  
   -677747.104     -287565.146          63.750  
   -683672.773     -608343.488          63.750  
  -3319224.704      -62577.898          63.750  
   -368016.215      661513.936          63.750  
  -4319269.058       62930.093          63.750  
    838395.064      642648.569          63.750  
 23  3 12  0  1  0.9179868  0  8G31G 9G26G11G 6G19G 4G17
   -106451.219      845274.774          63.750  
  -3565536.446     -484737.117          63.750  
   -677990.718     -288820.597          63.750  
   -684255.768     -611400.505          63.750  
  -3319357.521      -63282.679          63.750  
   -367435.324      664531.653          63.750  
  -4319212.991       63228.216          63.750  
    838973.018      645695.438          63.750  
 23  3 12  0  1  1.9179866  0  8G31G 9G26G11G 6G19G 4G17
   -105804.344      848692.301          63.750  
  -3565903.785     -486672.046          63.750  
   -678219.900     -290075.498          63.750  
   -684839.068     -614457.175          63.750  
  -3319493.275      -63986.792          63.750  
   -366864.039      667549.668          63.750  
  -4319155.942       63526.835          63.750  
    839550.773      648742.281          63.750  
 23  3 12  0  1  2.9179864  0  8G31G 9G26G11G 6G19G 4G17
   -105150.677      852110.139          63.750  
  -3566273.040     -488606.555          63.750  
   -678464.046     -291329.807          63.750  
   -685419.423     -617513.481          63.750  
  -3319627.537      -64690.229          63.750  
   -366292.149      670567.982          63.750  
  -4319096.703       63825.943          63.750  
    840131.014      651789.114          63.750  
 23  3 12  0  1  3.9179861  0  8G31G 9G26G11G 6G19G 4G17
   -104501.521      855528.282          63.750  
  -3566640.839     -490540.646          63.750  
   -678693.227     -292583.592          63.750  
   -685998.669     -620569.438          63.750  
  -3319758.347      -65392.996          63.750  
   -365713.414      673586.571          63.750  
  -4319042.762       64125.553          63.750  
    840713.097      654835.938          63.750  
 23  3 12  0  1  4.9179859  0  8G31G 9G26G11G 6G19G 4G17
   -103848.293      858946.731          63.750  
  -3567008.453     -492474.314          63.750  
   -678930.350     -293836.776          63.750  
   -686580.961     -623625.039          63.750  
  -3319895.259      -66095.088          63.750  
   -365141.401      676605.464          63.750  
  -4318984.662       64425.653          63.750  
    841290.040      657882.750          63.750  
 23  3 12  0  1  5.9179857  0  8G31G 9G26G11G 6G19G 4G17
   -103199.260      862365.483          63.750  
  -3567376.566     -494407.562          63.750  
   -679176.579     -295089.373          63.750  
   -687164.436     -626680.281          63.750  
  -3320028.998      -66796.518          63.750  
   -364564.747      679624.642          63.750  
  -4318927.848       64726.251          63.750  
    841872.707      660929.550          63.750  
 23  3 12  0  1  6.9179855  0  8G31G 9G26G11G 6G19G 4G17
   -102550.483      865784.536          63.750  
  -3567744.709     -496340.393          63.750  
   -679427.966     -296341.397          63.750  
   -687744.496     -629735.161          63.750  
  -3320157.472      -67497.272          63.750  
   -363987.838      682644.110          63.750  
  -4318873.921       65027.348          63.750  
    842452.933      663976.337          63.750  
 23  3 12  0  1  7.9179852  0  8G31G 9G26G11G 6G19G 4G17
   -101899.491      869203.898          63.750  
  -3568112.406     -498272.800          63.750  
   -679668.948     -297592.837          63.750  
   -688328.002     -632789.698          63.750  
  -3320294.619      -68197.360          63.750  
   -363413.050      685663.874          63.750  
  -4318813.999       65328.936          63.750  
    843026.907      667023.111          63.750  
 23  3 12  0  1  8.9179850  0  8G31G 9G26G11G 6G19G 4G17
   -101245.946      872623.561          63.750  
  -3568479.843     -500204.790          63.750  
   -679897.911     -298843.741          63.750  
   -688906.422     -635843.873          63.750  
  -3320429.226      -68896.766          63.750  
   -362842.126      688683.925          63.750  
  -4318753.901       65631.018          63.750  
    843620.526      670069.878          63.750  
 23  3 12  0  1  9.9179848  0  8G31G 9G26G11G 6G19G 4G17
   -100595.788      876043.528          63.750  
  -3568847.548     -502136.359          63.750  
   -680129.229     -300094.074          63.750  
   -689489.750     -638897.683          63.750  
  -3320560.846      -69595.504          63.750  
   -362268.460      691704.262          63.750  
  -4318697.354       65933.593          63.750  
    844197.415      673116.624          63.750  
 23  3 12  0  1 10.9179845  0  8G31G 9G26G11G 6G19G 4G17
    -99944.865      879463.799          63.750  
  -3569215.179     -504067.505          63.750  
   -680360.768     -301343.810          63.750  
   -690068.398     -641951.151          63.750  
  -3320689.219      -70293.577          63.750  
   -361694.235      694724.896          63.750  
  -4318640.647       66236.671          63.750  
    844769.531      676163.362          63.750  
 23  3 12  0  1 11.9179843  0  8G31G 9G26G11G 6G19G 4G17
    -99295.100      882884.374          63.750  
  -3569581.974     -505998.234          63.750  
   -680600.583     -302592.990          63.750  
   -690647.590     -645004.255          63.750  
  -3320827.127      -70990.979          63.750  
   -361121.374      697745.812          63.750  
  -4318581.691       66540.239          63.750  
    845348.705      679210.086          63.750  
 23  3 12  0  1 12.9179841  0  8G31G 9G26G11G 6G19G 4G17
    -98643.036      886305.248          63.750  
  -3569949.860     -507928.539          63.750  
   -680835.909     -303841.590          63.750  
   -691231.020     -648057.009          63.750  
  -3320957.106      -71687.708          63.750  
   -360543.841      700767.020          63.750  
  -4318525.845       66844.307          63.750  
    845930.898      682256.799          63.750  
 23  3 12  0  1 13.9179839  0  8G31G 9G26G11G 6G19G 4G17
    -97993.434      889726.430          63.750  
  -3570316.136     -509858.425          63.750  
   -681078.606     -305089.646          63.750  
   -691812.213     -651109.396          63.750  
  -3321090.491      -72383.760          63.750  
   -359970.067      703788.519          63.750  
  -4318465.835       67148.864          63.750  
    846502.033      685303.505          63.750  
 23  3 12  0  1 14.9179836  0  8G31G 9G26G11G 6G19G 4G17
    -97341.681      893147.911          63.750  
  -3570683.763     -511787.894          63.750  
   -681320.986     -306337.090          63.750  
   -692391.086     -654161.438          63.750  
  -3321219.890      -73079.147          63.750  
   -359394.644      706810.312          63.750  
  -4318410.268       67453.919          63.750  
    847092.444      688350.199          63.750  
 23  3 12  0  1 15.9179834  0  8G31G 9G26G11G 6G19G 4G17
    -96693.270      896569.696          63.750  
  -3571051.418     -513716.938          63.750  
   -681564.130     -307583.962          63.750  
   -692971.981     -657213.111          63.750  
  -3321354.123      -73773.857          63.750  
   -358818.444      709832.390          63.750  
  -4318350.331       67759.468          63.750  
    847670.024      691396.858          63.750  
 23  3 12  0  1 16.9179832  0  8G31G 9G26G11G 6G19G 4G17
    -96040.996      899991.785          63.750  
  -3571416.958     -515645.562          63.750  
   -681794.526     -308830.306          63.750  
   -693554.644     -660264.436          63.750  
  -3321493.182      -74467.897          63.750  
   -358246.821      712854.752          63.750  
  -4318287.890       68065.514          63.750  
    848253.091      694443.517          63.750  
 23  3 12  0  1 17.9179830  0  8G31G 9G26G11G 6G19G 4G17
    -95387.626      903414.184          63.750  
  -3571783.010     -517573.770          63.750  
   -682030.689     -310076.039          63.750  
   -694136.376     -663315.406          63.750  
  -3321617.124      -75161.275          63.750  
   -357671.133      715877.412          63.750  
  -4318233.952       68372.057          63.750  
    848828.027      697490.172          63.750  
 23  3 12  0  1 18.9179827  0  8G31G 9G26G11G 6G19G 4G17
    -94739.358      906836.875          63.750  
  -3572150.864     -519501.552          63.750  
   -682274.423     -311321.183          63.750  
   -694714.606     -666366.004          63.750  
  -3321760.321      -75853.969          63.750  
   -357098.283      718900.357          63.750  
  -4318172.110       68679.089          63.750  
    849411.328      700536.808          63.750  
 23  3 12  0  1 19.9179825  0  8G31G 9G26G11G 6G19G 4G17
    -94087.767      910259.874          63.750  
  -3572519.422     -521428.916          63.750  
   -682500.535     -312565.810          63.750  
   -695299.471     -669416.265          63.750  
  -3321878.865      -76546.006          63.750  
   -356518.109      721923.594          63.750  
  -4318118.802       68986.623          63.750  
    849985.605      703583.431          63.750  
 23  3 12  0  1 20.9179823  0  8G31G 9G26G11G 6G19G 4G17
    -93434.777      913683.172          63.750  
  -3572884.688     -523355.856          63.750  
   -682744.563     -313809.818          63.750  
   -695872.784     -672466.160          63.750  
  -3322009.204      -77237.355          63.750  
   -355940.990      724947.111          63.750  
  -4318062.847       69294.646          63.750  
    850564.236      706630.025          63.750  
 23  3 12  0  1 21.9179820  0  8G31G 9G26G11G 6G19G 4G17
    -92781.001      917106.778          63.750  
  -3573251.931     -525282.378          63.750  
   -682977.844     -315053.275          63.750  
   -696458.837     -675515.697          63.750  
  -3322142.045      -77928.040          63.750  
   -355363.522      727970.929          63.750  
  -4318000.772       69603.164          63.750  
    851144.893      709676.618          63.750  
 23  3 12  0  1 22.9179818  0  8G31G 9G26G11G 6G19G 4G17
    -92133.178      920530.686          63.750  
  -3573618.375     -527208.479          63.750  
   -683212.528     -316296.137          63.750  
   -697034.183     -678564.873          63.750  
  -3322273.178      -78618.062          63.750  
   -354791.367      730995.031          63.750  
  -4317944.205       69912.183          63.750  
    851727.695      712723.206          63.750  
 23  3 12  0  1 23.9179816  0  8G31G 9G26G11G 6G19G 4G17
    -91478.202      923954.890          63.750  
  -3573985.270     -529134.162          63.750  
   -683438.417     -317538.465          63.750  
   -697615.229     -681613.694          63.750  
  -3322412.514      -79307.394          63.750  
   -354217.489      734019.425          63.750  
  -4317881.109       70221.688          63.750  
    852309.814      715769.766          63.750  
 23  3 12  0  1 24.9179814  0  8G31G 9G26G11G 6G19G 4G17
    -90829.726      927379.403          63.750  
  -3574352.004     -531059.422          63.750  
   -683700.331     -318780.166          63.750  
   -698196.545     -684662.160          63.750  
  -3322538.028      -79996.062          63.750  
   -353639.235      737044.098          63.750  
  -4317823.930       70531.691          63.750  
    852888.153      718816.315          63.750  
 23  3 12  0  1 25.9179811  0  8G31G 9G26G11G 6G19G 4G17
    -90177.719      930804.215          63.750  
  -3574717.628     -532984.260          63.750  
   -683917.431     -320021.350          63.750  
   -698777.891     -687710.268          63.750  
  -3322666.675      -80684.063          63.750  
   -353066.321      740069.067          63.750  
  -4317766.535       70842.190          63.750  
    853466.770      721862.853          63.750  
 23  3 12  0  1 26.9179809  0  8G31G 9G26G11G 6G19G 4G17
    -89522.856      934229.323          63.750  
  -3575082.580     -534908.680          63.750  
   -684164.261     -321261.912          63.750  
   -699356.452     -690758.017          63.750  
  -3322801.104      -81371.393          63.750  
   -352490.865      743094.318          63.750  
  -4317704.089       71153.188          63.750  
    854048.014      724909.371          63.750  
 23  3 12  0  1 27.9179807  0  8G31G 9G26G11G 6G19G 4G17
    -88872.422      937654.739          63.750  
  -3575449.315     -536832.677          63.750  
   -684392.825     -322501.940          63.750  
   -699933.986     -693805.407          63.750  
  -3322931.474      -82058.047          63.750  
   -351912.617      746119.863          63.750  
  -4317645.689       71464.677          63.750  
    854622.248      727955.877          63.750  
 23  3 12  0  1 28.9179805  0  8G31G 9G26G11G 6G19G 4G17
    -88220.522      941080.457          63.750  
  -3575817.407     -538756.253          63.750  
   -684635.234     -323741.359          63.750  
   -700517.628     -696852.435          63.750  
  -3323060.159      -82744.031          63.750  
   -351338.531      749145.694          63.750  
  -4317586.483       71776.661          63.750  
    855203.720      731002.374          63.750  
 23  3 12  0  1 29.9179802  0  8G31G 9G26G11G 6G19G 4G17
    -87568.067      944506.476          63.750  
  -3576181.838     -540679.408          63.750  
   -684864.313     -324980.245          63.750  
   -701094.329     -699899.111          63.750  
  -3323193.871      -83429.342          63.750  
   -350765.559      752171.806          63.750  
  -4317524.097       72089.139          63.750  
    855785.722      734048.852          63.750  
 23  3 12  0  1 30.9179800  0  8G31G 9G26G11G 6G19G 4G17
    -86917.342      947932.798          63.750  
  -3576546.764     -542602.144          63.750  
   -685104.295     -326218.535          63.750  
   -701675.797     -702945.426          63.750  
  -3323317.455      -84113.969          63.750  
   -350182.415      755198.218          63.750  
  -4317470.000       72402.107          63.750  
    856366.490      737095.312          63.750  
 23  3 12  0  1 31.9179798  0  8G31G 9G26G11G 6G19G 4G17
    -86264.019      951359.423          63.750  
  -3576913.117     -544524.457          63.750  
   -685339.328     -327456.254          63.750  
   -702255.323     -705991.383          63.750  
  -3323454.695      -84797.952          63.750  
   -349612.059      758224.907          63.750  
  -4317405.460       72715.583          63.750  
    856943.688      740141.760          63.750  
 23  3 12  0  1 32.9179795  0  8G31G 9G26G11G 6G19G 4G17
    -85612.568      954786.342          63.750  
  -3577278.407     -546446.350          63.750  
   -685574.520     -328693.395          63.750  
   -702833.619     -709036.986          63.750  
  -3323583.540      -85481.238          63.750  
   -349032.788      761251.896          63.750  
  -4317346.948       73029.540          63.750  
    857523.433      743188.198          63.750  
 23  3 12  0  1 33.9179793  0  8G31G 9G26G11G 6G19G 4G17
    -84958.020      958213.566          63.750  
  -3577644.341     -548367.819          63.750  
   -685813.582     -329929.952          63.750  
   -703412.925     -712082.224          63.750  
  -3323714.269      -86163.862          63.750  
   -348457.094      764279.153          63.750  
  -4317287.305       73343.995          63.750  
    858103.299      746234.614          63.750  
 23  3 12  0  1 34.9179791  0  8G31G 9G26G11G 6G19G 4G17
    -84309.449      961641.091          63.750  
  -3578010.725     -550288.870          63.750  
   -686046.854     -331165.956          63.750  
   -703995.751     -715127.106          63.750  
  -3323841.722      -86845.805          63.750  
   -347881.573      767306.704          63.750  
  -4317228.129       73658.941          63.750  
    858680.608      749281.016          63.750  
 23  3 12  0  1 35.9179789  0  8G31G 9G26G11G 6G19G 4G17
    -83654.589      965068.919          63.750  
  -3578376.046     -552209.504          63.750  
   -686277.622     -332401.388          63.750  
   -704575.611     -718171.631          63.750  
  -3323972.987      -87527.092          63.750  
   -347302.126      770334.555          63.750  
  -4317169.386       73974.393          63.750  
    859264.587      752327.409          63.750  
 23  3 12  0  1 36.9179786  0  8G31G 9G26G11G 6G19G 4G17
    -83003.800      968497.042          63.750  
  -3578741.704     -554129.712          63.750  
   -686508.383     -333636.222          63.750  
   -705153.052     -721215.800          63.750  
  -3324106.413      -88207.701          63.750  
   -346731.277      773362.684          63.750  
  -4317104.242       74290.334          63.750  
    859847.830      755373.773          63.750  
 23  3 12  0  1 37.9179784  0  8G31G 9G26G11G 6G19G 4G17
    -82352.688      971925.472          63.750  
  -3579106.500     -556049.500          63.750  
   -686748.365     -334870.497          63.750  
   -705731.319     -724259.597          63.750  
  -3324231.696      -88887.638          63.750  
   -346152.077      776391.098          63.750  
  -4317044.271       74606.771          63.750  
    860421.562      758420.137          63.750  
 23  3 12  0  1 38.9179782  0  8G31G 9G26G11G 6G19G 4G17
    -81696.077      975354.204          63.750  
  -3579472.225     -557968.866          63.750  
   -686991.642     -336104.201          63.750  
   -706312.081     -727303.043          63.750  
  -3324353.785      -89566.896          63.750  
   -345574.375      779419.794          63.750  
  -4316990.508       74923.697          63.750  
    861003.511      761466.481          63.750  
 23  3 12  0  1 39.9179780  0  8G31G 9G26G11G 6G19G 4G17
    -81048.517      978783.231          63.750  
  -3579838.097     -559887.812          63.750  
   -687214.347     -337337.341          63.750  
   -706892.302     -730346.132          63.750  
  -3324490.391      -90245.485          63.750  
   -345000.718      782448.776          63.750  
  -4316925.249       75241.121          63.750  
    861586.629      764512.811          63.750  
 23  3 12  0  1 40.9179777  0  8G31G 9G26G11G 6G19G 4G17
    -80395.894      982212.562          63.750  
  -3580201.146     -561806.334          63.750  
   -687457.018     -338569.871          63.750  
   -707468.910     -733388.862          63.750  
  -3324619.075      -90923.405          63.750  
   -344420.163      785478.059          63.750  
  -4316863.842       75559.039          63.750  
    862167.164      767559.121          63.750  
 23  3 12  0  1 41.9179775  0  8G31G 9G26G11G 6G19G 4G17
    -79739.884      985642.188          63.750  
  -3580565.779     -563724.438          63.750  
   -687683.341     -339801.857          63.750  
   -708047.017     -736431.233          63.750  
  -3324746.234      -91600.644          63.750  
   -343853.215      788507.619          63.750  
  -4316805.410       75877.451          63.750  
    862741.940      770605.413          63.750  
 23  3 12  0  1 42.9179773  0  8G31G 9G26G11G 6G19G 4G17
    -79087.514      989072.114          63.750  
  -3580931.037     -565642.115          63.750  
   -687910.306     -341033.276          63.750  
   -708622.900     -739473.238          63.750  
  -3324876.283      -92277.224          63.750  
   -343269.597      791537.458          63.750  
  -4316745.450       76196.360          63.750  
    863317.032      773651.702          63.750  
 23  3 12  0  1 43.9179770  0  8G31G 9G26G11G 6G19G 4G17
    -78436.038      992502.352          63.750  
  -3581296.550     -567559.381          63.750  
   -688150.546     -342264.082          63.750  
   -709206.157     -742514.893          63.750  
  -3325006.028      -92953.121          63.750  
   -342694.859      794567.593          63.750  
  -4316684.029       76515.761          63.750  
    863899.492      776697.956          63.750  
 23  3 12  0  1 44.9179768  0  8G31G 9G26G11G 6G19G 4G17
    -77785.095      995932.879          63.750  
  -3581662.341     -569476.220          63.750  
   -688383.586     -343494.353          63.750  
   -709778.681     -745556.183          63.750  
  -3325134.332      -93628.356          63.750  
   -342115.232      797598.015          63.750  
  -4316621.434       76835.656          63.750  
    864478.886      779744.211          63.750  
 23  3 12  0  1 45.9179766  0  8G31G 9G26G11G 6G19G 4G17
    -77126.748      999363.708          63.750  
  -3582027.210     -571392.634          63.750  
   -688618.785     -344724.025          63.750  
   -710363.208     -748597.113          63.750  
  -3325258.811      -94302.904          63.750  
   -341539.032      800628.713          63.750  
  -4316565.016       77156.042          63.750  
    865061.518      782790.430          63.750  
 23  3 12  0  1 46.9179764  0  8G31G 9G26G11G 6G19G 4G17
    -76476.630     1002794.839          63.750  
  -3582391.174     -573308.630          63.750  
   -688855.906     -345953.135          63.750  
   -710941.262     -751637.681          63.750  
  -3325386.750      -94976.790          63.750  
   -340961.139      803659.700          63.750  
  -4316502.379       77476.928          63.750  
    865637.788      785836.648          63.750  
 23  3 12  0  1 47.9179761  0  8G31G 9G26G11G 6G19G 4G17
    -75824.784     1006226.268          63.750  
  -3582755.481     -575224.207          63.750  
   -689085.239     -347181.669          63.750  
   -711518.555     -754677.888          63.750  
  -3325518.539      -95650.006          63.750  
   -340380.796      806690.982          63.750  
  -4316439.162       77798.309          63.750  
    866221.204      788882.852          63.750  
 23  3 12  0  1 48.9179759  0  8G31G 9G26G11G 6G19G 4G17
    -75171.670     1009657.996          63.750  
  -3583119.833     -577139.360          63.750  
   -689327.807     -348409.624          63.750  
   -712098.289     -757717.745          63.750  
  -3325643.552      -96322.536          63.750  
   -339815.890      809722.539          63.750  
  -4316380.935       78120.178          63.750  
    866800.763      791929.039          63.750  
 23  3 12  0  1 49.9179757  0  8G31G 9G26G11G 6G19G 4G17
    -74517.623     1013090.026          63.750  
  -3583483.658     -579054.094          63.750  
   -689560.912     -349636.993          63.750  
   -712675.911     -760757.233          63.750  
  -3325776.316      -96994.407          63.750  
   -339231.337      812754.388          63.750  
  -4316315.586       78442.549          63.750  
    867379.898      794975.203          63.750  
 23  3 12  0  1 50.9179755  0  8G31G 9G26G11G 6G19G 4G17
    -73861.503     1016522.353          63.750  
  -3583848.415     -580968.402          63.750  
   -689783.661     -350863.816          63.750  
   -713253.950     -763796.365          63.750  
  -3325903.511      -97665.607          63.750  
   -338657.897      815786.508          63.750  
  -4316254.584       78765.409          63.750  
    867952.843      798021.353          63.750  
 23  3 12  0  1 51.9179752  0  8G31G 9G26G11G 6G19G 4G17
    -73209.299     1019954.981          63.750  
  -3584212.213     -582882.292          63.750  
   -690023.142     -352090.039          63.750  
   -713832.431     -766835.132          63.750  
  -3326032.755      -98336.126          63.750  
   -338077.050      818818.925          63.750  
  -4316192.733       79088.767          63.750  
    868537.794      801067.479          63.750  
 23  3 12  0  1 52.9179750  0  8G31G 9G26G11G 6G19G 4G17
    -72558.256     1023387.900          63.750  
  -3584575.343     -584795.760          63.750  
   -690262.068     -353315.698          63.750  
   -714412.468     -769873.541          63.750  
  -3326160.911      -99005.972          63.750  
   -337504.167      821851.631          63.750  
  -4316133.055       79412.613          63.750  
    869116.818      804113.597          63.750  
 23  3 12  0  1 53.9179748  0  8G31G 9G26G11G 6G19G 4G17
    -71903.434     1026821.130          63.750  
  -3584941.187     -586708.807          63.750  
   -690492.537     -354540.769          63.750  
   -714991.972     -772911.589          63.750  
  -3326283.650      -99675.136          63.750  
   -336925.360      824884.613          63.750  
  -4316072.456       79736.949          63.750  
    869699.082      807159.693          63.750  
 23  3 12  0  1 54.9179745  0  8G31G 9G26G11G 6G19G 4G17
    -71249.981     1030254.654          63.750  
  -3585303.982     -588621.431          63.750  
   -690722.153     -355765.289          63.750  
   -715566.799     -775949.277          63.750  
  -3326411.334     -100343.652          63.750  
   -336347.799      827917.886          63.750  
  -4316008.067       80061.795          63.750  
    870278.554      810205.771          63.750  
 23  3 12  0  1 55.9179743  0  8G31G 9G26G11G 6G19G 4G17
    -70599.257     1033688.481          63.750  
  -3585668.867     -590533.632          63.750  
   -690954.953     -356989.212          63.750  
   -716147.499     -778986.611          63.750  
  -3326538.304     -101011.485          63.750  
   -335769.671      830951.442          63.750  
  -4315947.975       80387.126          63.750  
    870858.398      813251.840          63.750  
 23  3 12  0  1 56.9179741  0  8G31G 9G26G11G 6G19G 4G17
    -69944.771     1037122.600          63.750  
  -3586033.288     -592445.412          63.750  
   -691190.081     -358212.568          63.750  
   -716724.172     -782023.574          63.750  
  -3326662.625     -101678.638          63.750  
   -335196.916      833985.278          63.750  
  -4315886.924       80712.949          63.750  
    871439.146      816297.886          63.750  
 23  3 12  0  1 57.9179739  0  8G31G 9G26G11G 6G19G 4G17
    -69289.090     1040557.022          63.750  
  -3586394.964     -594356.773          63.750  
   -691422.663     -359435.345          63.750  
   -717302.214     -785060.179          63.750  
  -3326790.726     -102345.116          63.750  
   -334619.315      837019.398          63.750  
  -4315822.794       81039.267          63.750  
    872020.118      819343.908          63.750  
 23  3 12  0  1 58.9179736  0  8G31G 9G26G11G 6G19G 4G17
    -68637.641     1043991.741          63.750  
  -3586760.477     -596267.711          63.750  
   -691657.898     -360657.543          63.750  
   -717879.703     -788096.421          63.750  
  -3326920.396     -103010.931          63.750  
   -334039.604      840053.799          63.750  
  -4315760.757       81366.078          63.750  
    872597.250      822389.925          63.750  
 23  3 12  0  1 59.9179734  0  8G31G 9G26G11G 6G19G 4G17
    -67983.715     1047426.756          63.750  
  -3587122.372     -598178.227          63.750  
   -691889.109     -361879.187          63.750  
   -718456.581     -791132.315          63.750  
  -3327046.241     -103676.067          63.750  
   -333461.485      843088.488          63.750  
  -4315698.375       81693.386          63.750  
    873172.117      825435.917          63.750  
 23  3 12  0  2  0.9179732  0  8G31G 9G26G11G 6G19G 4G17
    -67328.135     1050862.070          63.750  
  -3587486.421     -600088.320          63.750  
   -692113.160     -363100.242          63.750  
   -719035.532     -794167.835          63.750  
  -3327172.596     -104340.533          63.750  
   -332885.066      846123.461          63.750  
  -4315636.295       82021.186          63.750  
    873753.984      828481.891          63.750  
 23  3 12  0  2  1.9179730  0  8G31G 9G26G11G 6G19G 4G17
    -66677.671     1054297.686          63.750  
  -3587848.998     -601997.993          63.750  
   -692355.417     -364320.708          63.750  
   -719615.312     -797202.996          63.750  
  -3327299.221     -105004.323          63.750  
   -332305.218      849158.718          63.750  
  -4315573.207       82349.479          63.750  
    874334.543      831527.847          63.750  
 23  3 12  0  2  2.9179727  0  8G31G 9G26G11G 6G19G 4G17
    -66022.235     1057733.601          63.750  
  -3588213.599     -603907.246          63.750  
   -692586.122     -365540.608          63.750  
   -720188.885     -800237.802          63.750  
  -3327423.865     -105667.447          63.750  
   -331725.691      852194.265          63.750  
  -4315510.748       82678.271          63.750  
    874912.861      834573.788          63.750  
 23  3 12  0  2  3.9179725  0  8G31G 9G26G11G 6G19G 4G17
    -65368.980     1061169.806          63.750  
  -3588577.859     -605816.073          63.750  
   -692818.041     -366759.933          63.750  
   -720767.633     -803272.238          63.750  
  -3327552.015     -106329.895          63.750  
   -331149.794      855230.080          63.750  
  -4315449.098       83007.551          63.750  
    875492.472      837619.711          63.750  
 23  3 12  0  2  4.9179723  0  8G31G 9G26G11G 6G19G 4G17
    -64712.566     1064606.317          63.750  
  -3588939.337     -607724.482          63.750  
   -693050.321     -367978.696          63.750  
   -721342.845     -806306.314          63.750  
  -3327676.729     -106991.666          63.750  
   -330573.620      858266.192          63.750  
  -4315386.388       83337.328          63.750  
    876071.429      840665.607          63.750  
 23  3 12  0  2  5.9179720  0  8G31G 9G26G11G 6G19G 4G17
    -64061.733     1068043.125          63.750  
  -3589303.376     -609632.469          63.750  
   -693280.755     -369196.856          63.750  
   -721926.128     -809340.029          63.750  
  -3327802.014     -107652.765          63.750  
   -329992.775      861302.580          63.750  
  -4315324.163       83667.599          63.750  
    876653.542      843711.500          63.750  
 23  3 12  0  2  6.9179718  0  8G31G 9G26G11G 6G19G 4G17
    -63408.059     1071480.223          63.750  
  -3589665.135     -611540.028          63.750  
   -693519.966     -370414.462          63.750  
   -722496.216     -812373.383          63.750  
  -3327927.180     -108313.194          63.750  
   -329418.488      864339.261          63.750  
  -4315260.210       83998.362          63.750  
    877235.174      846757.365          63.750  
 23  3 12  0  2  7.9179716  0  8G31G 9G26G11G 6G19G 4G17
    -62747.438     1074917.628          63.750  
  -3590028.608     -613447.170          63.750  
   -693748.971     -371631.487          63.750  
   -723074.146     -815406.370          63.750  
  -3328053.049     -108972.946          63.750  
   -328839.494      867376.212          63.750  
  -4315198.475       84329.620          63.750  
    877811.418      849803.212          63.750  
 23  3 12  0  2  8.9179714  0  8G31G 9G26G11G 6G19G 4G17
    -62097.305     1078355.326          63.750  
  -3590392.925     -615353.889          63.750  
   -693970.791     -372847.940          63.750  
   -723651.463     -818439.007          63.750  
  -3328176.029     -109632.028          63.750  
   -328259.991      870413.456          63.750  
  -4315136.439       84661.369          63.750  
    878397.857      852849.041          63.750  
 23  3 12  0  2  9.9179711  0  8G31G 9G26G11G 6G19G 4G17
    -61444.535     1081793.319          63.750  
  -3590755.523     -617260.186          63.750  
   -694205.188     -374063.807          63.750  
   -724234.143     -821471.271          63.750  
  -3328302.769     -110290.436          63.750  
   -327683.141      873450.968          63.750  
  -4315070.913       84993.615          63.750  
    878974.381      855894.854          63.750  
 23  3 12  0  2 10.9179709  0  8G31G 9G26G11G 6G19G 4G17
    -60795.701     1085231.616          63.750  
  -3591115.699     -619166.062          63.750  
   -694439.771     -375279.098          63.750  
   -724807.329     -824503.176          63.750  
  -3328429.338     -110948.164          63.750  
   -327107.463      876488.781          63.750  
  -4315005.759       85326.350          63.750  
    879548.292      858940.657          63.750  
 23  3 12  0  2 11.9179707  0  8G31G 9G26G11G 6G19G 4G17
    -60137.279     1088670.201          63.750  
  -3591479.483     -621071.517          63.750  
   -694674.914     -376493.810          63.750  
   -725380.047     -827534.722          63.750  
  -3328553.238     -111605.229          63.750  
   -326525.355      879526.861          63.750  
  -4314945.612       85659.584          63.750  
    880124.425      861986.426          63.750  
 23  3 12  0  2 12.9179705  0  8G31G 9G26G11G 6G19G 4G17
    -59480.706     1092109.085          63.750  
  -3591842.945     -622976.546          63.750  
   -694902.000     -377707.957          63.750  
   -725963.873     -830565.899          63.750  
  -3328677.330     -112261.616          63.750  
   -325945.580      882565.241          63.750  
  -4314881.268       85993.309          63.750  
    880712.154      865032.181          63.750  
 23  3 12  0  2 13.9179702  0  8G31G 9G26G11G 6G19G 4G17
    -58824.194     1095548.277          63.750  
  -3592203.853     -624881.156          63.750  
   -695131.034     -378921.523          63.750  
   -726539.576     -833596.720          63.750  
  -3328804.379     -112917.330          63.750  
   -325366.155      885603.889          63.750  
  -4314816.557       86327.528          63.750  
    881293.437      868077.915          63.750  
 23  3 12  0  2 14.9179700  0  8G31G 9G26G11G 6G19G 4G17
    -58169.641     1098987.754          63.750  
  -3592566.972     -626785.341          63.750  
   -695362.061     -380134.501          63.750  
   -727115.693     -836627.172          63.750  
  -3328927.731     -113572.369          63.750  
   -324792.916      888642.821          63.750  
  -4314753.227       86662.238          63.750  
    881867.940      871123.639          63.750  
 23  3 12  0  2 15.9179698  0  8G31G 9G26G11G 6G19G 4G17
    -57516.641     1102427.531          63.750  
  -3592928.549     -628689.106          63.750  
   -695593.976     -381346.915          63.750  
   -727687.083     -839657.270          63.750  
  -3329054.442     -114226.737          63.750  
   -324209.358      891682.038          63.750  
  -4314687.880       86997.444          63.750  
    882453.363      874169.321          63.750  
 23  3 12  0  2 16.9179695  0  8G31G 9G26G11G 6G19G 4G17
    -56862.092     1105867.607          63.750  
  -3593290.988     -630592.447          63.750  
   -695825.420     -382558.756          63.750  
   -728269.516     -842686.993          63.750  
  -3329175.404     -114880.429          63.750  
   -323631.782      894721.533          63.750  
  -4314625.209       87333.142          63.750  
    883031.470      877215.004          63.750  
 23  3 12  0  2 17.9179693  0  8G31G 9G26G11G 6G19G 4G17
    -56207.618     1109307.980          63.750  
  -3593653.425     -632495.369          63.750  
   -696058.531     -383770.013          63.750  
   -728845.994     -845716.367          63.750  
  -3329302.400     -115533.444          63.750  
   -323057.594      897761.311          63.750  
  -4314561.553       87669.333          63.750  
    883612.575      880260.659          63.750  
 23  3 12  0  2 18.9179691  0  8G31G 9G26G11G 6G19G 4G17
    -55553.093     1112748.645          63.750  
  -3594015.507     -634397.867          63.750  
   -696284.812     -384980.703          63.750  
   -729417.861     -848745.369          63.750  
  -3329424.430     -116185.793          63.750  
   -322480.027      900801.375          63.750  
  -4314498.546       88006.020          63.750  
    884187.951      883306.297          63.750  
 23  3 12  0  2 19.9179689  0  8G31G 9G26G11G 6G19G 4G17
    -54899.250     1116189.606          63.750  
  -3594377.259     -636299.943          63.750  
   -696515.972     -386190.802          63.750  
   -729997.274     -851774.015          63.750  
  -3329549.711     -116837.466          63.750  
   -321900.424      903841.715          63.750  
  -4314433.636       88343.199          63.750  
    884766.287      886351.921          63.750  
 23  3 12  0  2 20.9179686  0  8G31G 9G26G11G 6G19G 4G17
    -54244.087     1119630.872          63.750  
  -3594738.633     -638201.598          63.750  
   -696747.022     -387400.325          63.750  
   -730573.628     -854802.291          63.750  
  -3329671.850     -117488.468          63.750  
   -321320.324      906882.342          63.750  
  -4314370.016       88680.873          63.750  
    885342.421      889397.521          63.750  
 23  3 12  0  2 21.9179684  0  8G31G 9G26G11G 6G19G 4G17
    -53590.832     1123072.422          63.750  
  -3595100.825     -640102.827          63.750  
   -696977.049     -388609.278          63.750  
   -731147.665     -857830.203          63.750  
  -3329797.243     -118138.795          63.750  
   -320742.678      909923.245          63.750  
  -4314305.734       89019.038          63.750  
    885924.830      892443.101          63.750  
 23  3 12  0  2 22.9179682  0  8G31G 9G26G11G 6G19G 4G17
    -52933.225     1126514.272          63.750  
  -3595463.321     -642003.638          63.750  
   -697206.203     -389817.654          63.750  
   -731724.818     -860857.758          63.750  
  -3329920.223     -118788.443          63.750  
   -320161.083      912964.423          63.750  
  -4314240.830       89357.697          63.750  
    886508.503      895488.661          63.750  
 23  3 12  0  2 23.9179680  0  8G31G 9G26G11G 6G19G 4G17
    -52278.030     1129956.422          63.750  
  -3595824.023     -643904.021          63.750  
   -697432.063     -391025.450          63.750  
   -732303.648     -863884.949          63.750  
  -3330045.087     -119437.423          63.750  
   -319587.082      916005.894          63.750  
  -4314176.438       89696.851          63.750  
    887088.633      898534.198          63.750  
 23  3 12  0  2 24.9179677  0  8G31G 9G26G11G 6G19G 4G17
    -51622.194     1133398.864          63.750  
  -3596186.527     -645803.987          63.750  
   -697664.931     -392232.666          63.750  
   -732876.831     -866911.772          63.750  
  -3330169.743     -120085.729          63.750  
   -319001.943      919047.642          63.750  
  -4314110.084       90036.498          63.750  
    887667.881      901579.725          63.750  
 23  3 12  0  2 25.9179675  0  8G31G 9G26G11G 6G19G 4G17
    -50971.255     1136841.603          63.750  
  -3596547.135     -647703.528          63.750  
   -697895.172     -393439.310          63.750  
   -733452.124     -869938.233          63.750  
  -3330291.797     -120733.361          63.750  
   -318428.123      922089.670          63.750  
  -4314046.359       90376.636          63.750  
    888247.653      904625.217          63.750  
 23  3 12  0  2 26.9179673  0  8G31G 9G26G11G 6G19G 4G17
    -50313.729     1140284.642          63.750  
  -3596908.345     -649602.646          63.750  
   -698123.941     -394645.378          63.750  
   -734030.394     -872964.327          63.750  
  -3330414.196     -121380.307          63.750  
   -317846.105      925131.978          63.750  
  -4313981.069       90717.265          63.750  
    888819.781      907670.696          63.750  
 23  3 12  0  2 27.9179670  0  8G31G 9G26G11G 6G19G 4G17
    -49657.088     1143727.968          63.750  
  -3597271.071     -651501.345          63.750  
   -698352.836     -395850.859          63.750  
   -734604.645     -875990.062          63.750  
  -3330535.422     -122026.596          63.750  
   -317271.326      928174.564          63.750  
  -4313916.340       91058.392          63.750  
    889401.214      910716.151          63.750  
 23  3 12  0  2 28.9179668  0  8G31G 9G26G11G 6G19G 4G17
    -49004.113     1147171.594          63.750  
  -3597631.438     -653399.617          63.750  
   -698583.942     -397055.774          63.750  
   -735182.604     -879015.430          63.750  
  -3330661.944     -122672.206          63.750  
   -316690.017      931217.435          63.750  
  -4313851.155       91400.011          63.750  
    889982.345      913761.589          63.750  
 23  3 12  0  2 29.9179666  0  8G31G 9G26G11G 6G19G 4G17
    -48343.479     1150615.515          63.750  
  -3597991.775     -655297.469          63.750  
   -698811.740     -398260.104          63.750  
   -735756.497     -882040.438          63.750  
  -3330784.056     -123317.141          63.750  
   -316111.865      934260.586          63.750  
  -4313785.907       91742.121          63.750  
    890564.544      916807.009          63.750  
 23  3 12  0  2 30.9179664  0  8G31G 9G26G11G 6G19G 4G17
    -47688.144     1154059.725          63.750  
  -3598353.800     -657194.896          63.750  
   -699040.142     -399463.855          63.750  
   -736332.904     -885065.077          63.750  
  -3330904.689     -123961.397          63.750  
   -315533.798      937304.012          63.750  
  -4313722.022       92084.727          63.750  
    891141.575      919852.397          63.750  
 23  3 12  0  2 31.9179661  0  8G31G 9G26G11G 6G19G 4G17
    -47036.582     1157504.240          63.750  
  -3598714.845     -659091.902          63.750  
   -699270.353     -400667.035          63.750  
   -736907.467     -888089.360          63.750  
  -3331028.292     -124604.984          63.750  
   -314954.128      940347.717          63.750  
  -4313654.886       92427.823          63.750  
    891719.640      922897.781          63.750  
 23  3 12  0  2 32.9179659  0  8G31G 9G26G11G 6G19G 4G17
    -46380.908     1160949.049          63.750  
  -3599074.932     -660988.485          63.750  
   -699497.933     -401869.631          63.750  
   -737484.209     -891113.267          63.750  
  -3331151.686     -125247.896          63.750  
   -314372.936      943391.716          63.750  
  -4313590.226       92771.412          63.750  
    892303.131      925943.129          63.750  
 23  3 12  0  2 33.9179657  0  8G31G 9G26G11G 6G19G 4G17
    -45721.748     1164394.148          63.750  
  -3599436.711     -662884.646          63.750  
   -699729.884     -403071.652          63.750  
   -738056.856     -894136.817          63.750  
  -3331273.093     -125890.142          63.750  
   -313795.007      946435.979          63.750  
  -4313524.321       93115.499          63.750  
    892880.450      928988.464          63.750  
 23  3 12  0  2 34.9179655  0  8G31G 9G26G11G 6G19G 4G17
    -45069.244     1167839.541          63.750  
  -3599797.655     -664780.386          63.750  
   -699956.961     -404273.094          63.750  
   -738633.449     -897159.999          63.750  
  -3331393.971     -126531.698          63.750  
   -313215.627      949480.527          63.750  
  -4313460.720       93460.070          63.750  
    893459.160      932033.772          63.750  
 23  3 12  0  2 35.9179652  0  8G31G 9G26G11G 6G19G 4G17
    -44415.427     1171285.229          63.750  
  -3600156.896     -666675.700          63.750  
   -700185.615     -405473.958          63.750  
   -739207.992     -900182.819          63.750  
  -3331515.835     -127172.590          63.750  
   -312637.447      952525.357          63.750  
  -4313394.458       93805.142          63.750  
    894040.417      935079.056          63.750  
 23  3 12  0  2 36.9179650  0  8G31G 9G26G11G 6G19G 4G17
    -43756.303     1174731.215          63.750  
  -3600517.107     -668570.596          63.750  
   -700415.804     -406674.248          63.750  
   -739781.481     -903205.278          63.750  
  -3331638.109     -127812.807          63.750  
   -312058.043      955570.462          63.750  
  -4313327.828       94150.704          63.750  
    894616.963      938124.330          63.750  
 23  3 12  0  2 37.9179648  0  8G31G 9G26G11G 6G19G 4G17
    -43101.051     1178177.494          63.750  
  -3600879.130     -670465.065          63.750  
   -700644.688     -407873.959          63.750  
   -740361.982     -906227.363          63.750  
  -3331760.063     -128452.350          63.750  
   -311478.883      958615.850          63.750  
  -4313262.326       94496.759          63.750  
    895199.286      941169.590          63.750  
 23  3 12  0  2 38.9179645  0  8G31G 9G26G11G 6G19G 4G17
    -42447.774     1181624.066          63.750  
  -3601238.739     -672359.110          63.750  
   -700867.959     -409073.087          63.750  
   -740933.547     -909249.087          63.750  
  -3331882.138     -129091.219          63.750  
   -310893.997      961661.512          63.750  
  -4313196.586       94843.309          63.750  
    895776.824      944214.800          63.750  
 23  3 12  0  2 39.9179643  0  8G31G 9G26G11G 6G19G 4G17
    -41786.753     1185070.934          63.750  
  -3601600.510     -674252.735          63.750  
   -701096.221     -410271.640          63.750  
   -741511.610     -912270.450          63.750  
  -3332004.897     -129729.411          63.750  
   -310311.928      964707.454          63.750  
  -4313131.586       95190.349          63.750  
    896355.777      947260.011          63.750  
 23  3 12  0  2 40.9179641  0  8G31G 9G26G11G 6G19G 4G17
    -41132.578     1188518.094          63.750  
  -3601960.124     -676145.938          63.750  
   -701325.559     -411469.612          63.750  
   -742083.007     -915291.446          63.750  
  -3332123.162     -130366.928          63.750  
   -309738.935      967753.677          63.750  
  -4313064.460       95537.879          63.750  
    896940.633      950305.196          63.750  
 23  3 12  0  2 41.9179639  0  8G31G 9G26G11G 6G19G 4G17
    -40477.156     1191965.552          63.750  
  -3602320.159     -678038.716          63.750  
   -701550.876     -412667.012          63.750  
   -742656.046     -918312.074          63.750  
  -3332248.036     -131003.770          63.750  
   -309160.088      970800.178          63.750  
  -4312997.945       95885.906          63.750  
    897514.829      953350.355          63.750  
 23  3 12  0  2 42.9179636  0  8G31G 9G26G11G 6G19G 4G17
    -39824.452     1195413.297          63.750  
  -3602679.465     -679931.070          63.750  
   -701781.557     -413863.825          63.750  
   -743233.458     -921332.335          63.750  
  -3332366.776     -131639.944          63.750  
   -308581.825      973846.958          63.750  
  -4312932.145       96234.428          63.750  
    898094.296      956395.489          63.750  
 23  3 12  0  2 43.9179634  0  8G31G 9G26G11G 6G19G 4G17
    -39168.164     1198861.341          63.750  
  -3603040.734     -681823.004          63.750  
   -702012.413     -415060.066          63.750  
   -743808.687     -924352.233          63.750  
  -3332488.558     -132275.440          63.750  
   -307996.763      976894.021          63.750  
  -4312865.711       96583.438          63.750  
    898675.275      959440.595          63.750  
 23  3 12  0  2 44.9179632  0  8G31G 9G26G11G 6G19G 4G17
    -38509.619     1202309.685          63.750  
  -3603400.143     -683714.514          63.750  
   -702238.801     -416255.725          63.750  
   -744383.465     -927371.767          63.750  
  -3332608.670     -132910.259          63.750  
   -307418.023      979941.347          63.750  
  -4312798.554       96932.939          63.750  
    899257.050      962485.696          63.750  
 23  3 12  0  2 45.9179630  0  8G31G 9G26G11G 6G19G 4G17
    -37850.810     1205758.312          63.750  
  -3603759.515     -685605.600          63.750  
   -702462.214     -417450.807          63.750  
   -744955.521     -930390.935          63.750  
  -3332729.086     -133544.402          63.750  
   -306836.169      982988.964          63.750  
  -4312732.920       97282.937          63.750  
    899836.793      965530.761          63.750  
 23  3 12  0  2 46.9179627  0  8G31G 9G26G11G 6G19G 4G17
    -37196.932     1209207.236          63.750  
  -3604120.804     -687496.262          63.750  
   -702693.660     -418645.306          63.750  
   -745529.817     -933409.738          63.750  
  -3332848.563     -134177.875          63.750  
   -306260.600      986036.862          63.750  
  -4312666.819       97633.428          63.750  
    900411.805      968575.815          63.750  
 23  3 12  0  2 47.9179625  0  8G31G 9G26G11G 6G19G 4G17
    -36540.627     1212656.452          63.750  
  -3604479.456     -689386.504          63.750  
   -702919.548     -419839.235          63.750  
   -746107.518     -936428.174          63.750  
  -3332970.468     -134810.678          63.750  
   -305679.303      989085.026          63.750  
  -4312598.656       97984.410          63.750  
    900993.876      971620.841          63.750  
 23  3 12  0  2 48.9179623  0  8G31G 9G26G11G 6G19G 4G17
    -35888.066     1216105.965          63.750  
  -3604838.905     -691276.320          63.750  
   -703146.483     -421032.577          63.750  
   -746681.316     -939446.243          63.750  
  -3333090.380     -135442.799          63.750  
   -305099.823      992133.473          63.750  
  -4312531.385       98335.884          63.750  
    901572.245      974665.841          63.750  
 23  3 12  0  2 49.9179620  0  8G31G 9G26G11G 6G19G 4G17
    -35228.946     1219555.766          63.750  
  -3605197.808     -693165.718          63.750  
   -703373.364     -422225.346          63.750  
   -747251.710     -942463.950          63.750  
  -3333211.049     -136074.247          63.750  
   -304521.215      995182.202          63.750  
  -4312464.563       98687.852          63.750  
    902155.091      977710.827          63.750  
 23  3 12  0  2 50.9179618  0  8G31G 9G26G11G 6G19G 4G17
    -34564.062     1223005.858          63.750  
  -3605557.924     -695054.688          63.750  
   -703600.999     -423417.536          63.750  
   -747832.181     -945481.288          63.750  
  -3333331.142     -136705.021          63.750  
   -303931.921      998231.199          63.750  
  -4312399.249       99040.312          63.750  
    902731.045      980755.788          63.750  
 23  3 12  0  2 51.9179616  0  8G31G 9G26G11G 6G19G 4G17
    -33915.781     1226456.247          63.750  
  -3605915.904     -696943.237          63.750  
   -703824.986     -424609.144          63.750  
   -748400.425     -948498.257          63.750  
  -3333449.300     -137335.116          63.750  
   -303357.353     1001280.486          63.750  
  -4312332.060       99393.262          63.750  
    903309.910      983800.716          63.750  
 23  3 12  0  2 52.9179614  0  8G31G 9G26G11G 6G19G 4G17
    -33261.201     1229906.933          63.750  
  -3606277.332     -698831.360          63.750  
   -704052.158     -425800.170          63.750  
   -748975.974     -951514.864          63.750  
  -3333568.631     -137964.544          63.750  
   -302777.835     1004330.041          63.750  
  -4312264.115       99746.707          63.750  
    903891.188      986845.631          63.750  
 23  3 12  0  2 53.9179611  0  8G31G 9G26G11G 6G19G 4G17
    -32603.286     1233357.906          63.750  
  -3606635.393     -700719.062          63.750  
   -704281.717     -426990.620          63.750  
   -749548.615     -954531.105          63.750  
  -3333688.489     -138593.287          63.750  
   -302196.994     1007379.884          63.750  
  -4312195.902      100100.643          63.750  
    904469.918      989890.515          63.750  
 23  3 12  0  2 54.9179609  0  8G31G 9G26G11G 6G19G 4G17
    -31942.468     1236809.175          63.750  
  -3606995.572     -702606.341          63.750  
   -704506.092     -428180.493          63.750  
   -750123.509     -957546.975          63.750  
  -3333806.472     -139221.368          63.750  
   -301618.037     1010429.989          63.750  
  -4312128.481      100455.075          63.750  
    905046.532      992935.383          63.750  
 23  3 12  0  2 55.9179607  0  8G31G 9G26G11G 6G19G 4G17
    -31284.965     1240260.729          63.750  
  -3607353.359     -704493.196          63.750  
   -704732.915     -429369.785          63.750  
   -750698.073     -960562.482          63.750  
  -3333928.167     -139848.770          63.750  
   -301038.778     1013480.378          63.750  
  -4312061.429      100809.996          63.750  
    905627.939      995980.227          63.750  
 23  3 12  0  2 56.9179605  0  8G31G 9G26G11G 6G19G 4G17
    -30631.879     1243712.585          63.750  
  -3607713.186     -706379.628          63.750  
   -704959.150     -430558.500          63.750  
   -751272.704     -963577.619          63.750  
  -3334047.908     -140475.489          63.750  
   -300455.914     1016531.046          63.750  
  -4311994.388      101165.409          63.750  
    906210.662      999025.045          63.750  
 23  3 12  0  2 57.9179602  0  8G31G 9G26G11G 6G19G 4G17
    -29973.846     1247164.729          63.750  
  -3608071.341     -708265.636          63.750  
   -705183.930     -431746.633          63.750  
   -751845.709     -966592.391          63.750  
  -3334167.123     -141101.541          63.750  
   -299870.135     1019581.981          63.750  
  -4311925.911      101521.317          63.750  
    906787.887     1002069.834          63.750  
 23  3 12  0  2 58.9179600  0  8G31G 9G26G11G 6G19G 4G17
    -29318.438     1250617.166          63.750  
  -3608430.670     -710151.223          63.750  
   -705411.098     -432934.180          63.750  
   -752420.074     -969606.803          63.750  
  -3334285.646     -141726.914          63.750  
   -299292.794     1022633.205          63.750  
  -4311857.816      101877.715          63.750  
    907367.359     1005114.616          63.750  
 23  3 12  0  2 59.9179598  0  8G31G 9G26G11G 6G19G 4G17
    -28659.951     1254069.894          63.750  
  -3608790.438     -712036.386          63.750  
   -705638.134     -434121.157          63.750  
   -752995.554     -972620.840          63.750  
  -3334404.059     -142351.616          63.750  
   -298709.940     1025684.698          63.750  
  -4311790.833      102234.606          63.750  
    907949.896     1008159.364          63.750  
 23  3 12  0  3  0.9179595  0  8G31G 9G26G11G 6G19G 4G17
    -28004.052     1257522.918          63.750  
  -3609148.486     -713921.123          63.750  
   -705861.524     -435307.556          63.750  
   -753567.755     -975634.507          63.750  
  -3334523.516     -142975.640          63.750  
   -298127.945     1028736.474          63.750  
  -4311722.132      102591.988          63.750  
    908522.485     1011204.086          63.750  
 23  3 12  0  3  1.9179593  0  8G31G 9G26G11G 6G19G 4G17
    -27344.937     1260976.227          63.750  
  -3609505.312     -715805.437          63.750  
   -706088.050     -436493.362          63.750  
   -754140.798     -978647.814          63.750  
  -3334642.293     -143598.988          63.750  
   -297555.740     1031788.529          63.750  
  -4311654.803      102949.863          63.750  
    909105.551     1014248.784          63.750  
 23  3 12  0  3  2.9179591  0  8G31G 9G26G11G 6G19G 4G17
    -26688.865     1264429.831          63.750  
  -3609865.227     -717689.330          63.750  
   -706314.757     -437678.598          63.750  
   -754715.891     -981660.751          63.750  
  -3334760.376     -144221.663          63.750  
   -296970.270     1034840.846          63.750  
  -4311586.985      103308.232          63.750  
    909684.999     1017293.453          63.750  
 23  3 12  0  3  3.9179589  0  8G31G 9G26G11G 6G19G 4G17
    -26032.855     1267883.726          63.750  
  -3610223.930     -719572.796          63.750  
   -706539.562     -438863.253          63.750  
   -755287.500     -984673.318          63.750  
  -3334878.060     -144843.664          63.750  
   -296389.121     1037893.445          63.750  
  -4311518.188      103667.092          63.750  
    910266.553     1020338.109          63.750  
 23  3 12  0  3  4.9179586  0  8G31G 9G26G11G 6G19G 4G17
    -25377.707     1271337.912          63.750  
  -3610582.321     -721455.843          63.750  
   -706763.435     -440047.329          63.750  
   -755859.731     -987685.522          63.750  
  -3334998.191     -145464.985          63.750  
   -295810.357     1040946.324          63.750  
  -4311449.479      104026.441          63.750  
    910841.937     1023382.736          63.750  
 23  3 12  0  3  5.9179584  0  8G31G 9G26G11G 6G19G 4G17
    -24716.185     1274792.393          63.750  
  -3610941.328     -723338.463          63.750  
   -706990.141     -441230.820          63.750  
   -756435.382     -990697.357          63.750  
  -3335112.410     -146085.638          63.750  
   -295231.922     1043999.476          63.750  
  -4311382.012      104386.286          63.750  
    911420.969     1026427.338          63.750  
 23  3 12  0  3  6.9179582  0  8G31G 9G26G11G 6G19G 4G17
    -24058.077     1278247.163          63.750  
  -3611297.621     -725220.660          63.750  
   -707214.962     -442413.734          63.750  
   -757005.115     -993708.824          63.750  
  -3335233.303     -146705.613          63.750  
   -294650.982     1047052.896          63.750  
  -4311311.980      104746.625          63.750  
    912000.639     1029471.925          63.750  
 23  3 12  0  3  7.9179580  0  8G31G 9G26G11G 6G19G 4G17
    -23401.881     1281702.229          63.750  
  -3611656.255     -727102.434          63.750  
   -707437.185     -443596.070          63.750  
   -757580.389     -996719.924          63.750  
  -3335351.683     -147324.908          63.750  
   -294069.569     1050106.600          63.750  
  -4311244.270      105107.451          63.750  
    912579.596     1032516.475          63.750  
 23  3 12  0  3  8.9179577  0  8G31G 9G26G11G 6G19G 4G17
    -22746.724     1285157.579          63.750  
  -3612013.159     -728983.786          63.750  
   -707665.448     -444777.824          63.750  
   -758152.459     -999730.656          63.750  
  -3335470.404     -147943.534          63.750  
   -293486.982     1053160.576          63.750  
  -4311174.120      105468.772          63.750  
    913161.210     1035561.002          63.750  
 23  3 12  0  3  9.9179575  0  8G31G 9G26G11G 6G19G 4G17
    -22084.866     1288613.223          63.750  
  -3612372.927     -730864.709          63.750  
   -707885.287     -445959.001          63.750  
   -758724.105    -1002741.021          63.750  
  -3335589.577     -148561.481          63.750  
   -292902.442     1056214.827          63.750  
  -4311104.359      105830.584          63.750  
    913739.173     1038605.507          63.750  
 23  3 12  0  3 10.9179573  0  8G31G 9G26G11G 6G19G 4G17
    -21429.922     1292069.149          63.750  
  -3612731.192     -732745.216          63.750  
   -708115.614     -447139.593          63.750  
   -759296.525    -1005751.015          63.750  
  -3335704.257     -149178.755          63.750  
   -292322.719     1059269.354          63.750  
  -4311037.284      106192.889          63.750  
    914320.080     1041649.990          63.750  
 23  3 12  0  3 11.9179570  0  8G31G 9G26G11G 6G19G 4G17
    -20770.637     1295525.382          63.750  
  -3613088.641     -734625.293          63.750  
   -708341.153     -448319.602          63.750  
   -759871.696    -1008760.640          63.750  
  -3335821.812     -149795.353          63.750  
   -291743.131     1062324.159          63.750  
  -4310966.697      106555.684          63.750  
    914902.742     1044694.435          63.750  
 23  3 12  0  3 12.9179568  0  8G31G 9G26G11G 6G19G 4G17
    -20113.520     1298981.898          63.750  
  -3613446.425     -736504.949          63.750  
   -708561.896     -449499.037          63.750  
   -760441.437    -1011769.900          63.750  
  -3335938.099     -150411.278          63.750  
   -291157.393     1065379.235          63.750  
  -4310898.905      106918.972          63.750  
    915476.616     1047738.864          63.750  
 23  3 12  0  3 13.9179566  0  8G31G 9G26G11G 6G19G 4G17
    -19457.797     1302438.702          63.750  
  -3613803.706     -738384.181          63.750  
   -708785.771     -450677.889          63.750  
   -761016.742    -1014778.788          63.750  
  -3336053.727     -151026.523          63.750  
   -290579.528     1068434.587          63.750  
  -4310829.907      107282.752          63.750  
    916058.972     1050783.270          63.750  
 23  3 12  0  3 14.9179564  0  8G31G 9G26G11G 6G19G 4G17
    -18798.311     1305895.801          63.750  
  -3614160.783     -740262.987          63.750  
   -709011.428     -451856.156          63.750  
   -761585.661    -1017787.312          63.750  
  -3336174.356     -151641.096          63.750  
   -289999.128     1071490.211          63.750  
  -4310759.488      107647.024          63.750  
    916638.578     1053827.657          63.750  
 23  3 12  0  3 15.9179561  0  8G31G 9G26G11G 6G19G 4G17
    -18139.980     1309353.188          63.750  
  -3614518.711     -742141.372          63.750  
   -709234.803     -453033.856          63.750  
   -762159.640    -1020795.463          63.750  
  -3336288.663     -152254.990          63.750  
   -289414.271     1074546.115          63.750  
  -4310690.739      108011.787          63.750  
    917214.529     1056872.004          63.750  
 23  3 12  0  3 16.9179559  0  8G31G 9G26G11G 6G19G 4G17
    -17483.730     1312810.865          63.750  
  -3614875.909     -744019.333          63.750  
   -709461.445     -454210.960          63.750  
   -762733.033    -1023803.247          63.750  
  -3336407.590     -152868.212          63.750  
   -288834.368     1077602.286          63.750  
  -4310621.166      108377.044          63.750  
    917795.181     1059916.337          63.750  
 23  3 12  0  3 17.9179557  0  8G31G 9G26G11G 6G19G 4G17
    -16823.122     1316268.831          63.750  
  -3615232.739     -745896.869          63.750  
   -709682.581     -455387.493          63.750  
   -763303.745    -1026810.661          63.750  
  -3336523.403     -153480.756          63.750  
   -288251.327     1080658.742          63.750  
  -4310552.660      108742.790          63.750  
    918374.673     1062960.630          63.750  
 23  3 12  0  3 18.9179555  0  8G31G 9G26G11G 6G19G 4G17
    -16166.306     1319727.089          63.750  
  -3615589.760     -747773.982          63.750  
   -709908.060     -456563.434          63.750  
   -763877.102    -1029817.716          63.750  
  -3336640.916     -154092.623          63.750  
   -287669.037     1083715.460          63.750  
  -4310482.000      109109.027          63.750  
    918953.855     1066004.912          63.750  
 23  3 12  0  3 19.9179552  0  8G31G 9G26G11G 6G19G 4G17
    -15507.371     1323185.636          63.750  
  -3615946.739     -749650.672          63.750  
   -710130.831     -457738.805          63.750  
   -764448.862    -1032824.394          63.750  
  -3336756.346     -154703.820          63.750  
   -287086.043     1086772.454          63.750  
  -4310412.162      109475.759          63.750  
    919531.742     1069049.160          63.750  
 23  3 12  0  3 20.9179550  0  8G31G 9G26G11G 6G19G 4G17
    -14850.842     1326644.478          63.750  
  -3616304.633     -751526.936          63.750  
   -710353.807     -458913.594          63.750  
   -765018.704    -1035830.702          63.750  
  -3336870.335     -155314.337          63.750  
   -286506.857     1089829.731          63.750  
  -4310343.631      109842.979          63.750  
    920114.419     1072093.390          63.750  
 23  3 12  0  3 21.9179548  0  8G31G 9G26G11G 6G19G 4G17
    -14189.544     1330103.606          63.750  
  -3616660.660     -753402.776          63.750  
   -710578.405     -460087.798          63.750  
   -765593.825    -1038836.643          63.750  
  -3336987.809     -155924.180          63.750  
   -285929.066     1092887.270          63.750  
  -4310273.435      110210.695          63.750  
    920693.432     1075137.586          63.750  
 23  3 12  0  3 22.9179545  0  8G31G 9G26G11G 6G19G 4G17
    -13537.282     1333563.021          63.750  
  -3617017.121     -755278.192          63.750  
   -710801.508     -461261.424          63.750  
   -766165.842    -1041842.214          63.750  
  -3337103.517     -156533.348          63.750  
   -285341.939     1095945.092          63.750  
  -4310202.054      110578.899          63.750  
    921269.955     1078181.758          63.750  
 23  3 12  0  3 23.9179543  0  8G31G 9G26G11G 6G19G 4G17
    -12875.625     1337022.727          63.750  
  -3617375.501     -757153.185          63.750  
   -711025.206     -462434.463          63.750  
   -766735.708    -1044847.414          63.750  
  -3337218.453     -157141.836          63.750  
   -284759.209     1099003.179          63.750  
  -4310132.437      110947.597          63.750  
    921849.594     1081225.909          63.750  
 23  3 12  0  3 24.9179541  0  8G31G 9G26G11G 6G19G 4G17
    -12216.847     1340482.723          63.750  
  -3617731.591     -759027.755          63.750  
   -711245.904     -463606.925          63.750  
   -767311.655    -1047852.244          63.750  
  -3337335.793     -157749.649          63.750  
   -284179.132     1102061.546          63.750  
  -4310061.572      111316.784          63.750  
    922429.705     1084270.024          63.750  
 23  3 12  0  3 25.9179539  0  8G31G 9G26G11G 6G19G 4G17
    -11555.914     1343943.007          63.750  
  -3618089.236     -760901.899          63.750  
   -711469.919     -464778.811          63.750  
   -767879.787    -1050856.707          63.750  
  -3337450.868     -158356.789          63.750  
   -283599.492     1105120.185          63.750  
  -4309992.310      111686.465          63.750  
    923007.455     1087314.114          63.750  
 23  3 12  0  3 26.9179536  0  8G31G 9G26G11G 6G19G 4G17
    -10901.643     1347403.580          63.750  
  -3618444.557     -762775.616          63.750  
   -711693.188     -465950.106          63.750  
   -768451.253    -1053860.798          63.750  
  -3337567.357     -158963.256          63.750  
   -283018.054     1108179.098          63.750  
  -4309920.286      112056.638          63.750  
    923593.071     1090358.193          63.750  
 23  3 12  0  3 27.9179534  0  8G31G 9G26G11G 6G19G 4G17
    -10241.473     1350864.444          63.750  
  -3618802.102     -764648.914          63.750  
   -711916.566     -467120.820          63.750  
   -769027.762    -1056864.527          63.750  
  -3337681.898     -159569.040          63.750  
   -282432.271     1111238.277          63.750  
  -4309850.625      112427.300          63.750  
    924168.439     1093402.227          63.750  
 23  3 12  0  3 28.9179532  0  8G31G 9G26G11G 6G19G 4G17
     -9583.507     1354325.593          63.750  
  -3619158.530     -766521.787          63.750  
   -712138.765     -468290.957          63.750  
   -769597.094    -1059867.878          63.750  
  -3337796.608     -160174.155          63.750  
   -281848.992     1114297.738          63.750  
  -4309779.163      112798.455          63.750  
    924747.796     1096446.237          63.750  
 23  3 12  0  3 29.9179530  0  8G31G 9G26G11G 6G19G 4G17
     -8923.231     1357787.036          63.750  
  -3619513.813     -768394.236          63.750  
   -712358.403     -469460.514          63.750  
   -770166.343    -1062870.865          63.750  
  -3337912.192     -160778.589          63.750  
   -281272.182     1117357.464          63.750  
  -4309708.582      113170.102          63.750  
    925323.279     1099490.230          63.750  
 23  3 12  0  3 30.9179527  0  8G31G 9G26G11G 6G19G 4G17
     -8266.787     1361248.768          63.750  
  -3619871.619     -770266.259          63.750  
   -712584.417     -470629.483          63.750  
   -770739.688    -1065873.478          63.750  
  -3338026.329     -161382.349          63.750  
   -280691.402     1120417.463          63.750  
  -4309637.169      113542.238          63.750  
    925904.372     1102534.190          63.750  
 23  3 12  0  3 31.9179525  0  8G31G 9G26G11G 6G19G 4G17
     -7604.523     1364710.791          63.750  
  -3620226.271     -772137.857          63.750  
   -712804.063     -471797.875          63.750  
   -771308.547    -1068875.721          63.750  
  -3338144.397     -161985.436          63.750  
   -280107.216     1123477.739          63.750  
  -4309566.629      113914.869          63.750  
    926484.959     1105578.114          63.750  
 23  3 12  0  3 32.9179523  0  8G31G 9G26G11G 6G19G 4G17
     -6944.723     1368173.096          63.750  
  -3620582.108     -774009.033          63.750  
   -713027.029     -472965.688          63.750  
   -771879.464    -1071877.592          63.750  
  -3338254.815     -162587.833          63.750  
   -279523.705     1126538.283          63.750  
  -4309497.229      114287.983          63.750  
    927066.394     1108622.030          63.750  
 23  3 12  0  3 33.9179520  0  8G31G 9G26G11G 6G19G 4G17
     -6287.772     1371635.693          63.750  
  -3620939.254     -775879.784          63.750  
   -713250.501     -474132.913          63.750  
   -772452.940    -1074879.097          63.750  
  -3338369.261     -163189.573          63.750  
   -278943.349     1129599.099          63.750  
  -4309425.352      114661.602          63.750  
    927643.743     1111665.904          63.750  
 23  3 12  0  3 34.9179518  0  8G31G 9G26G11G 6G19G 4G17
     -5629.463     1375098.571          63.750  
  -3621294.430     -777750.109          63.750  
   -713473.890     -475299.556          63.750  
   -773020.237    -1077880.227          63.750  
  -3338484.030     -163790.627          63.750  
   -278360.688     1132660.188          63.750  
  -4309353.129      115035.701          63.750  
    928221.837     1114709.756          63.750  
 23  3 12  0  3 35.9179516  0  8G31G 9G26G11G 6G19G 4G17
     -4968.959     1378561.753          63.750  
  -3621651.194     -779620.013          63.750  
   -713694.182     -476465.616          63.750  
   -773589.397    -1080880.988          63.750  
  -3338597.330     -164391.001          63.750  
   -277774.028     1135721.549          63.750  
  -4309282.478      115410.295          63.750  
    928800.397     1117753.587          63.750  
 23  3 12  0  3 36.9179514  0  8G31G 9G26G11G 6G19G 4G17
     -4311.108     1382025.210          63.750  
  -3622006.632     -781489.490          63.750  
   -713918.280     -477631.105          63.750  
   -774166.336    -1083881.377          63.750  
  -3338711.713     -164990.706          63.750  
   -277192.264     1138783.185          63.750  
  -4309210.802      115785.380          63.750  
    929380.235     1120797.369          63.750  
 23  3 12  0  3 37.9179511  0  8G31G 9G26G11G 6G19G 4G17
     -3650.654     1385488.954          63.750  
  -3622361.103     -783358.543          63.750  
   -714142.167     -478795.999          63.750  
   -774734.172    -1086881.398          63.750  
  -3338827.167     -165589.733          63.750  
   -276609.222     1141845.092          63.750  
  -4309139.824      116160.956          63.750  
    929962.932     1123841.148          63.750  
 23  3 12  0  3 38.9179509  0  8G31G 9G26G11G 6G19G 4G17
     -2992.541     1388952.993          63.750  
  -3622717.519     -785227.173          63.750  
   -714356.740     -479960.321          63.750  
   -775307.440    -1089881.053          63.750  
  -3338941.649     -166188.083          63.750  
   -276025.199     1144907.264          63.750  
  -4309067.880      116537.026          63.750  
    930539.652     1126884.888          63.750  
 23  3 12  0  3 39.9179507  0  8G31G 9G26G11G 6G19G 4G17
     -2334.231     1392417.313          63.750  
  -3623073.252     -787095.379          63.750  
   -714581.478     -481124.051          63.750  
   -775879.266    -1092880.330          63.750  
  -3339053.438     -166785.758          63.750  
   -275444.610     1147969.721          63.750  
  -4308997.202      116913.582          63.750  
    931119.949     1129928.604          63.750  
 23  3 12  0  3 40.9179505  0  8G31G 9G26G11G 6G19G 4G17
     -1673.803     1395881.935          63.750  
  -3623428.260     -788963.158          63.750  
   -714805.333     -482287.209          63.750  
   -776450.356    -1095879.237          63.750  
  -3339169.353     -167382.754          63.750  
   -274857.623     1151032.440          63.750  
  -4308925.800      117290.633          63.750  
    931697.683     1132972.286          63.750  
 23  3 12  0  3 41.9179502  0  8G31G 9G26G11G 6G19G 4G17
     -1013.950     1399346.831          63.750  
  -3623783.626     -790830.511          63.750  
   -715024.941     -483449.778          63.750  
   -777019.431    -1098877.771          63.750  
  -3339280.205     -167979.077          63.750  
   -274280.009     1154095.422          63.750  
  -4308853.777      117668.172          63.750  
    932274.579     1136015.945          63.750  
 23  3 12  0  3 42.9179500  0  8G31G 9G26G11G 6G19G 4G17
      -357.715     1402812.017          63.750  
  -3624138.649     -792697.444          63.750  
   -715245.337     -484611.767          63.750  
   -777587.461    -1101875.941          63.750  
  -3339393.447     -168574.724          63.750  
   -273691.742     1157158.692          63.750  
  -4308781.558      118046.205          63.750  
    932856.842     1139059.568          63.750  
 23  3 12  0  3 43.9179498  0  8G31G 9G26G11G 6G19G 4G17
       300.678     1406277.494          63.750  
  -3624494.625     -794563.949          63.750  
   -715463.662     -485773.164          63.750  
   -778160.592    -1104873.736          63.750  
  -3339509.878     -169169.688          63.750  
   -273112.250     1160222.218          63.750  
  -4308708.032      118424.729          63.750  
    933435.463     1142103.173          63.750  
 23  3 12  0  3 44.9179495  0  8G31G 9G26G11G 6G19G 4G17
       965.793     1409743.261          63.750  
  -3624849.275     -796430.031          63.750  
   -715688.171     -486933.987          63.750  
   -778728.541    -1107871.155          63.750  
  -3339622.227     -169763.984          63.750  
   -272527.192     1163286.018          63.750  
  -4308637.035      118803.743          63.750  
    934012.012     1145146.743          63.750  
 23  3 12  0  3 45.9179493  0  8G31G 9G26G11G 6G19G 4G17
      1622.751     1413209.306          63.750  
  -3625205.051     -798295.688          63.750  
   -715903.427     -488094.227          63.750  
   -779301.332    -1110868.210          63.750  
  -3339733.450     -170357.599          63.750  
   -271947.555     1166350.097          63.750  
  -4308565.139      119183.248          63.750  
    934594.396     1148190.286          63.750  
 23  3 12  0  3 46.9179491  0  8G31G 9G26G11G 6G19G 4G17
      2280.837     1416675.644          63.750  
  -3625559.555     -800160.921          63.750  
   -716128.270     -489253.886          63.750  
   -779869.165    -1113864.885          63.750  
  -3339847.856     -170950.539          63.750  
   -271358.856     1169414.437          63.750  
  -4308493.010      119563.244          63.750  
    935173.456     1151233.807          63.750  
 23  3 12  0  3 47.9179489  0  8G31G 9G26G11G 6G19G 4G17
      2940.013     1420142.267          63.750  
  -3625914.427     -802025.730          63.750  
   -716351.458     -490412.959          63.750  
   -780440.710    -1116861.195          63.750  
  -3339960.241     -171542.802          63.750  
   -270782.485     1172479.055          63.750  
  -4308418.857      119943.731          63.750  
    935748.905     1154277.290          63.750  
 23  3 12  0  3 48.9179486  0  8G31G 9G26G11G 6G19G 4G17
      3601.637     1423609.177          63.750  
  -3626269.292     -803890.112          63.750  
   -716566.875     -491571.452          63.750  
   -781010.576    -1119857.129          63.750  
  -3340072.095     -172134.385          63.750  
   -270198.188     1175543.938          63.750  
  -4308346.874      120324.707          63.750  
    936330.060     1157320.752          63.750  
 23  3 12  0  3 49.9179484  0  8G31G 9G26G11G 6G19G 4G17
      4263.500     1427076.374          63.750  
  -3626622.605     -805754.070          63.750  
   -716788.075     -492729.354          63.750  
   -781580.419    -1122852.693          63.750  
  -3340184.127     -172725.300          63.750  
   -269615.389     1178609.101          63.750  
  -4308273.818      120706.177          63.750  
    936909.049     1160364.176          63.750  
 23  3 12  0  3 50.9179482  0  8G31G 9G26G11G 6G19G 4G17
      4921.616     1430543.854          63.750  
  -3626977.921     -807617.602          63.750  
   -717011.605     -493886.686          63.750  
   -782154.921    -1125847.891          63.750  
  -3340296.936     -173315.529          63.750  
   -269030.962     1181674.511          63.750  
  -4308202.497      121088.138          63.750  
    937492.819     1163407.574          63.750  
 23  3 12  0  3 51.9179480  0  8G31G 9G26G11G 6G19G 4G17
      5580.559     1434011.629          63.750  
  -3627332.992     -809480.713          63.750  
   -717230.513     -495043.427          63.750  
   -782719.936    -1128842.703          63.750  
  -3340411.309     -173905.085          63.750  
   -268452.635     1184740.214          63.750  
  -4308129.524      121470.587          63.750  
    938070.771     1166450.953          63.750  
 23  3 12  0  3 52.9179477  0  8G31G 9G26G11G 6G19G 4G17
      6241.644     1437479.688          63.750  
  -3627686.434     -811343.396          63.750  
   -717448.388     -496199.587          63.750  
   -783290.871    -1131837.158          63.750  
  -3340521.428     -174493.968          63.750  
   -267867.088     1187806.182          63.750  
  -4308054.725      121853.528          63.750  
    938645.004     1169494.290          63.750  
 23  3 12  0  3 53.9179475  0  8G31G 9G26G11G 6G19G 4G17
      6904.231     1440948.031          63.750  
  -3628041.859     -813205.656          63.750  
   -717669.610     -497355.164          63.750  
   -783862.066    -1134831.229          63.750  
  -3340633.962     -175082.169          63.750  
   -267277.875     1190872.415          63.750  
  -4307983.409      122236.961          63.750  
    939227.751     1172537.602          63.750  
 23  3 12  0  3 54.9179473  0  8G31G 9G26G11G 6G19G 4G17
      7562.096     1444416.657          63.750  
  -3628396.217     -815067.490          63.750  
   -717888.316     -498510.156          63.750  
   -784428.757    -1137824.935          63.750  
  -3340745.318     -175669.691          63.750  
   -266698.837     1193938.913          63.750  
  -4307910.813      122620.882          63.750  
    939807.808     1175580.890          63.750  
 23  3 12  0  3 55.9179470  0  8G31G 9G26G11G 6G19G 4G17
      8222.660     1447885.575          63.750  
  -3628750.663     -816928.899          63.750  
   -718107.577     -499664.566          63.750  
   -785001.374    -1140818.268          63.750  
  -3340856.911     -176256.544          63.750  
   -266107.463     1197005.683          63.750  
  -4307837.701      123005.297          63.750  
    940385.136     1178624.136          63.750  
 23  3 12  0  3 56.9179468  0  8G31G 9G26G11G 6G19G 4G17
      8882.345     1451354.771          63.750  
  -3629103.401     -818789.883          63.750  
   -718330.081     -500818.391          63.750  
   -785570.311    -1143811.226          63.750  
  -3340966.922     -176842.718          63.750  
   -265523.959     1200072.733          63.750  
  -4307764.654      123390.199          63.750  
    940962.507     1181667.372          63.750  
 23  3 12  0  3 57.9179466  0  8G31G 9G26G11G 6G19G 4G17
      9541.911     1454824.262          63.750  
  -3629458.878     -820650.442          63.750  
   -718548.853     -501971.631          63.750  
   -786142.218    -1146803.811          63.750  
  -3341079.418     -177428.211          63.750  
   -264945.756     1203140.038          63.750  
  -4307691.947      123775.596          63.750  
    941546.470     1184710.556          63.750  
 23  3 12  0  3 58.9179464  0  8G31G 9G26G11G 6G19G 4G17
     10202.438     1458294.041          63.750  
  -3629811.879     -822510.578          63.750  
   -718767.176     -503124.292          63.750  
   -786707.836    -1149796.018          63.750  
  -3341189.546     -178013.032          63.750  
   -264361.100     1206207.618          63.750  
  -4307618.517      124161.479          63.750  
    942122.827     1187753.721          63.750  
 23  3 12  0  3 59.9179461  0  8G31G 9G26G11G 6G19G 4G17
     10861.858     1461764.098          63.750  
  -3630166.347     -824370.288          63.750  
   -718988.416     -504276.369          63.750  
   -787275.901    -1152787.868          63.750  
  -3341300.832     -178597.170          63.750  
   -263779.421     1209275.473          63.750  
  -4307544.694      124547.856          63.750  
    942701.967     1190796.862          63.750  
 23  3 12  0  4  0.9179459  0  8G31G 9G26G11G 6G19G 4G17
     11522.562     1465234.445          63.750  
  -3630520.686     -826229.572          63.750  
   -719204.529     -505427.852          63.750  
   -787847.715    -1155779.329          63.750  
  -3341412.834     -179180.639          63.750  
   -263195.954     1212343.588          63.750  
  -4307470.082      124934.723          63.750  
    943278.286     1193839.965          63.750  
 23  3 12  0  4  1.9179457  0  8G31G 9G26G11G 6G19G 4G17
     12185.807     1468705.072          63.750  
  -3630874.003     -828088.430          63.750  
   -719423.693     -506578.765          63.750  
   -788418.065    -1158770.427          63.750  
  -3341524.070     -179763.423          63.750  
   -262609.208     1215411.980          63.750  
  -4307396.844      125322.078          63.750  
    943858.914     1196883.036          63.750  
 23  3 12  0  4  2.9179455  0  8G31G 9G26G11G 6G19G 4G17
     12843.508     1472175.987          63.750  
  -3631226.890     -829946.866          63.750  
   -719644.304     -507729.092          63.750  
   -788985.797    -1161761.146          63.750  
  -3341632.185     -180345.532          63.750  
   -262028.316     1218480.632          63.750  
  -4307323.224      125709.926          63.750  
    944440.422     1199926.083          63.750  
 23  3 12  0  4  3.9179452  0  8G31G 9G26G11G 6G19G 4G17
     13502.425     1475647.192          63.750  
  -3631582.066     -831804.876          63.750  
   -719861.872     -508878.823          63.750  
   -789554.919    -1164751.492          63.750  
  -3341744.516     -180926.966          63.750  
   -261443.951     1221549.556          63.750  
  -4307248.380      126098.263          63.750  
    945019.199     1202969.096          63.750  
 23  3 12  0  4  4.9179450  0  8G31G 9G26G11G 6G19G 4G17
     14163.876     1479118.677          63.750  
  -3631934.165     -833662.459          63.750  
   -720081.704     -510027.991          63.750  
   -790120.581    -1167741.466          63.750  
  -3341856.275     -181507.728          63.750  
   -260854.146     1224618.748          63.750  
  -4307174.658      126487.093          63.750  
    945598.547     1206012.080          63.750  
 23  3 12  0  4  5.9179448  0  8G31G 9G26G11G 6G19G 4G17
     14826.602     1482590.449          63.750  
  -3632287.075     -835519.618          63.750  
   -720298.401     -511176.556          63.750  
   -790686.438    -1170731.065          63.750  
  -3341969.396     -182087.804          63.750  
   -260276.330     1227688.203          63.750  
  -4307099.719      126876.411          63.750  
    946177.608     1209055.031          63.750  
 23  3 12  0  4  6.9179445  0  8G31G 9G26G11G 6G19G 4G17
     15482.283     1486062.500          63.750  
  -3632640.728     -837376.352          63.750  
   -720516.690     -512324.548          63.750  
   -791261.736    -1173720.292          63.750  
  -3342075.642     -182667.208          63.750  
   -259690.111     1230757.937          63.750  
  -4307026.910      127266.220          63.750  
    946755.756     1212097.957          63.750  
 23  3 12  0  4  7.9179443  0  8G31G 9G26G11G 6G19G 4G17
     16146.733     1489534.843          63.750  
  -3632992.955     -839232.660          63.750  
   -720736.289     -513471.952          63.750  
   -791831.523    -1176709.145          63.750  
  -3342184.841     -183245.935          63.750  
   -259107.438     1233827.933          63.750  
  -4306952.085      127656.520          63.750  
    947333.725     1215140.857          63.750  
 23  3 12  0  4  8.9179441  0  8G31G 9G26G11G 6G19G 4G17
     16808.815     1493007.469          63.750  
  -3633347.188     -841088.542          63.750  
   -720955.257     -514618.771          63.750  
   -792397.509    -1179697.630          63.750  
  -3342296.003     -183823.979          63.750  
   -258528.940     1236898.190          63.750  
  -4306877.775      128047.308          63.750  
    947913.972     1218183.714          63.750  
 23  3 12  0  4  9.9179439  0  8G31G 9G26G11G 6G19G 4G17
     17469.040     1496480.383          63.750  
  -3633702.044     -842944.001          63.750  
   -721171.000     -515765.011          63.750  
   -792966.756    -1182685.736          63.750  
  -3342406.406     -184401.350          63.750  
   -257931.789     1239968.723          63.750  
  -4306804.996      128438.590          63.750  
    948498.687     1221226.548          63.750  
 23  3 12  0  4 10.9179436  0  8G31G 9G26G11G 6G19G 4G17
     18130.434     1499953.577          63.750  
  -3634054.304     -844799.035          63.750  
   -721389.413     -516910.656          63.750  
   -793535.547    -1185673.466          63.750  
  -3342518.333     -184978.045          63.750  
   -257351.881     1243039.523          63.750  
  -4306729.410      128830.357          63.750  
    949067.834     1224269.339          63.750  
 23  3 12  0  4 11.9179434  0  8G31G 9G26G11G 6G19G 4G17
     18792.676     1503427.056          63.750  
  -3634407.356     -846653.642          63.750  
   -721608.608     -518055.728          63.750  
   -794102.370    -1188660.822          63.750  
  -3342626.645     -185554.061          63.750  
   -256770.120     1246110.584          63.750  
  -4306654.488      129222.620          63.750  
    949653.513     1227312.107          63.750  
 23  3 12  0  4 12.9179432  0  8G31G 9G26G11G 6G19G 4G17
     19453.226     1506900.817          63.750  
  -3634759.490     -848507.826          63.750  
   -721826.463     -519200.211          63.750  
   -794670.068    -1191647.809          63.750  
  -3342736.713     -186129.400          63.750  
   -256183.220     1249181.917          63.750  
  -4306578.438      129615.371          63.750  
    950226.993     1230354.853          63.750  
 23  3 12  0  4 13.9179430  0  8G31G 9G26G11G 6G19G 4G17
     20113.846     1510374.870          63.750  
  -3635111.321     -850361.581          63.750  
   -722044.512     -520344.108          63.750  
   -795238.588    -1194634.422          63.750  
  -3342845.435     -186704.060          63.750  
   -255600.647     1252253.517          63.750  
  -4306504.944      130008.610          63.750  
    950808.046     1233397.556          63.750  
 23  3 12  0  4 14.9179427  0  8G31G 9G26G11G 6G19G 4G17
     20773.975     1513849.199          63.750  
  -3635464.879     -852214.913          63.750  
   -722263.811     -521487.426          63.750  
   -795811.147    -1197620.646          63.750  
  -3342955.021     -187278.041          63.750  
   -255015.315     1255325.389          63.750  
  -4306429.498      130402.345          63.750  
    951386.459     1236440.229          63.750  
 23  3 12  0  4 15.9179425  0  8G31G 9G26G11G 6G19G 4G17
     21433.307     1517323.819          63.750  
  -3635817.110     -854067.817          63.750  
   -722478.645     -522630.152          63.750  
   -796376.638    -1200606.513          63.750  
  -3343061.432     -187851.354          63.750  
   -254432.884     1258397.521          63.750  
  -4306353.811      130796.564          63.750  
    951964.090     1239482.868          63.750  
 23  3 12  0  4 16.9179423  0  8G31G 9G26G11G 6G19G 4G17
     22100.062     1520798.716          63.750  
  -3636170.345     -855920.298          63.750  
   -722697.246     -523772.293          63.750  
   -796945.880    -1203592.000          63.750  
  -3343171.802     -188423.978          63.750  
   -253841.036     1261469.915          63.750  
  -4306280.181      131191.275          63.750  
    952543.956     1242525.487          63.750  
 23  3 12  0  4 17.9179420  0  8G31G 9G26G11G 6G19G 4G17
     22758.942     1524273.905          63.750  
  -3636522.357     -857772.354          63.750  
   -722915.033     -524913.849          63.750  
   -797513.518    -1206577.108          63.750  
  -3343280.322     -188995.934          63.750  
   -253261.373     1264542.584          63.750  
  -4306206.394      131586.479          63.750  
    953118.852     1245568.065          63.750  
 23  3 12  0  4 18.9179418  0  8G31G 9G26G11G 6G19G 4G17
     23419.258     1527749.367          63.750  
  -3636875.141     -859623.983          63.750  
   -723133.870     -526054.823          63.750  
   -798084.838    -1209561.847          63.750  
  -3343389.676     -189567.206          63.750  
   -252680.738     1267615.521          63.750  
  -4306129.391      131982.170          63.750  
    953701.451     1248610.605          63.750  
 23  3 12  0  4 19.9179416  0  8G31G 9G26G11G 6G19G 4G17
     24081.225     1531225.124          63.750  
  -3637227.699     -861475.187          63.750  
   -723351.106     -527195.213          63.750  
   -798651.393    -1212546.209          63.750  
  -3343499.379     -190137.802          63.750  
   -252089.386     1270688.717          63.750  
  -4306054.419      132378.352          63.750  
    954280.538     1251653.131          63.750  
 23  3 12  0  4 20.9179414  0  8G31G 9G26G11G 6G19G 4G17
     24742.017     1534701.154          63.750  
  -3637578.736     -863325.965          63.750  
   -723563.543     -528335.022          63.750  
   -799222.043    -1215530.196          63.750  
  -3343606.359     -190707.725          63.750  
   -251508.761     1273762.184          63.750  
  -4305979.501      132775.022          63.750  
    954866.024     1254695.622          63.750  
 23  3 12  0  4 21.9179411  0  8G31G 9G26G11G 6G19G 4G17
     25400.712     1538177.475          63.750  
  -3637932.953     -865176.315          63.750  
   -723786.116     -529474.234          63.750  
   -799787.142    -1218513.809          63.750  
  -3343715.872     -191276.965          63.750  
   -250916.631     1276835.925          63.750  
  -4305902.490      133172.186          63.750  
    955441.659     1257738.065          63.750  
 23  3 12  0  4 22.9179409  0  8G31G 9G26G11G 6G19G 4G17
     26065.376     1541654.079          63.750  
  -3638282.639     -867026.243          63.750  
   -723999.770     -530612.875          63.750  
   -800351.040    -1221497.044          63.750  
  -3343822.403     -191845.529          63.750  
   -250334.651     1279909.918          63.750  
  -4305826.442      133569.837          63.750  
    956020.506     1260780.491          63.750  
 23  3 12  0  4 23.9179407  0  8G31G 9G26G11G 6G19G 4G17
     26728.273     1545130.968          63.750  
  -3638636.091     -868875.746          63.750  
   -724213.932     -531750.920          63.750  
   -800923.058    -1224479.909          63.750  
  -3343931.817     -192413.414          63.750  
   -249753.877     1282984.180          63.750  
  -4305751.321      133967.979          63.750  
    956597.618     1263822.878          63.750  
 23  3 12  0  4 24.9179405  0  8G31G 9G26G11G 6G19G 4G17
     27391.272     1548608.129          63.750  
  -3638986.003     -870724.822          63.750  
   -724434.056     -532888.388          63.750  
   -801487.573    -1227462.392          63.750  
  -3344037.497     -192980.626          63.750  
   -249167.043     1286058.714          63.750  
  -4305675.725      134366.609          63.750  
    957179.073     1266865.228          63.750  
 23  3 12  0  4 25.9179402  0  8G31G 9G26G11G 6G19G 4G17
     28049.947     1552085.580          63.750  
  -3639338.661     -872573.472          63.750  
   -724644.725     -534025.273          63.750  
   -802055.128    -1230444.503          63.750  
  -3344146.895     -193547.157          63.750  
   -248580.917     1289133.507          63.750  
  -4305598.307      134765.730          63.750  
    957755.630     1269907.555          63.750  
 23  3 12  0  4 26.9179400  0  8G31G 9G26G11G 6G19G 4G17
     28712.030     1555563.318          63.750  
  -3639691.818     -874421.698          63.750  
   -724868.392     -535161.557          63.750  
   -802624.214    -1233426.236          63.750  
  -3344254.500     -194113.005          63.750  
   -247999.588     1292208.569          63.750  
  -4305523.613      135165.340          63.750  
    958335.478     1272949.839          63.750  
 23  3 12  0  4 27.9179398  0  8G31G 9G26G11G 6G19G 4G17
     29376.015     1559041.339          63.750  
  -3640043.194     -876269.495          63.750  
   -725085.794     -536297.269          63.750  
   -803193.044    -1236407.602          63.750  
  -3344363.037     -194678.181          63.750  
   -247406.574     1295283.899          63.750  
  -4305447.221      135565.442          63.750  
    958912.314     1275992.103          63.750  
 23  3 12  0  4 28.9179395  0  8G31G 9G26G11G 6G19G 4G17
     30035.068     1562519.633          63.750  
  -3640393.835     -878116.868          63.750  
   -725296.511     -537432.399          63.750  
   -803758.255    -1239388.581          63.750  
  -3344470.589     -195242.681          63.750  
   -246825.427     1298359.486          63.750  
  -4305371.389      135966.033          63.750  
    959493.130     1279034.322          63.750  
 23  3 12  0  4 29.9179393  0  8G31G 9G26G11G 6G19G 4G17
     30696.646     1565998.217          63.750  
  -3640745.567     -879963.814          63.750  
   -725513.266     -538566.928          63.750  
   -804323.133    -1242369.193          63.750  
  -3344576.653     -195806.500          63.750  
   -246238.499     1301435.342          63.750  
  -4305294.016      136367.113          63.750  
    960070.639     1282076.514          63.750  
 23  3 12  0  4 30.9179391  0  8G31G 9G26G11G 6G19G 4G17
     31357.334     1569477.076          63.750  
  -3641096.764     -881810.336          63.750  
   -725728.969     -539700.885          63.750  
   -804894.215    -1245349.425          63.750  
  -3344684.848     -196369.641          63.750  
   -245658.068     1304511.460          63.750  
  -4305218.507      136768.682          63.750  
    960650.898     1285118.680          63.750  
 23  3 12  0  4 31.9179389  0  8G31G 9G26G11G 6G19G 4G17
     32021.366     1572956.233          63.750  
  -3641447.578     -883656.432          63.750  
   -725944.355     -540834.241          63.750  
   -805458.755    -1248329.282          63.750  
  -3344791.069     -196932.106          63.750  
   -245059.679     1307587.846          63.750  
  -4305141.447      137170.743          63.750  
    961227.812     1288160.799          63.750  
 23  3 12  0  4 32.9179386  0  8G31G 9G26G11G 6G19G 4G17
     32685.921     1576435.659          63.750  
  -3641799.899     -885502.102          63.750  
   -726164.767     -541967.022          63.750  
   -806025.410    -1251308.763          63.750  
  -3344897.513     -197493.886          63.750  
   -244489.018     1310664.501          63.750  
  -4305066.183      137573.290          63.750  
    961806.947     1291202.895          63.750  
 23  3 12  0  4 33.9179384  0  8G31G 9G26G11G 6G19G 4G17
     33346.875     1579915.370          63.750  
  -3642149.464     -887347.346          63.750  
   -726375.455     -543099.221          63.750  
   -806591.526    -1254287.861          63.750  
  -3345004.364     -198054.995          63.750  
   -243903.692     1313741.416          63.750  
  -4304988.160      137976.328          63.750  
    962386.567     1294244.949          63.750  
 23  3 12  0  4 34.9179382  0  8G31G 9G26G11G 6G19G 4G17
     34006.582     1583395.364          63.750  
  -3642501.828     -889192.164          63.750  
   -726589.634     -544230.822          63.750  
   -807161.116    -1257266.593          63.750  
  -3345113.899     -198615.428          63.750  
   -243316.495     1316818.598          63.750  
  -4304911.983      138379.857          63.750  
    962964.039     1297286.979          63.750  
 23  3 12  0  4 35.9179380  0  8G31G 9G26G11G 6G19G 4G17
     34667.811     1586875.635          63.750  
  -3642852.088     -891036.554          63.750  
   -726805.287     -545361.851          63.750  
   -807728.139    -1260244.944          63.750  
  -3345217.818     -199175.181          63.750  
   -242722.537     1319896.035          63.750  
  -4304834.743      138783.876          63.750  
    963546.105     1300328.973          63.750  
 23  3 12  0  4 36.9179377  0  8G31G 9G26G11G 6G19G 4G17
     35334.011     1590356.193          63.750  
  -3643202.358     -892880.520          63.750  
   -727019.472     -546492.284          63.750  
   -808295.035    -1263222.915          63.750  
  -3345324.332     -199734.251          63.750  
   -242139.743     1322973.753          63.750  
  -4304759.000      139188.385          63.750  
    964125.398     1303370.922          63.750  
 23  3 12  0  4 37.9179375  0  8G31G 9G26G11G 6G19G 4G17
     35999.667     1593837.034          63.750  
  -3643553.388     -894724.060          63.750  
   -727234.399     -547622.137          63.750  
   -808857.521    -1266200.521          63.750  
  -3345432.147     -200292.649          63.750  
   -241554.659     1326051.725          63.750  
  -4304679.493      139593.382          63.750  
    964702.925     1306412.844          63.750  
 23  3 12  0  4 38.9179373  0  8G31G 9G26G11G 6G19G 4G17
     36657.465     1597318.155          63.750  
  -3643904.736     -896567.174          63.750  
   -727447.089     -548751.404          63.750  
   -809426.219    -1269177.742          63.750  
  -3345539.054     -200850.366          63.750  
   -240973.570     1329129.960          63.750  
  -4304602.591      139998.869          63.750  
    965280.434     1309454.742          63.750  
 23  3 12  0  4 39.9179370  0  8G31G 9G26G11G 6G19G 4G17
     37319.209     1600799.555          63.750  
  -3644255.181     -898409.861          63.750  
   -727662.961     -549880.076          63.750  
   -809988.439    -1272154.586          63.750  
  -3345643.004     -201407.406          63.750  
   -240382.107     1332208.459          63.750  
  -4304525.265      140404.846          63.750  
    965860.964     1312496.598          63.750  
 23  3 12  0  4 40.9179368  0  8G31G 9G26G11G 6G19G 4G17
     37981.456     1604281.241          63.750  
  -3644606.233     -900252.123          63.750  
   -727880.131     -551008.171          63.750  
   -810560.704    -1275131.054          63.750  
  -3345748.093     -201963.770          63.750  
   -239798.174     1335287.226          63.750  
  -4304447.731      140811.311          63.750  
    966439.697     1315538.415          63.750  
 23  3 12  0  4 41.9179366  0  8G31G 9G26G11G 6G19G 4G17
     38643.778     1607763.204          63.750  
  -3644955.220     -902093.957          63.750  
   -728093.710     -552135.670          63.750  
   -811126.403    -1278107.144          63.750  
  -3345854.568     -202519.451          63.750  
   -239208.462     1338366.253          63.750  
  -4304371.842      141218.265          63.750  
    967020.500     1318580.209          63.750  
 23  3 12  0  4 42.9179364  0  8G31G 9G26G11G 6G19G 4G17
     39308.461     1611245.452          63.750  
  -3645306.542     -903935.367          63.750  
   -728305.764     -553262.593          63.750  
   -811689.962    -1281082.857          63.750  
  -3345960.854     -203074.455          63.750  
   -238626.897     1341445.542          63.750  
  -4304294.253      141625.709          63.750  
    967598.262     1321621.966          63.750  
 23  3 12  0  4 43.9179361  0  8G31G 9G26G11G 6G19G 4G17
     39971.629     1614727.982          63.750  
  -3645658.198     -905776.352          63.750  
   -728524.173     -554388.926          63.750  
   -812258.088    -1284058.196          63.750  
  -3346065.928     -203628.778          63.750  
   -238039.311     1344525.104          63.750  
  -4304217.292      142033.641          63.750  
    968178.563     1324663.680          63.750  
 23  3 12  0  4 44.9179359  0  8G31G 9G26G11G 6G19G 4G17
     40631.072     1618210.778          63.750  
  -3646007.850     -907616.906          63.750  
   -728734.676     -555514.674          63.750  
   -812824.144    -1287033.153          63.750  
  -3346169.739     -204182.431          63.750  
   -237454.649     1347604.911          63.750  
  -4304139.722      142442.066          63.750  
    968758.879     1327705.372          63.750  
 23  3 12  0  4 45.9179357  0  8G31G 9G26G11G 6G19G 4G17
     41297.223     1621693.877          63.750  
  -3646356.188     -909457.038          63.750  
   -728950.955     -556639.830          63.750  
   -813386.163    -1290007.737          63.750  
  -3346274.451     -204735.400          63.750  
   -236865.276     1350685.000          63.750  
  -4304062.051      142850.979          63.750  
    969333.947     1330747.011          63.750  
 23  3 12  0  4 46.9179355  0  8G31G 9G26G11G 6G19G 4G17
     41956.634     1625177.246          63.750  
  -3646707.313     -911296.743          63.750  
   -729165.631     -557764.409          63.750  
   -813954.515    -1292981.945          63.750  
  -3346381.751     -205287.691          63.750  
   -236278.397     1353765.339          63.750  
  -4303982.600      143260.381          63.750  
    969911.483     1333788.642          63.750  
 23  3 12  0  4 47.9179352  0  8G31G 9G26G11G 6G19G 4G17
     42619.621     1628660.896          63.750  
  -3647057.236     -913136.021          63.750  
   -729379.943     -558888.390          63.750  
   -814522.844    -1295955.769          63.750  
  -3346486.770     -205839.303          63.750  
   -235695.870     1356845.943          63.750  
  -4303904.784      143670.270          63.750  
    970491.319     1336830.229          63.750  
 23  3 12  0  4 48.9179350  0  8G31G 9G26G11G 6G19G 4G17
     43284.644     1632144.820          63.750  
  -3647407.408     -914974.872          63.750  
   -729593.112     -560011.789          63.750  
   -815087.426    -1298929.213          63.750  
  -3346591.053     -206390.236          63.750  
   -235114.219     1359926.816          63.750  
  -4303826.473      144080.650          63.750  
    971066.834     1339871.755          63.750  
 23  3 12  0  4 49.9179348  0  8G31G 9G26G11G 6G19G 4G17
     43948.577     1635629.038          63.750  
  -3647757.044     -916813.298          63.750  
   -729805.185     -561134.595          63.750  
   -815649.954    -1301902.285          63.750  
  -3346696.515     -206940.492          63.750  
   -234525.123     1363007.952          63.750  
  -4303748.389      144491.519          63.750  
    971649.613     1342913.286          63.750  
 23  3 12  0  4 50.9179345  0  8G31G 9G26G11G 6G19G 4G17
     44613.436     1639113.529          63.750  
  -3648108.146     -918651.298          63.750  
   -730025.047     -562256.824          63.750  
   -816219.646    -1304874.983          63.750  
  -3346800.855     -207490.074          63.750  
   -233938.499     1366089.340          63.750  
  -4303671.009      144902.877          63.750  
    972228.435     1345954.766          63.750  
 23  3 12  0  4 51.9179343  0  8G31G 9G26G11G 6G19G 4G17
     45273.950     1642598.296          63.750  
  -3648457.804     -920488.870          63.750  
   -730235.622     -563378.460          63.750  
   -816786.538    -1307847.298          63.750  
  -3346904.715     -208038.972          63.750  
   -233348.843     1369170.997          63.750  
  -4303592.403      145314.725          63.750  
    972808.846     1348996.187          63.750  
 23  3 12  0  4 52.9179341  0  8G31G 9G26G11G 6G19G 4G17
     45936.540     1646083.352          63.750  
  -3648807.333     -922326.018          63.750  
   -730445.361     -564499.511          63.750  
   -817350.520    -1310819.239          63.750  
  -3347007.892     -208587.193          63.750  
   -232763.004     1372252.919          63.750  
  -4303512.858      145727.062          63.750  
    973385.571     1352037.604          63.750  
 23  3 12  0  4 53.9179339  0  8G31G 9G26G11G 6G19G 4G17
     46600.072     1649568.688          63.750  
  -3649155.511     -924162.734          63.750  
   -730660.854     -565619.979          63.750  
   -817914.551    -1313790.800          63.750  
  -3347114.600     -209134.731          63.750  
   -232180.241     1375335.103          63.750  
  -4303434.662      146139.885          63.750  
    973962.485     1355078.977          63.750  
 23  3 12  0  4 54.9179336  0  8G31G 9G26G11G 6G19G 4G17
     47264.749     1653054.294          63.750  
  -3649504.332     -925999.029          63.750  
   -730872.136     -566739.858          63.750  
   -818482.591    -1316761.979          63.750  
  -3347218.111     -209681.598          63.750  
   -231591.350     1378417.549          63.750  
  -4303357.340      146553.201          63.750  
    974545.157     1358120.314          63.750  
 23  3 12  0  4 55.9179334  0  8G31G 9G26G11G 6G19G 4G17
     47929.854     1656540.189          63.750  
  -3649854.854     -927834.896          63.750  
   -731087.207     -567859.144          63.750  
   -819046.450    -1319732.783          63.750  
  -3347320.030     -210227.779          63.750  
   -231010.379     1381500.249          63.750  
  -4303277.580      146967.004          63.750  
    975121.668     1361161.614          63.750  
 23  3 12  0  4 56.9179332  0  8G31G 9G26G11G 6G19G 4G17
     48588.567     1660026.364          63.750  
  -3650205.057     -929670.337          63.750  
   -731297.017     -568977.854          63.750  
   -819612.468    -1322703.207          63.750  
  -3347424.620     -210773.290          63.750  
   -230408.168     1384583.217          63.750  
  -4303200.257      147381.296          63.750  
    975700.327     1364202.875          63.750  
 23  3 12  0  4 57.9179330  0  8G31G 9G26G11G 6G19G 4G17
     49253.950     1663512.807          63.750  
  -3650552.574     -931505.352          63.750  
   -731513.049     -570095.959          63.750  
   -820176.865    -1325673.251          63.750  
  -3347529.624     -211318.114          63.750  
   -229824.104     1387666.445          63.750  
  -4303121.260      147796.078          63.750  
    976275.263     1367244.100          63.750  
 23  3 12  0  4 58.9179327  0  8G31G 9G26G11G 6G19G 4G17
     49918.642     1666999.545          63.750  
  -3650902.285     -933339.938          63.750  
   -731725.781     -571213.490          63.750  
   -820741.918    -1328642.921          63.750  
  -3347634.558     -211862.263          63.750  
   -229240.762     1390749.930          63.750  
  -4303040.313      148211.348          63.750  
    976855.137     1370285.299          63.750  
 23  3 12  0  4 59.9179325  0  8G31G 9G26G11G 6G19G 4G17
     50581.147     1670486.554          63.750  
  -3651251.210     -935174.098          63.750  
   -731934.336     -572330.437          63.750  
   -821307.632    -1331612.208          63.750  
  -3347734.857     -212405.732          63.750  
   -228652.809     1393833.686          63.750  
  -4302961.330      148627.106          63.750  
    977434.521     1373326.454          63.750  
 23  3 12  0  5  0.9179323  0  8G31G 9G26G11G 6G19G 4G17
     51242.748     1673973.838          63.750  
  -3651599.231     -937007.836          63.750  
   -732150.686     -573446.782          63.750  
   -821868.684    -1334581.120          63.750  
  -3347839.534     -212948.522          63.750  
   -228069.065     1396917.693          63.750  
  -4302881.104      149043.354          63.750  
    977850.019     1376368.741          63.750  
 23  3 12  0  5  1.9179320  0  8G31G 9G26G11G 6G19G 4G17
     51908.655     1677461.410          63.750  
  -3651949.884     -938841.144          63.750  
   -732363.033     -574562.545          63.750  
   -822436.966    -1337549.650          63.750  
  -3347943.558     -213490.638          63.750  
   -227470.733     1400001.972          63.750  
  -4302802.019      149460.093          63.750  
    977634.421     1379409.927          63.750  
 23  3 12  0  5  2.9179318  0  8G31G 9G26G11G 6G19G 4G17
     52575.838     1680949.258          63.750  
  -3652298.123     -940674.022          63.750  
   -732576.460     -575677.722          63.750  
   -823003.944    -1340517.800          63.750  
  -3348045.781     -214032.066          63.750  
   -226894.710     1403086.509          63.750  
  -4302725.514      149877.316          63.750  
    977762.372     1382452.212          63.750  
 23  3 12  0  5  3.9179316  0  8G31G 9G26G11G 6G19G 4G17
     53238.654     1684437.382          63.750  
  -3652646.937     -942506.478          63.750  
   -732783.737     -576792.314          63.750  
   -823565.089    -1343485.574          63.750  
  -3348149.102     -214572.820          63.750  
   -226309.482     1406171.302          63.750  
  -4302644.639      150295.031          63.750  
    977791.226     1385493.235          63.750  
 23  3 12  0  5  4.9179314  0  7G31G 9G26G11G 6G19G 4
     53899.422     1687925.790          63.750  
  -3652994.332     -944338.502          63.750  
   -732999.368     -577906.315          63.750  
   -824131.391    -1346452.967          63.750  
  -3348249.842     -215112.898          63.750  
   -225721.796     1409256.355          63.750  
  -4302565.113      150713.233          63.750  
 23  3 12  0  5  5.9179311  0  7G31G 9G26G11G 6G19G 4
     54564.315     1691414.481          63.750  
  -3653344.486     -946170.104          63.750  
   -733211.591     -579019.728          63.750  
   -824693.106    -1349419.979          63.750  
  -3348354.796     -215652.295          63.750  
   -225132.146     1412341.670          63.750  
  -4302483.860      151131.926          63.750  
 23  3 12  0  5  6.9179309  0  7G31G 9G26G11G 6G19G 4
     55224.283     1694903.438          63.750  
  -3653692.758     -948001.278          63.750  
   -733420.431     -580132.556          63.750  
   -825264.838    -1352386.616          63.750  
  -3348456.783     -216191.013          63.750  
   -224542.995     1415427.240          63.750  
  -4302404.875      151551.106          63.750  
 23  3 12  0  5  7.9179307  0  7G31G 9G26G11G 6G19G 4
     55891.866     1698392.673          63.750  
  -3654041.108     -949832.025          63.750  
   -733636.162     -581244.792          63.750  
   -825828.291    -1355352.872          63.750  
  -3348555.623     -216729.053          63.750  
   -223963.228     1418513.080          63.750  
  -4302327.271      151970.776          63.750  
 23  3 12  0  5  8.9179305  0  7G31G 9G26G11G 6G19G 4
     56554.562     1701882.202          63.750  
  -3654388.597     -951662.346          63.750  
   -733846.263     -582356.443          63.750  
   -826387.399    -1358318.748          63.750  
  -3348659.024     -217266.410          63.750  
   -223372.481     1421599.181          63.750  
  -4302246.352      152390.932          63.750  
 23  3 12  0  5  9.9179302  0  7G31G 9G26G11G 6G19G 4
     57215.429     1705372.002          63.750  
  -3654736.956     -953492.240          63.750  
   -734053.752     -583467.503          63.750  
   -826954.586    -1361284.242          63.750  
  -3348762.005     -217803.093          63.750  
   -222785.599     1424685.542          63.750  
  -4302165.527      152811.580          63.750  
 23  3 12  0  5 10.9179300  0  7G31G 9G26G11G 6G19G 4
     57883.526     1708862.075          63.750  
  -3655085.882     -955321.705          63.750  
   -734267.315     -584577.979          63.750  
   -827516.250    -1364249.358          63.750  
  -3348862.298     -218339.092          63.750  
   -222199.738     1427772.153          63.750  
  -4302084.385      153232.714          63.750  
 23  3 12  0  5 11.9179298  0  7G31G 9G26G11G 6G19G 4
     58548.614     1712352.434          63.750  
  -3655433.261     -957150.744          63.750  
   -734477.912     -585687.859          63.750  
   -828082.566    -1367214.097          63.750  
  -3348966.735     -218874.415          63.750  
   -221616.364     1430859.029          63.750  
  -4302005.226      153654.337          63.750  
 23  3 12  0  5 12.9179295  0  7G31G 9G26G11G 6G19G 4
     59212.590     1715843.057          63.750  
  -3655782.819     -958979.357          63.750  
   -734687.820     -586797.161          63.750  
   -828647.314    -1370178.456          63.750  
  -3349067.848     -219409.060          63.750  
   -221022.658     1433946.171          63.750  
  -4301923.576      154076.450          63.750  
 23  3 12  0  5 13.9179293  0  7G31G 9G26G11G 6G19G 4
     59879.670     1719333.980          63.750  
  -3656128.850     -960807.543          63.750  
   -734903.565     -587905.868          63.750  
   -829210.553    -1373142.432          63.750  
  -3349169.784     -219943.026          63.750  
   -220434.474     1437033.562          63.750  
  -4301845.248      154499.050          63.750  
 23  3 12  0  5 14.9179291  0  7G31G 9G26G11G 6G19G 4
     60541.633     1722825.165          63.750  
  -3656477.870     -962635.303          63.750  
   -735111.814     -589013.990          63.750  
   -829773.682    -1376106.022          63.750  
  -3349272.672     -220476.308          63.750  
   -219844.566     1440121.224          63.750  
  -4301764.677      154922.139          63.750  
 23  3 12  0  5 15.9179289  0  7G31G 9G26G11G 6G19G 4
     61208.622     1726316.627          63.750  
  -3656824.902     -964462.634          63.750  
   -735322.566     -590121.518          63.750  
   -830339.326    -1379069.237          63.750  
  -3349371.662     -221008.911          63.750  
   -219262.487     1443209.137          63.750  
  -4301684.834      155345.716          63.750  
 23  3 12  0  5 16.9179286  0  7G31G 9G26G11G 6G19G 4
     61869.925     1729808.370          63.750  
  -3657173.240     -966289.537          63.750  
   -735534.168     -591228.458          63.750  
   -830900.158    -1382032.073          63.750  
  -3349476.062     -221540.840          63.750  
   -218678.059     1446297.308          63.750  
  -4301601.490      155769.783          63.750  
