     2.10           OBSERVATION DATA    G (GPS)             RINEX VERSION / TYPE
GOGEO               M.KREJ              20230605 180057 UTC PGM / RUN BY / DATE 
COMMENT1                                                    COMMENT             
MARKER1                                                     MARKER NAME         
                                                            MARKER NUMBER       
MKREJ               INNOVA                                  OBSERVER / AGENCY   
RCV1                                                        REC # / TYPE / VERS 
ANT1                                                        ANT # / TYPE        
  3642325.0000  1411093.3420  5025370.3360                  APPROX POSITION XYZ 
        0.0000        0.0000        0.0000                  ANTENNA: DELTA H/E/N
     1     1                                                WAVELENGTH FACT L1/2
     3    C1    L1    S1                                    # / TYPES OF OBSERV 
     1.000                                                  INTERVAL            
  2023     6     5    17    42   25.6790000     GPS         TIME OF FIRST OBS   
  2023     6     5    17    42   25.6790000     GPS         TIME OF LAST OBS    
                                                            END OF HEADER       
 23  6  5 17 42 25.6790000  0  2G 3G 9
    -20559.424                1         63.750  
   2009059.620                1         63.750  
 23  6  5 17 42 26.6790000  0  2G 3G 9
    -20347.162        1132.736          63.750  
   2008495.158       -2980.881          63.750  
 23  6  5 17 42 27.6790000  0  2G 3G 9
    -20133.196        2265.526          63.750  
   2007924.834       -5961.871          63.750  
 23  6  5 17 42 28.6790000  0  2G 3G 9
    -19917.516        3398.921          63.750  
   2007359.937       -8942.400          63.750  
 23  6  5 17 42 29.6790000  0  2G 3G 9
    -19701.426        4533.299          63.750  
   2006791.598      -11922.108          63.750  
 23  6  5 17 42 30.6790000  0  2G 3G 9
    -19483.527        5668.434          63.750  
   2006221.838      -14901.216          63.750  
 23  6  5 17 42 31.6790000  0  3G19G 3G 9
   2288566.649     -136062.349          63.750  
    -19271.260        6804.133          63.750  
   2005655.090      -17879.930          63.750  
 23  6  5 17 42 32.6790000  0  3G19G 3G 9
   2288871.287     -134464.861          63.750  
    -19053.499        7940.090          63.750  
   2005086.938      -20858.543          63.750  
 23  6  5 17 42 33.6790000  0  3G19G 3G 9
   2289176.175     -132867.073          63.750  
    -18840.652        9076.140          63.750  
   2004522.750      -23837.183          63.750  
 23  6  5 17 42 34.6790000  0  3G19G 3G 9
   2289477.763     -131268.437          63.750  
    -18623.395       10212.884          63.750  
   2003956.296      -26815.322          63.750  
 23  6  5 17 42 35.6790000  0  3G19G 3G 9
   2289781.535     -129669.297          63.750  
    -18406.008       11349.945          63.750  
   2003390.905      -29793.285          63.750  
 23  6  5 17 42 36.6790000  0  3G19G 3G 9
   2290085.806     -128069.769          63.750  
    -18187.439       12487.188          63.750  
   2002825.586      -32771.210          63.750  
 23  6  5 17 42 37.6790000  0  3G19G 3G 9
   2290392.705     -126469.638          63.750  
    -17973.430       13624.877          63.750  
   2002259.380      -35748.858          63.750  
 23  6  5 17 42 38.6790000  0  3G19G 3G 9
   2290696.506     -124869.093          63.750  
    -17756.457       14762.799          63.750  
   2001691.040      -38726.436          63.750  
 23  6  5 17 42 39.6790000  0  3G19G 3G 9
   2291000.695     -123267.575          63.750  
    -17537.455       15901.497          63.750  
   2001124.754      -41703.386          63.750  
 23  6  5 17 42 40.6790000  0  3G19G 3G 9
   2291307.066     -121665.491          63.750  
    -17322.151       17040.592          63.750  
   2000558.526      -44680.103          63.750  
 23  6  5 17 42 41.6790000  0  3G19G 3G 9
   2291614.195     -120063.062          63.750  
    -17108.188       18179.844          63.750  
   1999992.193      -47656.809          63.750  
 23  6  5 17 42 42.6790000  0  3G19G 3G 9
   2291917.658     -118459.910          63.750  
    -16894.178       19319.634          63.750  
   1999425.411      -50633.123          63.750  
 23  6  5 17 42 43.6790000  0  3G19G 3G 9
   2292221.492     -116856.142          63.750  
    -16674.264       20459.875          63.750  
   1998861.835      -53609.162          63.750  
 23  6  5 17 42 44.6790000  0  3G19G 3G 9
   2292528.766     -115251.196          63.750  
    -16458.626       21601.099          63.750  
   1998293.182      -56584.360          63.750  
 23  6  5 17 42 45.6790000  0  3G19G 3G 9
   2292831.803     -113645.312          63.750  
    -16241.596       22743.091          63.750  
   1997725.502      -59558.949          63.750  
 23  6  5 17 42 46.6790000  0  3G19G 3G 9
   2293137.836     -112039.096          63.750  
    -16018.955       23885.228          63.750  
   1997157.907      -62533.539          63.750  
 23  6  5 17 42 47.6790000  0  3G19G 3G 9
   2293441.699     -110432.743          63.750  
    -15804.663       25027.320          63.750  
   1996591.636      -65508.342          63.750  
 23  6  5 17 42 48.6790000  0  3G19G 3G 9
   2293748.892     -108826.467          63.750  
    -15585.244       26169.165          63.750  
   1996027.361      -68483.540          63.750  
 23  6  5 17 42 49.6790000  0  3G19G 3G 9
   2294055.485     -107218.980          63.750  
    -15369.323       27312.035          63.750  
   1995460.004      -71457.859          63.750  
 23  6  5 17 42 50.6790000  0  3G19G 3G 9
   2294361.642     -105610.759          63.750  
    -15150.245       28455.466          63.750  
   1994895.572      -74431.801          63.750  
 23  6  5 17 42 51.6790000  0  3G19G 3G 9
   2294667.106     -104001.997          63.750  
    -14930.889       29599.232          63.750  
   1994329.905      -77405.516          63.750  
 23  6  5 17 42 52.6790000  0  3G19G 3G 9
   2294974.017     -102392.540          63.750  
    -14713.140       30743.530          63.750  
   1993765.687      -80378.896          63.750  
 23  6  5 17 42 53.6790000  0  3G19G 3G 9
   2295280.998     -100782.190          63.750  
    -14492.571       31888.560          63.750  
   1993198.806      -83351.703          63.750  
 23  6  5 17 42 54.6790000  0  3G19G 3G 9
   2295587.052      -99171.044          63.750  
    -14275.550       33034.189          63.750  
   1992633.947      -86324.055          63.750  
 23  6  5 17 42 55.6790000  0  3G19G 3G 9
   2295894.729      -97559.667          63.750  
    -14057.502       34179.850          63.750  
   1992068.935      -89296.506          63.750  
 23  6  5 17 42 56.6790000  0  3G19G 3G 9
   2296200.684      -95947.502          63.750  
    -13840.751       35326.127          63.750  
   1991503.697      -92268.516          63.750  
 23  6  5 17 42 57.6790000  0  3G19G 3G 9
   2296505.898      -94334.257          63.750  
    -13621.063       36473.323          63.750  
   1990936.033      -95239.765          63.750  
 23  6  5 17 42 58.6790000  0  3G19G 3G 9
   2296814.880      -92720.452          63.750  
    -13403.850       37620.895          63.750  
   1990372.846      -98210.796          63.750  
 23  6  5 17 42 59.6790000  0  3G19G 3G 9
   2297121.747      -91106.170          63.750  
    -13185.847       38768.759          63.750  
   1989806.547     -101181.679          63.750  
 23  6  5 17 43  0.6790000  0  3G19G 3G 9
   2297428.928      -89491.279          63.750  
    -12967.535       39917.061          63.750  
   1989240.669     -104152.276          63.750  
 23  6  5 17 43  1.6790000  0  3G19G 3G 9
   2297735.788      -87876.135          63.750  
    -12748.102       41065.424          63.750  
   1988676.017     -107122.963          63.750  
 23  6  5 17 43  2.6790000  0  3G19G 3G 9
   2298042.810      -86260.356          63.750  
    -12528.865       42214.247          63.750  
   1988111.593     -110093.343          63.750  
 23  6  5 17 43  3.6790000  0  3G19G 3G 9
   2298350.338      -84643.562          63.750  
    -12307.257       43363.902          63.750  
   1987543.792     -113063.055          63.750  
 23  6  5 17 43  4.6790000  0  3G19G 3G 9
   2298658.915      -83026.000          63.750  
    -12090.447       44514.145          63.750  
   1986979.760     -116032.328          63.750  
 23  6  5 17 43  5.6790000  0  3G19G 3G 9
   2298966.765      -81407.645          63.750  
    -11871.347       45665.006          63.750  
   1986413.888     -119001.136          63.750  
 23  6  5 17 43  6.6790000  0  3G19G 3G 9
   2299275.452      -79788.743          63.750  
    -11655.185       46816.229          63.750  
   1985850.457     -121969.743          63.750  
 23  6  5 17 43  7.6790000  0  3G19G 3G 9
   2299582.151      -78169.476          63.750  
    -11438.022       47967.660          63.750  
   1985283.448     -124938.275          63.750  
 23  6  5 17 43  8.6790000  0  3G19G 3G 9
   2299891.457      -76549.706          63.750  
    -11217.733       49119.390          63.750  
   1984719.773     -127906.674          63.750  
 23  6  5 17 43  9.6790000  0  3G19G 3G 9
   2300198.359      -74928.848          63.750  
    -11000.961       50272.057          63.750  
   1984154.595     -130874.290          63.750  
 23  6  5 17 43 10.6790000  0  3G19G 3G 9
   2300506.174      -73307.604          63.750  
    -10780.562       51424.911          63.750  
   1983587.379     -133841.874          63.750  
 23  6  5 17 43 11.6790000  0  3G19G 3G 9
   2300814.927      -71685.462          63.750  
    -10561.817       52578.503          63.750  
   1983022.883     -136808.873          63.750  
 23  6  5 17 43 12.6790000  0  3G19G 3G 9
   2301120.812      -70062.591          63.750  
    -10341.989       53732.632          63.750  
   1982458.266     -139775.489          63.750  
 23  6  5 17 43 13.6790000  0  3G19G 3G 9
   2301430.406      -68439.229          63.750  
    -10121.465       54887.083          63.750  
   1981891.952     -142741.917          63.750  
 23  6  5 17 43 14.6790000  0  3G19G 3G 9
   2301739.823      -66815.402          63.750  
     -9902.412       56041.822          63.750  
   1981329.256     -145708.232          63.750  
 23  6  5 17 43 15.6790000  0  3G19G 3G 9
   2302049.643      -65190.319          63.750  
     -9681.519       57197.640          63.750  
   1980764.864     -148673.643          63.750  
 23  6  5 17 43 16.6790000  0  3G19G 3G 9
   2302359.539      -63564.881          63.750  
     -9462.549       58353.626          63.750  
   1980200.735     -151638.995          63.750  
 23  6  5 17 43 17.6790000  0  3G19G 3G 9
   2302668.553      -61939.029          63.750  
     -9242.119       59509.823          63.750  
   1979634.291     -154604.292          63.750  
 23  6  5 17 43 18.6790000  0  3G19G 3G 9
   2302977.948      -60312.604          63.750  
     -9022.742       60666.446          63.750  
   1979069.788     -157569.344          63.750  
 23  6  5 17 43 19.6790000  0  3G19G 3G 9
   2303288.085      -58685.352          63.750  
     -8804.082       61823.706          63.750  
   1978504.708     -160533.880          63.750  
 23  6  5 17 43 20.6790000  0  3G19G 3G 9
   2303597.219      -57057.923          63.750  
     -8583.885       62980.969          63.750  
   1977940.453     -163498.594          63.750  
 23  6  5 17 43 21.6790000  0  3G19G 3G 9
   2303907.068      -55429.952          63.750  
     -8364.198       64138.580          63.750  
   1977376.951     -166463.079          63.750  
 23  6  5 17 43 22.6790000  0  3G19G 3G 9
   2304215.723      -53801.034          63.750  
     -8144.710       65296.976          63.750  
   1976813.997     -169426.975          63.750  
 23  6  5 17 43 23.6790000  0  3G19G 3G 9
   2304526.772      -52171.321          63.750  
     -7923.863       66455.981          63.750  
   1976247.402     -172390.396          63.750  
 23  6  5 17 43 24.6790000  0  3G19G 3G 9
   2304836.641      -50541.190          63.750  
     -7705.021       67615.220          63.750  
   1975684.755     -175353.729          63.750  
 23  6  5 17 43 25.6790000  0  3G19G 3G 9
   2305146.808      -48910.073          63.750  
     -7486.077       68775.266          63.750  
   1975119.363     -178316.406          63.750  
 23  6  5 17 43 26.6790000  0  3G19G 3G 9
   2305456.832      -47278.467          63.750  
     -7266.590       69935.631          63.750  
   1974554.239     -181278.918          63.750  
 23  6  5 17 43 27.6790000  0  3G19G 3G 9
   2305767.740      -45646.197          63.750  
     -7042.647       71096.486          63.750  
   1973991.047     -184241.090          63.750  
 23  6  5 17 43 28.6790000  0  3G19G 3G 9
   2306079.222      -44013.512          63.750  
     -6820.474       72257.578          63.750  
   1973430.682     -187203.202          63.750  
 23  6  5 17 43 29.6790000  0  3G19G 3G 9
   2306389.736      -42379.986          63.750  
     -6600.221       73419.309          63.750  
   1972864.936     -190164.783          63.750  
 23  6  5 17 43 30.6790000  0  3G19G 3G 9
   2306701.604      -40746.095          63.750  
     -6375.298       74581.251          63.750  
   1972302.671     -193126.329          63.750  
 23  6  5 17 43 31.6790000  0  3G19G 3G 9
   2307013.707      -39111.418          63.750  
     -6153.572       75743.805          63.750  
   1971738.052     -196087.415          63.750  
 23  6  5 17 43 32.6790000  0  3G19G 3G 9
   2307326.675      -37476.406          63.750  
     -5929.754       76906.491          63.750  
   1971174.963     -199048.520          63.750  
 23  6  5 17 43 33.6790000  0  3G19G 3G 9
   2307636.364      -35840.725          63.750  
     -5709.488       78069.706          63.750  
   1970610.946     -202009.270          63.750  
 23  6  5 17 43 34.6790000  0  3G19G 3G 9
   2307947.696      -34203.987          63.750  
     -5487.656       79233.787          63.750  
   1970050.772     -204969.296          63.750  
 23  6  5 17 43 35.6790000  0  3G19G 3G 9
   2308258.857      -32566.687          63.750  
     -5264.166       80398.256          63.750  
   1969485.411     -207929.072          63.750  
 23  6  5 17 43 36.6790000  0  3G19G 3G 9
   2308570.581      -30928.779          63.750  
     -5042.000       81563.131          63.750  
   1968924.281     -210888.600          63.750  
 23  6  5 17 43 37.6790000  0  3G19G 3G 9
   2308881.189      -29290.533          63.750  
     -4822.423       82728.185          63.750  
   1968361.449     -213848.079          63.750  
 23  6  5 17 43 38.6790000  0  3G19G 3G 9
   2309193.099      -27650.812          63.750  
     -4598.672       83894.525          63.750  
   1967796.987     -216806.446          63.750  
 23  6  5 17 43 39.6790000  0  3G19G 3G 9
   2309504.647      -26010.334          63.750  
     -4377.340       85061.463          63.750  
   1967233.290     -219764.380          63.750  
 23  6  5 17 43 40.6790000  0  3G19G 3G 9
   2309817.580      -24370.142          63.750  
     -4156.805       86227.937          63.750  
   1966672.442     -222722.906          63.750  
 23  6  5 17 43 41.6790000  0  3G19G 3G 9
   2310129.415      -22728.611          63.750  
     -3936.643       87395.561          63.750  
   1966108.582     -225680.438          63.750  
 23  6  5 17 43 42.6790000  0  3G19G 3G 9
   2310443.197      -21086.492          63.750  
     -3713.949       88563.595          63.750  
   1965545.235     -228637.714          63.750  
 23  6  5 17 43 43.6790000  0  3G19G 3G 9
   2310753.240      -19444.243          63.750  
     -3492.941       89731.588          63.750  
   1964981.855     -231595.190          63.750  
 23  6  5 17 43 44.6790000  0  3G19G 3G 9
   2311067.455      -17801.261          63.750  
     -3270.832       90900.115          63.750  
   1964420.420     -234552.250          63.750  
 23  6  5 17 43 45.6790000  0  3G19G 3G 9
   2311381.877      -16156.806          63.750  
     -3046.759       92069.973          63.750  
   1963857.982     -237508.162          63.750  
 23  6  5 17 43 46.6790000  0  3G19G 3G 9
   2311695.921      -14512.576          63.750  
     -2824.168       93239.401          63.750  
   1963295.136     -240464.643          63.750  
 23  6  5 17 43 47.6790000  0  3G19G 3G 9
   2312006.951      -12867.940          63.750  
     -2601.209       94409.075          63.750  
   1962732.541     -243421.055          63.750  
 23  6  5 17 43 48.6790000  0  3G19G 3G 9
   2312318.990      -11222.800          63.750  
     -2377.956       95579.070          63.750  
   1962169.040     -246377.268          63.750  
 23  6  5 17 43 49.6790000  0  3G19G 3G 9
   2312631.490       -9576.722          63.750  
     -2156.601       96749.809          63.750  
   1961607.562     -249332.879          63.750  
 23  6  5 17 43 50.6790000  0  3G19G 3G 9
   2312945.608       -7929.745          63.750  
     -1931.009       97921.309          63.750  
   1961046.191     -252287.905          63.750  
 23  6  5 17 43 51.6790000  0  3G19G 3G 9
   2313258.579       -6282.290          63.750  
     -1711.146       99093.103          63.750  
   1960485.052     -255242.792          63.750  
 23  6  5 17 43 52.6790000  0  3G19G 3G 9
   2313573.148       -4633.401          63.750  
     -1489.110      100266.147          63.750  
   1959924.017     -258196.564          63.750  
 23  6  5 17 43 53.6790000  0  3G19G 3G 9
   2313887.185       -2984.205          63.750  
     -1267.321      101439.308          63.750  
   1959363.180     -261150.369          63.750  
 23  6  5 17 43 54.6790000  0  3G19G 3G 9
   2314201.236       -1335.069          63.750  
     -1042.567      102612.250          63.750  
   1958801.358     -264104.569          63.750  
 23  6  5 17 43 55.6790000  0  3G19G 3G 9
   2314514.496         314.774          63.750  
      -817.335      103785.727          63.750  
   1958239.647     -267058.352          63.750  
 23  6  5 17 43 56.6790000  0  3G19G 3G 9
   2314829.198        1965.308          63.750  
      -593.759      104959.718          63.750  
   1957677.245     -270011.779          63.750  
 23  6  5 17 43 57.6790000  0  3G19G 3G 9
   2315144.163        3616.387          63.750  
      -367.529      106134.054          63.750  
   1957116.867     -272965.017          63.750  
 23  6  5 17 43 58.6790000  0  3G19G 3G 9
   2315457.847        5267.794          63.750  
      -143.244      107308.562          63.750  
   1956555.042     -275918.223          63.750  
 23  6  5 17 43 59.6790000  0  3G19G 3G 9
   2315773.286        6920.091          63.750  
        81.482      108483.771          63.750  
   1955994.514     -278870.890          63.750  
 23  6  5 17 44  0.6790000  0  3G19G 3G 9
   2316086.635        8573.312          63.750  
       303.487      109659.724          63.750  
   1955431.843     -281822.975          63.750  
 23  6  5 17 44  1.6790000  0  3G19G 3G 9
   2316402.586       10227.562          63.750  
       524.401      110836.547          63.750  
   1954870.141     -284774.333          63.750  
 23  6  5 17 44  2.6790000  0  3G19G 3G 9
   2316717.398       11881.920          63.750  
       749.172      112013.287          63.750  
   1954307.782     -287725.889          63.750  
 23  6  5 17 44  3.6790000  0  3G19G 3G 9
   2317031.843       13536.747          63.750  
       972.854      113190.332          63.750  
   1953746.274     -290677.337          63.750  
 23  6  5 17 44  4.6790000  0  3G19G 3G 9
   2317345.438       15192.262          63.750  
      1193.235      114367.866          63.750  
   1953182.602     -293628.428          63.750  
 23  6  5 17 44  5.6790000  0  3G19G 3G 9
   2317659.390       16848.447          63.750  
      1416.329      115545.922          63.750  
   1952621.426     -296579.135          63.750  
 23  6  5 17 44  6.6790000  0  3G19G 3G 9
   2317975.004       18505.164          63.750  
      1638.050      116724.316          63.750  
   1952060.305     -299529.661          63.750  
 23  6  5 17 44  7.6790000  0  3G19G 3G 9
   2318291.074       20162.562          63.750  
      1863.032      117903.234          63.750  
   1951499.591     -302479.827          63.750  
 23  6  5 17 44  8.6790000  0  3G19G 3G 9
   2318606.414       21820.874          63.750  
      2089.039      119082.864          63.750  
   1950937.345     -305429.398          63.750  
 23  6  5 17 44  9.6790000  0  3G19G 3G 9
   2318923.394       23480.123          63.750  
      2312.677      120263.260          63.750  
   1950375.663     -308378.374          63.750  
 23  6  5 17 44 10.6790000  0  3G19G 3G 9
   2319241.078       25139.715          63.750  
      2538.126      121443.819          63.750  
   1949816.104     -311327.323          63.750  
 23  6  5 17 44 11.6790000  0  3G19G 3G 9
   2319556.104       26799.945          63.750  
      2763.522      122624.857          63.750  
   1949254.206     -314275.949          63.750  
 23  6  5 17 44 12.6790000  0  3G19G 3G 9
   2319872.352       28460.693          63.750  
      2992.680      123806.255          63.750  
   1948693.562     -317224.382          63.750  
 23  6  5 17 44 13.6790000  0  3G19G 3G 9
   2320188.404       30122.125          63.750  
      3216.874      124988.137          63.750  
   1948132.251     -320172.460          63.750  
 23  6  5 17 44 14.6790000  0  3G19G 3G 9
   2320503.429       31784.319          63.750  
      3443.861      126170.608          63.750  
   1947571.253     -323120.094          63.750  
 23  6  5 17 44 15.6790000  0  3G19G 3G 9
   2320819.840       33446.935          63.750  
      3666.122      127353.336          63.750  
   1947010.531     -326067.660          63.750  
 23  6  5 17 44 16.6790000  0  3G19G 3G 9
   2321136.130       35110.250          63.750  
      3893.325      128536.589          63.750  
   1946449.430     -329014.819          63.750  
 23  6  5 17 44 17.6790000  0  3G19G 3G 9
   2321451.494       36774.018          63.750  
      4120.496      129720.106          63.750  
   1945887.122     -331961.874          63.750  
 23  6  5 17 44 18.6790000  0  3G19G 3G 9
   2321766.521       38438.897          63.750  
      4345.017      130904.591          63.750  
   1945327.604     -334908.106          63.750  
 23  6  5 17 44 19.6790000  0  3G19G 3G 9
   2322086.200       40104.626          63.750  
      4570.604      132089.714          63.750  
   1944766.275     -337853.838          63.750  
 23  6  5 17 44 20.6790000  0  3G19G 3G 9
   2322403.944       41771.161          63.750  
      4794.401      133275.482          63.750  
   1944205.951     -340799.077          63.750  
 23  6  5 17 44 21.6790000  0  3G19G 3G 9
   2322721.729       43438.021          63.750  
      5021.765      134461.435          63.750  
   1943644.423     -343744.305          63.750  
 23  6  5 17 44 22.6790000  0  3G19G 3G 9
   2323038.503       45104.885          63.750  
      5245.736      135647.187          63.750  
   1943083.314     -346689.852          63.750  
 23  6  5 17 44 23.6790000  0  3G19G 3G 9
   2323356.555       46771.818          63.750  
      5472.802      136832.867          63.750  
   1942525.079     -349635.636          63.750  
 23  6  5 17 44 24.6790000  0  3G19G 3G 9
   2323675.316       48440.272          63.750  
      5699.296      138019.887          63.750  
   1941961.697     -352580.216          63.750  
 23  6  5 17 44 25.6790000  0  3G19G 3G 9
   2323991.915       50109.142          63.750  
      5924.212      139207.157          63.750  
   1941404.517     -355524.698          63.750  
 23  6  5 17 44 26.6790000  0  3G19G 3G 9
   2324309.559       51778.436          63.750  
      6153.363      140394.660          63.750  
   1940843.103     -358469.094          63.750  
 23  6  5 17 44 27.6790000  0  3G19G 3G 9
   2324627.523       53448.631          63.750  
      6376.809      141582.903          63.750  
   1940283.720     -361412.935          63.750  
 23  6  5 17 44 28.6790000  0  3G19G 3G 9
   2324945.157       55119.440          63.750  
      6604.820      142771.562          63.750  
   1939721.180     -364356.468          63.750  
 23  6  5 17 44 29.6790000  0  3G19G 3G 9
   2325263.106       56791.048          63.750  
      6830.760      143960.881          63.750  
   1939162.307     -367299.506          63.750  
 23  6  5 17 44 30.6790000  0  3G19G 3G 9
   2325580.257       58463.362          63.750  
      7057.354      145150.692          63.750  
   1938603.322     -370242.203          63.750  
 23  6  5 17 44 31.6790000  0  3G19G 3G 9
   2325896.217       60135.937          63.750  
      7284.624      146340.630          63.750  
   1938044.850     -373184.907          63.750  
 23  6  5 17 44 32.6790000  0  3G19G 3G 9
   2326218.266       61808.939          63.750  
      7509.918      147530.804          63.750  
   1937483.697     -376127.541          63.750  
 23  6  5 17 44 33.6790000  0  3G19G 3G 9
   2326535.380       63482.415          63.750  
      7738.288      148721.271          63.750  
   1936924.646     -379070.003          63.750  
 23  6  5 17 44 34.6790000  0  3G19G 3G 9
   2326854.819       65156.930          63.750  
      7965.215      149912.609          63.750  
   1936363.529     -382011.769          63.750  
 23  6  5 17 44 35.6790000  0  3G19G 3G 9
   2327174.904       66832.198          63.750  
      8189.630      151104.521          63.750  
   1935806.143     -384953.101          63.750  
 23  6  5 17 44 36.6790000  0  3G19G 3G 9
   2327494.136       68507.609          63.750  
      8416.308      152296.412          63.750  
   1935245.363     -387894.599          63.750  
 23  6  5 17 44 37.6790000  0  3G19G 3G 9
   2327812.614       70184.011          63.750  
      8641.493      153489.102          63.750  
   1934685.344     -390835.438          63.750  
 23  6  5 17 44 38.6790000  0  3G19G 3G 9
   2328131.931       71861.109          63.750  
      8868.509      154682.327          63.750  
   1934126.771     -393775.892          63.750  
 23  6  5 17 44 39.6790000  0  3G19G 3G 9
   2328449.119       73538.781          63.750  
      9095.437      155875.947          63.750  
   1933563.752     -396716.107          63.750  
 23  6  5 17 44 40.6790000  0  3G19G 3G 9
   2328769.733       75217.218          63.750  
      9323.226      157070.157          63.750  
   1933004.809     -399655.876          63.750  
 23  6  5 17 44 41.6790000  0  3G19G 3G 9
   2329087.680       76896.401          63.750  
      9550.140      158264.943          63.750  
   1932444.501     -402595.204          63.750  
 23  6  5 17 44 42.6790000  0  3G19G 3G 9
   2329406.555       78575.975          63.750  
      9778.376      159459.957          63.750  
   1931885.357     -405534.471          63.750  
 23  6  5 17 44 43.6790000  0  3G19G 3G 9
   2329725.708       80256.552          63.750  
     10005.014      160655.796          63.750  
   1931325.208     -408473.044          63.750  
 23  6  5 17 44 44.6790000  0  3G19G 3G 9
   2330046.036       81936.993          63.750  
     10233.371      161851.311          63.750  
   1930763.459     -411412.112          63.750  
 23  6  5 17 44 45.6790000  0  3G19G 3G 9
   2330366.497       83618.645          63.750  
     10462.105      163047.869          63.750  
   1930206.272     -414350.266          63.750  
 23  6  5 17 44 46.6790000  0  3G19G 3G 9
   2330687.986       85301.257          63.750  
     10690.316      164245.225          63.750  
   1929646.853     -417287.777          63.750  
 23  6  5 17 44 47.6790000  0  3G19G 3G 9
   2331008.823       86984.578          63.750  
     10915.437      165443.113          63.750  
   1929088.882     -420224.899          63.750  
 23  6  5 17 44 48.6790000  0  3G19G 3G 9
   2331328.347       88668.048          63.750  
     11144.011      166640.961          63.750  
   1928529.255     -423162.190          63.750  
 23  6  5 17 44 49.6790000  0  3G19G 3G 9
   2331649.987       90351.968          63.750  
     11370.404      167839.111          63.750  
   1927970.711     -426099.362          63.750  
 23  6  5 17 44 50.6790000  0  3G19G 3G 9
   2331969.935       92036.188          63.750  
     11598.774      169037.401          63.750  
   1927412.878     -429036.519          63.750  
 23  6  5 17 44 51.6790000  0  3G19G 3G 9
   2332289.361       93721.369          63.750  
     11826.046      170236.443          63.750  
   1926853.139     -431973.058          63.750  
 23  6  5 17 44 52.6790000  0  3G19G 3G 9
   2332611.117       95407.652          63.750  
     12055.551      171436.444          63.750  
   1926294.584     -434908.823          63.750  
 23  6  5 17 44 53.6790000  0  3G19G 3G 9
   2332931.268       97094.503          63.750  
     12283.376      172636.836          63.750  
   1925736.948     -437844.330          63.750  
 23  6  5 17 44 54.6790000  0  3G19G 3G 9
   2333252.475       98781.970          63.750  
     12511.982      173837.646          63.750  
   1925178.851     -440779.537          63.750  
 23  6  5 17 44 55.6790000  0  3G19G 3G 9
   2333573.916      100470.345          63.750  
     12743.107      175039.238          63.750  
   1924619.358     -443714.146          63.750  
 23  6  5 17 44 56.6790000  0  3G19G 3G 9
   2333896.084      102159.029          63.750  
     12971.804      176240.943          63.750  
   1924060.491     -446648.764          63.750  
 23  6  5 17 44 57.6790000  0  3G19G 3G 9
   2334217.108      103848.320          63.750  
     13198.523      177443.076          63.750  
   1923503.861     -449583.096          63.750  
 23  6  5 17 44 58.6790000  0  3G19G 3G 9
   2334538.380      105539.025          63.750  
     13427.509      178646.457          63.750  
   1922945.418     -452516.356          63.750  
 23  6  5 17 44 59.6790000  0  3G19G 3G 9
   2334859.490      107229.712          63.750  
     13655.665      179849.651          63.750  
   1922384.991     -455449.938          63.750  
 23  6  5 17 45  0.6790000  0  3G19G 3G 9
   2335182.234      108920.093          63.750  
     13883.777      181052.353          63.750  
   1921826.720     -458384.146          63.750  
 23  6  5 17 45  1.6790000  0  3G19G 3G 9
   2335503.410      110611.192          63.750  
     14111.612      182255.609          63.750  
   1921267.175     -461317.950          63.750  
 23  6  5 17 45  2.6790000  0  3G19G 3G 9
   2335825.692      112303.217          63.750  
     14343.314      183459.610          63.750  
   1920710.609     -464251.142          63.750  
 23  6  5 17 45  3.6790000  0  3G19G 3G 9
   2336147.577      113995.976          63.750  
     14570.461      184664.203          63.750  
   1920151.919     -467183.913          63.750  
 23  6  5 17 45  4.6790000  0  3G19G 3G 9
   2336470.545      115689.113          63.750  
     14802.054      185868.993          63.750  
   1919593.460     -470116.635          63.750  
 23  6  5 17 45  5.6790000  0  3G19G 3G 9
   2336793.514      117383.322          63.750  
     15031.301      187074.657          63.750  
   1919032.356     -473048.596          63.750  
 23  6  5 17 45  6.6790000  0  3G19G 3G 9
   2337115.386      119078.050          63.750  
     15260.421      188280.684          63.750  
   1918478.007     -475980.373          63.750  
 23  6  5 17 45  7.6790000  0  3G19G 3G 9
   2337439.472      120773.591          63.750  
     15492.303      189487.365          63.750  
   1917919.089     -478911.629          63.750  
 23  6  5 17 45  8.6790000  0  3G19G 3G 9
   2337759.921      122469.655          63.750  
     15720.908      190694.377          63.750  
   1917362.691     -481842.702          63.750  
 23  6  5 17 45  9.6790000  0  3G19G 3G 9
   2338082.104      124166.326          63.750  
     15949.919      191901.846          63.750  
   1916802.927     -484773.470          63.750  
 23  6  5 17 45 10.6790000  0  3G19G 3G 9
   2338406.569      125863.658          63.750  
     16181.245      193109.800          63.750  
   1916247.274     -487703.897          63.750  
 23  6  5 17 45 11.6790000  0  3G19G 3G 9
   2338728.280      127561.385          63.750  
     16406.115      194317.955          63.750  
   1915687.780     -490634.246          63.750  
 23  6  5 17 45 12.6790000  0  3G19G 3G 9
   2339051.807      129259.803          63.750  
     16637.965      195526.654          63.750  
   1915134.004     -493564.217          63.750  
 23  6  5 17 45 13.6790000  0  3G19G 3G 9
   2339375.190      130958.652          63.750  
     16865.562      196735.646          63.750  
   1914574.970     -496494.062          63.750  
 23  6  5 17 45 14.6790000  0  3G19G 3G 9
   2339699.756      132658.289          63.750  
     17095.319      197945.205          63.750  
   1914016.241     -499423.466          63.750  
 23  6  5 17 45 15.6790000  0  3G19G 3G 9
   2340024.099      134358.477          63.750  
     17324.896      199155.153          63.750  
   1913458.820     -502352.608          63.750  
 23  6  5 17 45 16.6790000  0  3G19G 3G 9
   2340348.380      136059.659          63.750  
     17556.404      200365.916          63.750  
   1912901.799     -505281.088          63.750  
 23  6  5 17 45 17.6790000  0  3G19G 3G 9
   2340670.952      137761.230          63.750  
     17789.667      201576.920          63.750  
   1912346.578     -508209.472          63.750  
 23  6  5 17 45 18.6790000  0  3G19G 3G 9
   2340995.149      139463.321          63.750  
     18020.830      202788.275          63.750  
   1911788.146     -511137.670          63.750  
 23  6  5 17 45 19.6790000  0  4G19G 3G 9G17
   2341319.835      141166.098          63.750  
     18248.890      204000.143          63.750  
   1911230.544     -514065.479          63.750  
   3163050.511        5387.519          63.750  
 23  6  5 17 45 20.6790000  0  4G19G 3G 9G17
   2341643.122      142870.136          63.750  
     18483.820      205213.098          63.750  
   1910674.189     -516992.372          63.750  
   3163537.274        7912.259          63.750  
 23  6  5 17 45 21.6790000  0  4G19G 3G 9G17
   2341968.411      144574.665          63.750  
     18716.527      206426.371          63.750  
   1910118.428     -519919.076          63.750  
   3164012.272       10437.205          63.750  
 23  6  5 17 45 22.6790000  0  4G19G 3G 9G17
   2342290.861      146279.591          63.750  
     18948.091      207639.875          63.750  
   1909560.978     -522845.691          63.750  
   3164492.499       12962.270          63.750  
 23  6  5 17 45 23.6790000  0  4G19G 3G 9G17
   2342615.991      147984.265          63.750  
     19178.466      208852.948          63.750  
   1909004.416     -525772.876          63.750  
   3164973.933       15486.812          63.750  
 23  6  5 17 45 24.6790000  0  4G19G 3G 9G17
   2342940.727      149689.943          63.750  
     19409.327      210066.857          63.750  
   1908447.791     -528699.365          63.750  
   3165454.694       18012.066          63.750  
 23  6  5 17 45 25.6790000  0  6G19G 3G 6G 9G31G17
   2343263.519      151396.543          63.750  
     19639.379      211281.536          63.750  
   1776475.606     -157185.991          63.750  
   1907892.100     -531625.262          63.750  
   1452917.484        4662.979          63.750  
   3165939.374       20537.964          63.750  
 23  6  5 17 45 26.6790000  0  6G19G 3G 6G 9G31G17
   2343588.678      153103.814          63.750  
     19872.036      212496.704          63.750  
   1776017.697     -159607.849          63.750  
   1907334.885     -534550.790          63.750  
   1453069.236        5424.580          63.750  
   3166415.928       23064.271          63.750  
 23  6  5 17 45 27.6790000  0  6G19G 3G 6G 9G31G17
   2343912.755      154811.464          63.750  
     20102.966      213712.070          63.750  
   1775556.157     -162029.500          63.750  
   1906778.871     -537476.267          63.750  
   1453214.978        6186.683          63.750  
   3166895.760       25590.688          63.750  
 23  6  5 17 45 28.6790000  0  6G19G 3G 6G 9G31G17
   2344238.496      156520.022          63.750  
     20336.216      214928.198          63.750  
   1775093.258     -164450.396          63.750  
   1906221.163     -540401.122          63.750  
   1453362.266        6949.806          63.750  
   3167382.004       28117.757          63.750  
 23  6  5 17 45 29.6790000  0  6G19G 3G 6G 9G31G17
   2344563.695      158229.353          63.750  
     20566.411      216144.911          63.750  
   1774632.275     -166870.707          63.750  
   1905665.241     -543325.532          63.750  
   1453501.520        7713.776          63.750  
   3167857.265       30645.293          63.750  
 23  6  5 17 45 30.6790000  0  6G19G 3G 6G 9G31G17
   2344889.535      159938.973          63.750  
     20797.552      217361.740          63.750  
   1774170.043     -169290.894          63.750  
   1905107.832     -546249.969          63.750  
   1453649.923        8478.134          63.750  
   3168337.915       33172.860          63.750  
 23  6  5 17 45 31.6790000  0  6G19G 3G 6G 9G31G17
   2345214.489      161649.406          63.750  
     21027.982      218579.245          63.750  
   1773709.969     -171710.414          63.750  
   1904551.557     -549173.894          63.750  
   1453792.447        9243.423          63.750  
   3168818.957       35700.951          63.750  
 23  6  5 17 45 32.6790000  0  6G19G 3G 6G 9G31G17
   2345541.819      163360.255          63.750  
     21260.337      219796.953          63.750  
   1773249.102     -174129.714          63.750  
   1903996.430     -552097.750          63.750  
   1453937.774       10009.202          63.750  
   3169300.689       38229.185          63.750  
 23  6  5 17 45 33.6790000  0  6G19G 3G 6G 9G31G17
   2345869.121      165072.464          63.750  
     21496.042      221015.872          63.750  
   1772791.186     -176547.814          63.750  
   1903436.385     -555020.536          63.750  
   1454084.990       10776.453          63.750  
   3169782.954       40758.479          63.750  
 23  6  5 17 45 34.6790000  0  6G19G 3G 6G 9G31G17
   2346194.693      166785.073          63.750  
     21725.793      222235.026          63.750  
   1772328.949     -178965.674          63.750  
   1902880.415     -557943.242          63.750  
   1454230.501       11544.211          63.750  
   3170266.214       43287.925          63.750  
 23  6  5 17 45 35.6790000  0  6G19G 3G 6G 9G31G17
   2346520.104      168498.091          63.750  
     21958.617      223454.406          63.750  
   1771869.892     -181383.291          63.750  
   1902324.250     -560865.853          63.750  
   1454370.109       12312.502          63.750  
   3170744.854       45817.501          63.750  
 23  6  5 17 45 36.6790000  0  6G19G 3G 6G 9G31G17
   2346844.917      170211.605          63.750  
     22192.853      224674.132          63.750  
   1771409.213     -183800.588          63.750  
   1901768.988     -563788.274          63.750  
   1454522.878       13081.368          63.750  
   3171229.015       48347.303          63.750  
 23  6  5 17 45 37.6790000  0  6G19G 3G 6G 9G31G17
   2347169.184      171925.847          63.750  
     22424.376      225894.401          63.750  
   1770949.376     -186217.321          63.750  
   1901212.177     -566710.274          63.750  
   1454669.780       13851.060          63.750  
   3171713.910       50877.544          63.750  
 23  6  5 17 45 38.6790000  0  6G19G 3G 6G 9G31G17
   2347496.892      173640.666          63.750  
     22654.686      227115.082          63.750  
   1770488.729     -188633.649          63.750  
   1900658.019     -569632.020          63.750  
   1454818.998       14621.423          63.750  
   3172192.695       53408.095          63.750  
 23  6  5 17 45 39.6790000  0  6G19G 3G 6G 9G31G17
   2347823.943      175356.362          63.750  
     22889.422      228336.479          63.750  
   1770031.869     -191049.247          63.750  
   1900101.207     -572553.216          63.750  
   1454965.349       15392.770          63.750  
   3172673.785       55939.255          63.750  
 23  6  5 17 45 40.6790000  0  6G19G 3G 6G 9G31G17
   2348151.257      177072.832          63.750  
     23119.848      229558.474          63.750  
   1769573.168     -193464.244          63.750  
   1899546.472     -575473.929          63.750  
   1455106.821       16164.997          63.750  
   3173157.894       58470.903          63.750  
 23  6  5 17 45 41.6790000  0  6G19G 3G 6G 9G31G17
   2348475.355      178790.107          63.750  
     23353.525      230781.117          63.750  
   1769115.209     -195878.591          63.750  
   1898990.850     -578394.149          63.750  
   1455253.508       16938.149          63.750  
   3173639.485       61003.091          63.750  
 23  6  5 17 45 42.6790000  0  6G19G 3G 6G 9G31G17
   2348803.470      180507.962          63.750  
     23587.080      232004.165          63.750  
   1768657.111     -198292.531          63.750  
   1898437.083     -581314.112          63.750  
   1455400.520       17711.966          63.750  
   3174120.653       63535.580          63.750  
 23  6  5 17 45 43.6790000  0  7G19G 3G 6G 9G31G17G 4
   2349129.891      182225.934          63.750  
     23818.281      233227.179          63.750  
   1768196.447     -200706.495          63.750  
   1897880.494     -584234.236          63.750  
   1455548.371       18486.024          63.750  
   3174604.263       66067.929          63.750  
     96095.436      -86954.573          63.750  
 23  6  5 17 45 44.6790000  0  7G19G 3G 6G 9G31G17G 4
   2349459.790      183944.724          63.750  
     24053.730      234450.817          63.750  
   1767736.758     -203119.837          63.750  
   1897325.352     -587153.890          63.750  
   1455700.613       19260.953          63.750  
   3175082.489       68600.818          63.750  
     95857.654      -88197.728          63.750  
 23  6  5 17 45 45.6790000  0  7G19G 3G 6G 9G31G17G 4
   2349788.271      185663.927          63.750  
     24285.854      235674.720          63.750  
   1767277.588     -205532.919          63.750  
   1896771.490     -590073.430          63.750  
   1455848.391       20036.426          63.750  
   3175565.833       71133.826          63.750  
     95622.213      -89440.567          63.750  
 23  6  5 17 45 46.6790000  0  7G19G 3G 6G 9G31G17G 4
   2350114.753      187383.602          63.750  
     24518.823      236898.933          63.750  
   1766818.604     -207945.696          63.750  
   1896211.423     -592992.793          63.750  
   1455995.159       20812.458          63.750  
   3176046.264       73667.047          63.750  
     95384.960      -90683.039          63.750  
 23  6  5 17 45 47.6790000  0  7G19G 3G 6G 9G31G17G 4
   2350441.288      189104.275          63.750  
     24751.816      238123.942          63.750  
   1766357.550     -210357.641          63.750  
   1895659.703     -595911.495          63.750  
   1456145.146       21589.611          63.750  
   3176530.090       76200.978          63.750  
     95147.267      -91924.638          63.750  
 23  6  5 17 45 48.6790000  0  7G19G 3G 6G 9G31G17G 4
   2350769.723      190825.095          63.750  
     24985.209      239348.950          63.750  
   1765899.316     -212769.610          63.750  
   1895101.953     -598830.363          63.750  
   1456290.356       22366.986          63.750  
   3177009.199       78734.776          63.750  
     94909.626      -93166.177          63.750  
 23  6  5 17 45 49.6790000  0  7G19G 3G 6G 9G31G17G 4
   2351097.026      192546.679          63.750  
     25218.572      240574.570          63.750  
   1765437.878     -215180.961          63.750  
   1894548.396     -601748.758          63.750  
   1456438.492       23145.238          63.750  
   3177491.834       81269.087          63.750  
     94674.923      -94407.053          63.750  
 23  6  5 17 45 50.6790000  0  7G19G 3G 6G 9G31G17G 4
   2351424.056      194268.873          63.750  
     25449.277      241800.593          63.750  
   1764982.824     -217591.896          63.750  
   1893991.879     -604666.877          63.750  
   1456586.419       23924.199          63.750  
   3177974.919       83803.699          63.750  
     94437.190      -95647.438          63.750  
 23  6  5 17 45 51.6790000  0  7G19G 3G 6G 9G31G17G 4
   2351751.448      195992.126          63.750  
     25684.156      243027.523          63.750  
   1764523.498     -220001.911          63.750  
   1893434.904     -607584.229          63.750  
   1456736.298       24704.304          63.750  
   3178457.751       86339.113          63.750  
     94202.194      -96886.880          63.750  
 23  6  5 17 45 52.6790000  0  7G19G 3G 6G 9G31G17G 4
   2352080.902      197716.229          63.750  
     25916.313      244255.158          63.750  
   1764065.686     -222411.232          63.750  
   1892882.581     -610501.036          63.750  
   1456886.243       25485.403          63.750  
   3178940.756       88875.105          63.750  
     93962.689      -98125.555          63.750  
 23  6  5 17 45 53.6790000  0  7G19G 3G 6G 9G31G17G 4
   2352409.798      199440.788          63.750  
     26151.834      245483.053          63.750  
   1763607.685     -224820.280          63.750  
   1892327.414     -613417.716          63.750  
   1457034.786       26267.018          63.750  
   3179425.558       91411.271          63.750  
     93727.946      -99363.905          63.750  
 23  6  5 17 45 54.6790000  0  7G19G 3G 6G 9G31G17G 4
   2352736.530      201165.501          63.750  
     26385.421      246710.940          63.750  
   1763148.538     -227229.338          63.750  
   1891772.524     -616334.547          63.750  
   1457185.030       27048.919          63.750  
   3179907.803       93947.330          63.750  
     93492.749     -100602.195          63.750  
 23  6  5 17 45 55.6790000  0  7G19G 3G 6G 9G31G17G 4
   2353063.651      202890.709          63.750  
     26615.578      247939.173          63.750  
   1762689.942     -229638.039          63.750  
   1891218.558     -619251.193          63.750  
   1457333.106       27831.403          63.750  
   3180394.036       96483.593          63.750  
     93258.723     -101840.089          63.750  
 23  6  5 17 45 56.6790000  0  7G19G 3G 6G 9G31G17G 4
   2353392.360      204616.454          63.750  
     26848.834      249167.756          63.750  
   1762229.927     -232046.379          63.750  
   1890662.887     -622167.611          63.750  
   1457484.294       28614.527          63.750  
   3180874.262       99020.112          63.750  
     93022.190     -103077.549          63.750  
 23  6  5 17 45 57.6790000  0  7G19G 3G 6G 9G31G17G 4
   2353721.728      206342.715          63.750  
     27083.309      250396.704          63.750  
   1761775.058     -234454.373          63.750  
   1890108.478     -625083.821          63.750  
   1457633.096       29398.287          63.750  
   3181358.139      101556.873          63.750  
     92790.124     -104314.601          63.750  
 23  6  5 17 45 58.6790000  0  7G19G 3G 6G 9G31G17G 4
   2354052.663      208069.660          63.750  
     27315.278      251626.168          63.750  
   1761314.954     -236861.835          63.750  
   1889554.786     -627999.646          63.750  
   1457782.449       30182.815          63.750  
   3181839.493      104094.068          63.750  
     92552.081     -105551.066          63.750  
 23  6  5 17 45 59.6790000  0  7G19G 3G 6G 9G31G17G 4
   2354381.203      209797.402          63.750  
     27550.247      252856.240          63.750  
   1760856.822     -239268.665          63.750  
   1888998.158     -630915.011          63.750  
   1457931.113       30968.234          63.750  
   3182321.463      106631.754          63.750  
     92318.513     -106786.864          63.750  
 23  6  5 17 46  0.6790000  0  7G19G 3G 6G 9G31G17G 4
   2354708.015      211525.579          63.750  
     27784.397      254086.603          63.750  
   1760401.389     -241675.223          63.750  
   1888445.768     -633830.220          63.750  
   1458082.775       31754.211          63.750  
   3182803.368      109169.629          63.750  
     92082.740     -108022.323          63.750  
 23  6  5 17 46  1.6790000  0  7G19G 3G 6G 9G31G17G 4
   2355037.970      213254.416          63.750  
     28018.695      255317.466          63.750  
   1759941.890     -244081.269          63.750  
   1887889.660     -636745.095          63.750  
   1458232.806       32540.940          63.750  
   3183281.199      111707.865          63.750  
     91847.405     -109257.218          63.750  
 23  6  5 17 46  2.6790000  0  7G19G 3G 6G 9G31G17G 4
   2355364.359      214984.528          63.750  
     28254.713      256549.424          63.750  
   1759483.220     -246486.208          63.750  
   1887334.809     -639658.991          63.750  
   1458385.257       33329.033          63.750  
   3183764.931      114247.126          63.750  
     91612.737     -110490.932          63.750  
 23  6  5 17 46  3.6790000  0  7G19G 3G 6G 9G31G17G 4
   2355696.056      216714.645          63.750  
     28489.531      257781.204          63.750  
   1759027.084     -248891.324          63.750  
   1886782.150     -642573.214          63.750  
   1458534.240       34117.255          63.750  
   3184245.989      116786.082          63.750  
     91380.400     -111724.794          63.750  
 23  6  5 17 46  4.6790000  0  7G19G 3G 6G 9G31G17G 4
   2356023.237      218445.729          63.750  
     28724.396      259013.801          63.750  
   1758569.633     -251295.628          63.750  
   1886224.446     -645486.760          63.750  
   1458684.040       34906.532          63.750  
   3184729.053      119325.750          63.750  
     91143.909     -112957.758          63.750  
 23  6  5 17 46  5.6790000  0  7G19G 3G 6G 9G31G17G 4
   2356353.670      220177.291          63.750  
     28962.059      260246.701          63.750  
   1758111.740     -253699.613          63.750  
   1885670.732     -648400.157          63.750  
   1458830.909       35696.384          63.750  
   3185211.923      121865.596          63.750  
     90907.088     -114190.370          63.750  
 23  6  5 17 46  6.6790000  0  7G19G 3G 6G 9G31G17G 4
   2356682.694      221909.276          63.750  
     29196.471      261479.853          63.750  
   1757652.281     -256103.345          63.750  
   1885118.199     -651313.424          63.750  
   1458983.914       36486.763          63.750  
   3185695.789      124405.593          63.750  
     90673.700     -115422.646          63.750  
 23  6  5 17 46  7.6790000  0  7G19G 3G 6G 9G31G17G 4
   2357014.208      223641.942          63.750  
     29431.047      262713.539          63.750  
   1757196.484     -258506.551          63.750  
   1884562.220     -654226.331          63.750  
   1459132.953       37277.921          63.750  
   3186179.902      126946.018          63.750  
     90438.889     -116654.354          63.750  
 23  6  5 17 46  8.6790000  0  7G19G 3G 6G 9G31G17G 4
   2357342.337      225375.515          63.750  
     29668.163      263947.964          63.750  
   1756738.308     -260908.996          63.750  
   1884007.672     -657138.620          63.750  
   1459282.634       38070.110          63.750  
   3186666.870      129487.056          63.750  
     90206.086     -117885.246          63.750  
 23  6  5 17 46  9.6790000  0  7G19G 3G 6G 9G31G17G 4
   2357672.969      227109.581          63.750  
     29901.459      265182.692          63.750  
   1756280.730     -263311.119          63.750  
   1883451.939     -660050.736          63.750  
   1459434.156       38862.895          63.750  
   3187151.212      132028.342          63.750  
     89971.153     -119115.757          63.750  
 23  6  5 17 46 10.6790000  0  7G19G 3G 6G 9G31G17G 4
   2358003.754      228843.916          63.750  
     30135.227      266417.543          63.750  
   1755825.064     -265713.138          63.750  
   1882898.289     -662962.896          63.750  
   1459583.839       39656.030          63.750  
   3187638.321      134569.584          63.750  
     89737.812     -120346.113          63.750  
 23  6  5 17 46 11.6790000  0  7G19G 3G 6G 9G31G17G 4
   2358335.588      230578.941          63.750  
     30367.586      267652.885          63.750  
   1755367.721     -268114.644          63.750  
   1882344.677     -665874.684          63.750  
   1459735.316       40449.965          63.750  
   3188120.958      137111.242          63.750  
     89501.914     -121575.888          63.750  
 23  6  5 17 46 12.6790000  0  7G19G 3G 6G 9G31G17G 4
   2358667.729      232314.881          63.750  
     30602.566      268889.010          63.750  
   1754911.303     -270515.363          63.750  
   1881790.945     -668785.850          63.750  
   1459885.473       41244.912          63.750  
   3188603.573      139653.548          63.750  
     89268.716     -122804.867          63.750  
 23  6  5 17 46 13.6790000  0  7G19G 3G 6G 9G31G17G 4
   2358998.563      234051.084          63.750  
     30837.888      270125.224          63.750  
   1754455.958     -272916.001          63.750  
   1881235.501     -671697.070          63.750  
   1460037.600       42040.232          63.750  
   3189087.944      142195.841          63.750  
     89036.553     -124033.646          63.750  
 23  6  5 17 46 14.6790000  0  7G19G 3G 6G 9G31G17G 4
   2359326.822      235788.415          63.750  
     31074.109      271362.379          63.750  
   1753997.167     -275315.666          63.750  
   1880680.470     -674607.463          63.750  
   1460188.208       42836.771          63.750  
   3189566.916      144738.975          63.750  
     88802.712     -125261.427          63.750  
 23  6  5 17 46 15.6790000  0  7G19G 3G 6G 9G31G17G 4
   2359656.405      237526.240          63.750  
     31309.622      272599.876          63.750  
   1753542.509     -277714.996          63.750  
   1880127.638     -677517.680          63.750  
   1460345.111       43633.903          63.750  
   3190050.999      147282.336          63.750  
     88569.837     -126488.817          63.750  
 23  6  5 17 46 16.6790000  0  7G19G 3G 6G 9G31G17G 4
   2359987.216      239264.476          63.750  
     31545.034      273837.618          63.750  
   1753085.691     -280114.084          63.750  
   1879573.289     -680427.791          63.750  
   1460494.186       44431.551          63.750  
   3190530.343      149825.815          63.750  
     88332.384     -127715.903          63.750  
 23  6  5 17 46 17.6790000  0  7G19G 3G 6G 9G31G17G 4
   2360318.633      241003.426          63.750  
     31781.851      275075.897          63.750  
   1752628.919     -282512.611          63.750  
   1879021.714     -683337.502          63.750  
   1460648.569       45229.998          63.750  
   3191016.069      152369.735          63.750  
     88103.396     -128942.372          63.750  
 23  6  5 17 46 18.6790000  0  7G19G 3G 6G 9G31G17G 4
   2360650.050      242742.962          63.750  
     32017.002      276314.607          63.750  
   1752171.367     -284910.716          63.750  
   1878466.808     -686246.931          63.750  
   1460799.204       46029.177          63.750  
   3191499.634      154913.981          63.750  
     87865.586     -130168.366          63.750  
 23  6  5 17 46 19.6790000  0  7G19G 3G 6G 9G31G17G 4
   2360980.055      244483.610          63.750  
     32252.822      277554.250          63.750  
   1751715.737     -287307.855          63.750  
   1877914.277     -689155.550          63.750  
   1460952.339       46829.532          63.750  
   3191985.683      157459.074          63.750  
     87634.111     -131393.338          63.750  
 23  6  5 17 46 20.6790000  0  7G19G 3G 6G 9G31G17G 4
   2361311.197      246224.621          63.750  
     32489.915      278794.097          63.750  
   1751259.931     -289704.805          63.750  
   1877362.487     -692064.125          63.750  
   1461104.996       47630.361          63.750  
   3192466.649      160004.228          63.750  
     87402.394     -132618.074          63.750  
 23  6  5 17 46 21.6790000  0  7G19G 3G 6G 9G31G17G 4
   2361643.683      247966.071          63.750  
     32725.425      280034.239          63.750  
   1750802.740     -292101.453          63.750  
   1876810.231     -694972.544          63.750  
   1461257.121       48431.753          63.750  
   3192950.538      162549.554          63.750  
     87168.440     -133842.453          63.750  
 23  6  5 17 46 22.6790000  0  7G19G 3G 6G 9G31G17G 4
   2361976.365      249707.982          63.750  
     32962.661      281274.644          63.750  
   1750347.863     -294497.832          63.750  
   1876256.554     -697880.837          63.750  
   1461410.654       49233.683          63.750  
   3193436.572      165095.052          63.750  
     86937.669     -135066.507          63.750  
 23  6  5 17 46 23.6790000  0  7G19G 3G 6G 9G31G17G 4
   2362306.073      251450.894          63.750  
     33197.835      282515.895          63.750  
   1749892.511     -296893.345          63.750  
   1875701.867     -700788.418          63.750  
   1461564.667       50036.721          63.750  
   3193924.211      167641.287          63.750  
     86702.021     -136289.623          63.750  
 23  6  5 17 46 24.6790000  0  7G19G 3G 6G 9G31G17G 4
   2362639.301      253194.323          63.750  
     33433.397      283757.489          63.750  
   1749437.276     -299288.507          63.750  
   1875148.854     -703695.803          63.750  
   1461716.972       50840.368          63.750  
   3194408.764      170187.759          63.750  
     86469.706     -137512.367          63.750  
 23  6  5 17 46 25.6790000  0  7G19G 3G 6G 9G31G17G 4
   2362970.438      254938.085          63.750  
     33668.166      284999.277          63.750  
   1748979.467     -301683.486          63.750  
   1874596.660     -706603.147          63.750  
   1461870.985       51644.456          63.750  
   3194892.099      172734.275          63.750  
     86236.248     -138734.850          63.750  
 23  6  5 17 46 26.6790000  0  7G19G 3G 6G 9G31G17G 4
   2363302.581      256682.265          63.750  
     33904.172      286241.305          63.750  
   1748525.178     -304078.219          63.750  
   1874040.104     -709510.383          63.750  
   1462024.768       52449.076          63.750  
   3195377.630      175280.979          63.750  
     86003.309     -139957.024          63.750  
 23  6  5 17 46 27.6790000  0  7G19G 3G 6G 9G31G17G 4
   2363634.191      258427.513          63.750  
     34141.240      287484.223          63.750  
   1748069.290     -306472.046          63.750  
   1873486.620     -712416.867          63.750  
   1462177.510       53254.851          63.750  
   3195861.339      177828.435          63.750  
     85770.593     -141178.231          63.750  
 23  6  5 17 46 28.6790000  0  7G19G 3G 6G 9G31G17G 4
   2363966.377      260173.598          63.750  
     34376.520      288727.834          63.750  
   1747614.720     -308865.169          63.750  
   1872934.570     -715322.824          63.750  
   1462330.661       54061.587          63.750  
   3196345.989      180376.454          63.750  
     85539.164     -142398.681          63.750  
 23  6  5 17 46 29.6790000  0  7G19G 3G 6G 9G31G17G 4
   2364298.375      261920.018          63.750  
     34614.449      289971.585          63.750  
   1747158.210     -311258.137          63.750  
   1872381.107     -718228.734          63.750  
   1462482.799       54868.736          63.750  
   3196831.483      182924.536          63.750  
     85306.265     -143618.956          63.750  
 23  6  5 17 46 30.6790000  0  7G19G 3G 6G 9G31G17G 4
   2364630.421      263666.922          63.750  
     34851.352      291215.669          63.750  
   1746703.800     -313650.764          63.750  
   1871830.068     -721134.468          63.750  
   1462636.227       55676.495          63.750  
   3197314.873      185472.836          63.750  
     85076.133     -144838.810          63.750  
 23  6  5 17 46 31.6790000  0  7G19G 3G 6G 9G31G17G 4
   2364963.125      265414.407          63.750  
     35088.821      292460.184          63.750  
   1746245.541     -316042.947          63.750  
   1871276.204     -724039.923          63.750  
   1462790.491       56484.940          63.750  
   3197798.124      188021.452          63.750  
     84841.973     -146058.172          63.750  
 23  6  5 17 46 32.6790000  0  7G19G 3G 6G 9G31G17G 4
   2365295.258      267162.301          63.750  
     35325.222      293704.919          63.750  
   1745792.131     -318434.907          63.750  
   1870722.923     -726945.277          63.750  
   1462943.352       57293.875          63.750  
   3198283.852      190570.181          63.750  
     84609.555     -147277.250          63.750  
 23  6  5 17 46 33.6790000  0  7G19G 3G 6G 9G31G17G 4
   2365629.091      268911.146          63.750  
     35562.817      294950.459          63.750  
   1745336.498     -320826.062          63.750  
   1870169.796     -729849.996          63.750  
   1463098.787       58103.893          63.750  
   3198769.365      193119.593          63.750  
     84377.496     -148495.469          63.750  
 23  6  5 17 46 34.6790000  0  7G19G 3G 6G 9G31G17G 4
   2365962.729      270660.527          63.750  
     35798.960      296196.358          63.750  
   1744880.924     -323216.832          63.750  
   1869619.742     -732754.491          63.750  
   1463251.743       58914.535          63.750  
   3199250.815      195669.232          63.750  
     84147.104     -149713.272          63.750  
 23  6  5 17 46 35.6790000  0  7G19G 3G 6G 9G31G17G 4
   2366298.305      272410.617          63.750  
     36037.368      297442.808          63.750  
   1744426.762     -325607.068          63.750  
   1869068.162     -735658.565          63.750  
   1463406.981       59725.998          63.750  
   3199742.441      198219.349          63.750  
     83914.642     -150930.452          63.750  
 23  6  5 17 46 36.6790000  0  7G19G 3G 6G 9G31G17G 4
   2366628.577      274161.177          63.750  
     36273.576      298689.554          63.750  
   1743969.957     -327996.986          63.750  
   1868512.523     -738562.473          63.750  
   1463561.513       60538.028          63.750  
   3200224.148      200769.640          63.750  
     83684.395     -152147.274          63.750  
 23  6  5 17 46 37.6790000  0  7G19G 3G 6G 9G31G17G 4
   2366962.869      275912.471          63.750  
     36510.951      299936.884          63.750  
   1743516.546     -330386.319          63.750  
   1867962.049     -741465.966          63.750  
   1463716.079       61350.884          63.750  
   3200710.428      203320.368          63.750  
     83454.946     -153363.462          63.750  
 23  6  5 17 46 38.6790000  0  7G19G 3G 6G 9G31G17G 4
   2367295.810      277664.501          63.750  
     36748.280      301184.775          63.750  
   1743060.928     -332775.067          63.750  
   1867410.233     -744369.008          63.750  
   1463871.463       62164.602          63.750  
   3201195.408      205871.603          63.750  
     83225.728     -154579.011          63.750  
 23  6  5 17 46 39.6790000  0  7G19G 3G 6G 9G31G17G 4
   2367628.365      279417.234          63.750  
     36982.688      302433.227          63.750  
   1742608.518     -335163.277          63.750  
   1866857.339     -747271.664          63.750  
   1464026.020       62979.109          63.750  
   3201681.698      208423.223          63.750  
     82992.130     -155793.958          63.750  
 23  6  5 17 46 40.6790000  0  7G19G 3G 6G 9G31G17G 4
   2367963.402      281170.580          63.750  
     37219.898      303682.090          63.750  
   1742153.823     -337551.029          63.750  
   1866306.489     -750174.016          63.750  
   1464180.700       63794.336          63.750  
   3202166.900      210975.198          63.750  
     82761.331     -157008.412          63.750  
 23  6  5 17 46 41.6790000  0  7G19G 3G 6G 9G31G17G 4
   2368296.169      282924.665          63.750  
     37459.131      304931.552          63.750  
   1741698.000     -339938.201          63.750  
   1865751.518     -753075.936          63.750  
   1464336.219       64610.400          63.750  
   3202651.555      213527.600          63.750  
     82529.115     -158222.226          63.750  
 23  6  5 17 46 42.6790000  0  7G19G 3G 6G 9G31G17G 4
   2368629.392      284679.295          63.750  
     37692.984      306181.385          63.750  
   1741243.684     -342324.980          63.750  
   1865199.422     -755977.605          63.750  
   1464488.490       65427.123          63.750  
   3203137.913      216080.319          63.750  
     82297.133     -159435.573          63.750  
 23  6  5 17 46 43.6790000  0  7G19G 3G 6G 9G31G17G 4
   2368965.112      286434.673          63.750  
     37933.334      307431.795          63.750  
   1740790.979     -344711.166          63.750  
   1864645.625     -758878.850          63.750  
   1464645.685       66244.688          63.750  
   3203624.219      218633.491          63.750  
     82063.487     -160648.294          63.750  
 23  6  5 17 46 44.6790000  0  7G19G 3G 6G 9G31G17G 4
   2369299.278      288190.530          63.750  
     38172.787      308682.539          63.750  
   1740335.742     -347097.021          63.750  
   1864095.098     -761779.896          63.750  
   1464800.085       67062.856          63.750  
   3204109.692      221186.877          63.750  
     81830.701     -161860.612          63.750  
 23  6  5 17 46 45.6790000  0  7G19G 3G 6G 9G31G17G 4
   2369633.663      289947.084          63.750  
     38410.497      309933.796          63.750  
   1739883.337     -349482.330          63.750  
   1863540.015     -764680.566          63.750  
   1464958.476       67881.814          63.750  
   3204598.463      223740.639          63.750  
     81602.496     -163072.358          63.750  
 23  6  5 17 46 46.6790000  0  7G19G 3G 6G 9G31G17G 4
   2369969.001      291704.329          63.750  
     38650.383      311185.588          63.750  
   1739427.082     -351867.118          63.750  
   1862990.946     -767580.813          63.750  
   1465112.677       68701.584          63.750  
   3205084.408      226294.881          63.750  
     81369.593     -164283.485          63.750  
 23  6  5 17 46 47.6790000  0  7G19G 3G 6G 9G31G17G 4
   2370303.311      293462.233          63.750  
     38887.771      312437.865          63.750  
   1738973.999     -354251.391          63.750  
   1862438.305     -770480.737          63.750  
   1465269.333       69522.104          63.750  
   3205568.901      228849.470          63.750  
     81138.863     -165494.099          63.750  
 23  6  5 17 46 48.6790000  0  7G19G 3G 6G 9G31G17G 4
   2370638.561      295220.498          63.750  
     39127.382      313690.350          63.750  
   1738520.843     -356635.461          63.750  
   1861886.427     -773380.597          63.750  
   1465426.615       70343.078          63.750  
   3206055.001      231404.154          63.750  
     80908.559     -166704.417          63.750  
 23  6  5 17 46 49.6790000  0  7G19G 3G 6G 9G31G17G 4
   2370972.527      296979.140          63.750  
     39365.002      314943.054          63.750  
   1738066.113     -359019.309          63.750  
   1861334.114     -776280.380          63.750  
   1465582.683       71164.556          63.750  
   3206539.864      233958.942          63.750  
     80679.340     -167914.478          63.750  
 23  6  5 17 46 50.6790000  0  7G19G 3G 6G 9G31G17G 4
   2371306.437      298738.390          63.750  
     39602.640      316196.184          63.750  
   1737613.577     -361402.700          63.750  
   1860781.581     -779179.859          63.750  
   1465739.075       71986.731          63.750  
   3207025.766      236514.047          63.750  
     80446.607     -169124.022          63.750  
 23  6  5 17 46 51.6790000  0  7G19G 3G 6G 9G31G17G 4
   2371641.708      300498.552          63.750  
     39843.651      317450.093          63.750  
   1737160.323     -363785.328          63.750  
   1860231.677     -782078.715          63.750  
   1465899.096       72809.921          63.750  
   3207508.543      239069.804          63.750  
     80217.344     -170332.749          63.750  
 23  6  5 17 46 52.6790000  0  7G19G 3G 6G 9G31G17G 4
   2371976.110      302259.081          63.750  
     40082.668      318704.183          63.750  
   1736707.356     -366167.736          63.750  
   1859678.283     -784977.540          63.750  
   1466055.375       73633.588          63.750  
   3207998.422      241625.627          63.750  
     79984.597     -171541.193          63.750  
 23  6  5 17 46 53.6790000  0  7G19G 3G 6G 9G31G17G 4
   2372309.813      304020.040          63.750  
     40322.182      319958.546          63.750  
   1736254.375     -368549.880          63.750  
   1859128.353     -787876.204          63.750  
   1466210.266       74457.786          63.750  
   3208483.849      244181.602          63.750  
     79756.109     -172749.323          63.750  
 23  6  5 17 46 54.6790000  0  7G19G 3G 6G 9G31G17G 4
   2372646.709      305781.678          63.750  
     40558.985      321213.421          63.750  
   1735800.867     -370931.487          63.750  
   1858576.666     -790774.498          63.750  
   1466366.901       75282.783          63.750  
   3208972.621      246737.998          63.750  
     79526.015     -173956.886          63.750  
 23  6  5 17 46 55.6790000  0  7G19G 3G 6G 9G31G17G 4
   2372981.233      307544.019          63.750  
     40799.534      322468.826          63.750  
   1735348.718     -373312.549          63.750  
   1858024.802     -793672.412          63.750  
   1466522.126       76108.555          63.750  
   3209462.130      249294.822          63.750  
     79292.427     -175163.826          63.750  
 23  6  5 17 46 56.6790000  0  7G19G 3G 6G 9G31G17G 4
   2373317.847      309306.848          63.750  
     41038.603      323724.564          63.750  
   1734894.106     -375693.278          63.750  
   1857472.340     -796570.131          63.750  
   1466676.853       76934.945          63.750  
   3209945.753      251851.855          63.750  
     79066.192     -176370.416          63.750  
 23  6  5 17 46 57.6790000  0  7G19G 3G 6G 9G31G17G 4
   2373652.189      311070.338          63.750  
     41277.541      324980.787          63.750  
   1734442.124     -378073.503          63.750  
   1856921.755     -799467.479          63.750  
   1466837.420       77762.082          63.750  
   3210428.466      254409.266          63.750  
     78835.521     -177576.413          63.750  
 23  6  5 17 46 58.6790000  0  7G19G 3G 6G 9G31G17G 4
   2373987.564      312834.318          63.750  
     41514.741      326237.354          63.750  
   1733987.913     -380453.383          63.750  
   1856370.625     -802364.646          63.750  
   1466994.584       78589.832          63.750  
   3210920.129      256966.869          63.750  
     78607.938     -178782.042          63.750  
 23  6  5 17 46 59.6790000  0  7G19G 3G 6G 9G31G17G 4
   2374322.594      314599.030          63.750  
     41754.278      327494.497          63.750  
   1733536.543     -382832.683          63.750  
   1855818.480     -805261.392          63.750  
   1467152.365       79418.414          63.750  
   3211403.666      259524.973          63.750  
     78377.061     -179987.000          63.750  
 23  6  5 17 47  0.6790000  0  7G19G 3G 6G 9G31G17G 4
   2374658.104      316364.289          63.750  
     41995.771      328751.999          63.750  
   1733082.963     -385211.593          63.750  
   1855268.115     -808157.875          63.750  
   1467312.155       80247.635          63.750  
   3211887.800      262083.317          63.750  
     78146.254     -181191.564          63.750  
 23  6  5 17 47  1.6790000  0  7G19G 3G 6G 9G31G17G 4
   2374995.040      318130.398          63.750  
     42233.075      330010.217          63.750  
   1732629.750     -387589.783          63.750  
   1854715.990     -811053.812          63.750  
   1467464.516       81077.835          63.750  
   3212375.360      264642.269          63.750  
     77920.582     -182395.322          63.750  
 23  6  5 17 47  2.6790000  0  7G19G 3G 6G 9G31G17G 4
   2375330.861      319897.255          63.750  
     42473.217      331269.000          63.750  
   1732178.961     -389967.400          63.750  
   1854165.312     -813949.328          63.750  
   1467626.636       81908.872          63.750  
   3212863.986      267201.646          63.750  
     77687.699     -183598.462          63.750  
 23  6  5 17 47  3.6790000  0  7G19G 3G 6G 9G31G17G 4
   2375667.358      321664.507          63.750  
     42713.205      332528.038          63.750  
   1731725.328     -392344.754          63.750  
   1853615.923     -816844.713          63.750  
   1467779.760       82740.417          63.750  
   3213348.458      269761.156          63.750  
     77460.705     -184801.283          63.750  
 23  6  5 17 47  4.6790000  0  7G19G 3G 6G 9G31G17G 4
   2376003.399      323432.198          63.750  
     42953.238      333787.326          63.750  
   1731275.394     -394721.846          63.750  
   1853063.303     -819739.992          63.750  
   1467939.611       83572.486          63.750  
   3213835.193      272320.836          63.750  
     77231.975     -186003.801          63.750  
 23  6  5 17 47  5.6790000  0  7G19G 3G 6G 9G31G17G 4
   2376340.395      325200.863          63.750  
     43191.840      335047.441          63.750  
   1730822.944     -397098.087          63.750  
   1852513.597     -822634.577          63.750  
   1468099.816       84405.660          63.750  
   3214323.660      274881.227          63.750  
     77003.863     -187205.415          63.750  
 23  6  5 17 47  6.6790000  0  7G19G 3G 6G 9G31G17G 4
   2376676.328      326970.844          63.750  
     43431.439      336308.700          63.750  
   1730371.902     -399473.183          63.750  
   1851959.268     -825528.151          63.750  
   1468259.500       85240.256          63.750  
   3214814.705      277442.625          63.750  
     76773.549     -188405.828          63.750  
 23  6  5 17 47  7.6790000  0  7G19G 3G 6G 9G31G17G 4
   2377013.779      328740.536          63.750  
     43670.669      337569.528          63.750  
   1729919.083     -401848.694          63.750  
   1851409.471     -828422.308          63.750  
   1468417.801       86074.666          63.750  
   3215302.161      280003.481          63.750  
     76550.628     -189606.596          63.750  
 23  6  5 17 47  8.6790000  0  7G19G 3G 6G 9G31G17G 4
   2377351.173      330511.073          63.750  
     43912.122      338831.021          63.750  
   1729467.421     -404223.537          63.750  
   1850859.243     -831315.920          63.750  
   1468576.609       86910.010          63.750  
   3215785.444      282564.929          63.750  
     76320.891     -190806.654          63.750  
 23  6  5 17 47  9.6790000  0  7G19G 3G 6G 9G31G17G 4
   2377687.767      332282.023          63.750  
     44153.432      340092.765          63.750  
   1729017.096     -406598.097          63.750  
   1850308.137     -834209.428          63.750  
   1468736.318       87745.890          63.750  
   3216276.696      285126.482          63.750  
     76092.397     -192006.366          63.750  
 23  6  5 17 47 10.6790000  0  7G19G 3G 6G 9G31G17G 4
   2378024.089      334053.532          63.750  
     44394.129      341354.922          63.750  
   1728563.722     -408972.251          63.750  
   1849759.131     -837102.676          63.750  
   1468895.187       88582.423          63.750  
   3216765.904      287688.295          63.750  
     75867.299     -193205.650          63.750  
 23  6  5 17 47 11.6790000  0  7G19G 3G 6G 9G31G17G 4
   2378361.450      335825.804          63.750  
     44632.312      342617.664          63.750  
   1728112.890     -411345.789          63.750  
   1849207.645     -839995.464          63.750  
   1469055.442       89419.829          63.750  
   3217247.562      290250.639          63.750  
     75639.828     -194404.268          63.750  
 23  6  5 17 47 12.6790000  0  7G19G 3G 6G 9G31G17G 4
   2378700.520      337598.981          63.750  
     44875.434      343881.142          63.750  
   1727661.999     -413718.598          63.750  
   1848658.594     -842887.640          63.750  
   1469211.793       90258.240          63.750  
   3217738.428      292813.583          63.750  
     75408.622     -195602.064          63.750  
 23  6  5 17 47 13.6790000  0  7G19G 3G 6G 9G31G17G 4
   2379037.101      339372.936          63.750  
     45114.632      345145.259          63.750  
   1727210.046     -416090.744          63.750  
   1848109.572     -845779.337          63.750  
   1469374.135       91097.551          63.750  
   3218224.368      295377.039          63.750  
     75185.844     -196799.172          63.750  
 23  6  5 17 47 14.6790000  0  7G19G 3G 6G 9G31G17G 4
   2379374.743      341147.862          63.750  
     45357.405      346410.175          63.750  
   1726757.696     -418462.076          63.750  
   1847562.031     -848670.372          63.750  
   1469532.833       91937.939          63.750  
   3218712.546      297941.189          63.750  
     74954.615     -197995.415          63.750  
 23  6  5 17 47 15.6790000  0  7G19G 3G 6G 9G31G17G 4
   2379712.766      342923.275          63.750  
     45598.183      347675.419          63.750  
   1726306.561     -420833.082          63.750  
   1847009.315     -851561.213          63.750  
   1469692.356       92778.904          63.750  
   3219203.763      300505.549          63.750  
     74729.154     -199191.279          63.750  
 23  6  5 17 47 16.6790000  0  7G19G 3G 6G 9G31G17G 4
   2380051.086      344698.953          63.750  
     45839.146      348940.759          63.750  
   1725854.829     -423203.954          63.750  
   1846460.521     -854452.095          63.750  
   1469851.941       93620.251          63.750  
   3219693.955      303069.888          63.750  
     74502.191     -200386.979          63.750  
 23  6  5 17 47 17.6790000  0  7G19G 3G 6G 9G31G17G 4
   2380388.707      346475.174          63.750  
     46081.121      350206.499          63.750  
   1725404.104     -425574.440          63.750  
   1845910.422     -857342.718          63.750  
   1470010.452       94462.261          63.750  
   3220180.667      305634.527          63.750  
     74271.133     -201582.204          63.750  
 23  6  5 17 47 18.6790000  0  7G19G 3G 6G 9G31G17G 4
   2380726.697      348251.950          63.750  
     46323.590      351472.598          63.750  
   1724953.924     -427944.533          63.750  
   1845360.716     -860233.100          63.750  
   1470171.555       95304.909          63.750  
   3220667.600      308199.411          63.750  
     74046.736     -202776.995          63.750  
 23  6  5 17 47 19.6790000  0  7G19G 3G 6G 9G31G17G 4
   2381062.812      350029.425          63.750  
     46563.383      352739.276          63.750  
   1724503.142     -430314.050          63.750  
   1844812.709     -863123.061          63.750  
   1470330.791       96148.378          63.750  
   3221155.920      310764.730          63.750  
     73812.380     -203971.174          63.750  
 23  6  5 17 47 20.6790000  0  7G19G 3G 6G 9G31G17G 4
   2381402.242      351807.458          63.750  
     46804.076      354006.336          63.750  
   1724051.911     -432683.171          63.750  
   1844260.472     -866012.779          63.750  
   1470491.737       96992.508          63.750  
   3221641.264      313330.341          63.750  
     73591.601     -205164.903          63.750  
 23  6  5 17 47 21.6790000  0  7G19G 3G 6G 9G31G17G 4
   2381740.500      353586.411          63.750  
     47044.911      355274.147          63.750  
   1723600.309     -435051.529          63.750  
   1843711.085     -868901.871          63.750  
   1470652.179       97837.657          63.750  
   3222132.169      315896.578          63.750  
     73358.596     -206357.800          63.750  
 23  6  5 17 47 22.6790000  0  7G19G 3G 6G 9G31G17G 4
   2382079.020      355365.704          63.750  
     47286.783      356542.131          63.750  
   1723150.138     -437419.684          63.750  
   1843159.704     -871790.929          63.750  
   1470813.797       98683.232          63.750  
   3222618.057      318462.891          63.750  
     73133.369     -207550.443          63.750  
 23  6  5 17 47 23.6790000  0  7G19G 3G 6G 9G31G17G 4
   2382417.121      357145.758          63.750  
     47526.974      357810.723          63.750  
   1722699.296     -439787.225          63.750  
   1842610.808     -874679.520          63.750  
   1470974.603       99529.699          63.750  
   3223108.037      321029.662          63.750  
     72907.814     -208742.441          63.750  
 23  6  5 17 47 24.6790000  0  7G19G 3G 6G 9G31G17G 4
   2382757.120      358926.122          63.750  
     47768.322      359079.440          63.750  
   1722248.247     -442154.629          63.750  
   1842061.727     -877568.105          63.750  
   1471133.818      100376.565          63.750  
   3223596.775      323596.498          63.750  
     72680.061     -209934.229          63.750  
 23  6  5 17 47 25.6790000  0  7G19G 3G 6G 9G31G17G 4
   2383094.997      360707.344          63.750  
     48009.764      360348.901          63.750  
   1721797.965     -444521.293          63.750  
   1841511.537     -880456.131          63.750  
   1471297.918      101224.388          63.750  
   3224084.588      326163.891          63.750  
     72457.496     -211125.251          63.750  
 23  6  5 17 47 26.6790000  0  7G19G 3G 6G 9G31G17G 4
   2383435.928      362489.266          63.750  
     48248.728      361618.856          63.750  
   1721346.471     -446887.438          63.750  
   1840964.216     -883343.749          63.750  
   1471460.652      102073.016          63.750  
   3224571.638      328731.718          63.750  
     72229.243     -212315.686          63.750  
 23  6  5 17 47 27.6790000  0  7G19G 3G 6G 9G31G17G 4
   2383774.470      364271.390          63.750  
     48491.960      362888.865          63.750  
   1720898.667     -449253.481          63.750  
   1840413.322     -886231.474          63.750  
   1471625.295      102921.962          63.750  
   3225057.271      331299.485          63.750  
     72006.073     -213505.979          63.750  
 23  6  5 17 47 28.6790000  0  7G19G 3G 6G 9G31G17G 4
   2384114.982      366054.188          63.750  
     48733.636      364159.395          63.750  
   1720449.228     -451619.032          63.750  
   1839863.831     -889118.831          63.750  
   1471787.646      103771.675          63.750  
   3225546.549      333867.607          63.750  
     71781.191     -214695.716          63.750  
 23  6  5 17 47 29.6790000  0  7G19G 3G 6G 9G31G17G 4
   2384453.960      367837.685          63.750  
     48975.411      365430.450          63.750  
   1719998.382     -453984.016          63.750  
   1839314.291     -892005.764          63.750  
   1471947.516      104622.188          63.750  
   3226035.737      336436.188          63.750  
     71552.696     -215884.865          63.750  
 23  6  5 17 47 30.6790000  0  7G19G 3G 6G 9G31G17G 4
   2384792.565      369621.783          63.750  
     49218.953      366701.957          63.750  
   1719548.997     -456348.542          63.750  
   1838765.224     -894892.393          63.750  
   1472110.204      105473.439          63.750  
   3226523.406      339005.072          63.750  
     71330.799     -217073.500          63.750  
 23  6  5 17 47 31.6790000  0  7G19G 3G 6G 9G31G17G 4
   2385132.302      371406.349          63.750  
     49461.541      367973.769          63.750  
   1719100.717     -458712.744          63.750  
   1838218.667     -897778.854          63.750  
   1472272.322      106325.262          63.750  
   3227011.674      341574.157          63.750  
     71101.080     -218261.731          63.750  
 23  6  5 17 47 32.6790000  0  7G19G 3G 6G 9G31G17G 4
   2385471.985      373191.314          63.750  
     49707.464      369245.819          63.750  
   1718650.547     -461076.688          63.750  
   1837667.555     -900665.213          63.750  
   1472435.710      107177.566          63.750  
   3227503.351      344143.365          63.750  
     70875.313     -219449.686          63.750  
 23  6  5 17 47 33.6790000  0  7G19G 3G 6G 9G31G17G 4
   2385810.190      374977.250          63.750  
     49949.417      370518.683          63.750  
   1718201.954     -463439.817          63.750  
   1837119.277     -903550.900          63.750  
   1472598.663      108030.984          63.750  
   3227987.441      346713.278          63.750  
     70651.433     -220636.772          63.750  
 23  6  5 17 47 34.6790000  0  7G19G 3G 6G 9G31G17G 4
   2386151.068      376763.719          63.750  
     50191.766      371791.920          63.750  
   1717751.882     -465802.560          63.750  
   1836568.706     -906436.349          63.750  
   1472761.249      108885.019          63.750  
   3228483.996      349283.443          63.750  
     70427.031     -221823.406          63.750  
 23  6  5 17 47 35.6790000  0  7G19G 3G 6G 9G31G17G 4
   2386492.133      378551.252          63.750  
     50431.687      373066.051          63.750  
   1717299.737     -468164.368          63.750  
   1836022.208     -909321.029          63.750  
   1472921.743      109740.242          63.750  
   3228969.771      351854.399          63.750  
     70200.579     -223009.074          63.750  
 23  6  5 17 47 36.6790000  0  7G19G 3G 6G 9G31G17G 4
   2386832.796      380339.475          63.750  
     50673.885      374340.724          63.750  
   1716850.795     -470525.655          63.750  
   1835469.707     -912205.322          63.750  
   1473083.977      110596.236          63.750  
   3229459.021      354425.731          63.750  
     69976.258     -224194.163          63.750  
 23  6  5 17 47 37.6790000  0  7G19G 3G 6G 9G31G17G 4
   2387174.211      382128.160          63.750  
     50915.716      375615.696          63.750  
   1716399.612     -472886.609          63.750  
   1834921.186     -915089.438          63.750  
   1473247.419      111452.814          63.750  
   3229950.256      356997.291          63.750  
     69750.291     -225378.860          63.750  
 23  6  5 17 47 38.6790000  0  7G19G 3G 6G 9G31G17G 4
   2387514.658      383917.556          63.750  
     51154.824      376891.219          63.750  
   1715951.141     -475247.005          63.750  
   1834371.815     -917973.132          63.750  
   1473412.407      112310.212          63.750  
   3230440.195      359569.280          63.750  
     69526.183     -226562.961          63.750  
 23  6  5 17 47 39.6790000  0  7G19G 3G 6G 9G31G17G 4
   2387856.812      385707.576          63.750  
     51398.585      378167.186          63.750  
   1715501.418     -477606.920          63.750  
   1833822.834     -920856.526          63.750  
   1473578.763      113168.334          63.750  
   3230928.612      362141.583          63.750  
     69300.208     -227746.527          63.750  
 23  6  5 17 47 40.6790000  0  7G19G 3G 6G 9G31G17G 4
   2388197.319      387498.106          63.750  
     51640.780      379443.526          63.750  
   1715054.069     -479966.467          63.750  
   1833273.439     -923739.694          63.750  
   1473737.650      114027.094          63.750  
   3231418.030      364714.139          63.750  
     69077.378     -228929.677          63.750  
 23  6  5 17 47 41.6790000  0  7G19G 3G 6G 9G31G17G 4
   2388537.897      389289.154          63.750  
     51881.783      380720.226          63.750  
   1714604.376     -482325.645          63.750  
   1832726.104     -926622.638          63.750  
   1473901.827      114886.468          63.750  
   3231903.509      367286.941          63.750  
     68852.208     -230112.416          63.750  
 23  6  5 17 47 42.6790000  0  7G19G 3G 6G 9G31G17G 4
   2388878.768      391081.092          63.750  
     52128.541      381997.641          63.750  
   1714156.462     -484684.085          63.750  
   1832178.705     -929504.981          63.750  
   1474064.018      115746.849          63.750  
   3232398.646      369860.339          63.750  
     68627.978     -231294.354          63.750  
 23  6  5 17 47 43.6790000  0  7G19G 3G 6G 9G31G17G 4
   2389219.150      392873.800          63.750  
     52369.170      383275.678          63.750  
   1713709.182     -487041.886          63.750  
   1831630.028     -932386.861          63.750  
   1474227.271      116608.096          63.750  
   3232889.232      372434.246          63.750  
     68404.596     -232475.611          63.750  
 23  6  5 17 47 44.6790000  0  7G19G 3G 6G 9G31G17G 4
   2389561.229      394666.915          63.750  
     52614.768      384553.967          63.750  
   1713260.562     -489399.415          63.750  
   1831082.386     -935268.604          63.750  
   1474391.550      117469.861          63.750  
   3233373.979      375008.292          63.750  
     68178.962     -233656.554          63.750  
 23  6  5 17 47 45.6790000  0  7G19G 3G 6G 9G31G17G 4
   2389901.521      396460.630          63.750  
     52857.698      385832.700          63.750  
   1712812.812     -491756.497          63.750  
   1830533.056     -938150.072          63.750  
   1474557.279      118332.348          63.750  
   3233869.553      377582.652          63.750  
     67952.556     -234836.992          63.750  
 23  6  5 17 47 46.6790000  0  7G19G 3G 6G 9G31G17G 4
   2390244.283      398255.062          63.750  
     53102.617      387111.975          63.750  
   1712364.346     -494113.006          63.750  
   1829983.036     -941031.114          63.750  
   1474720.619      119195.646          63.750  
   3234353.348      380157.488          63.750  
     67729.406     -236016.800          63.750  
 23  6  5 17 47 47.6790000  0  7G19G 3G 6G 9G31G17G 4
   2390587.115      400050.054          63.750  
     53344.360      388391.643          63.750  
   1711916.120     -496469.101          63.750  
   1829437.144     -943911.898          63.750  
   1474882.398      120059.623          63.750  
   3234845.931      382732.573          63.750  
     67504.118     -237196.166          63.750  
 23  6  5 17 47 48.6790000  0  7G19G 3G 6G 9G31G17G 4
   2390927.751      401845.762          63.750  
     53587.335      389671.879          63.750  
   1711468.835     -498824.617          63.750  
   1828888.273     -946792.239          63.750  
   1475049.182      120924.410          63.750  
   3235332.256      385308.106          63.750  
     67280.751     -238374.891          63.750  
 23  6  5 17 47 49.6790000  0  7G19G 3G 6G 9G31G17G 4
   2391271.103      403642.136          63.750  
     53828.086      390952.636          63.750  
   1711019.658     -501179.600          63.750  
   1828340.361     -949672.215          63.750  
   1475213.980      121789.996          63.750  
   3235825.923      387884.021          63.750  
     67054.149     -239553.047          63.750  
 23  6  5 17 47 50.6790000  0  7G19G 3G 6G 9G31G17G 4
   2391611.570      405439.042          63.750  
     54070.795      392233.737          63.750  
   1710570.774     -503534.208          63.750  
   1827792.242     -952551.965          63.750  
   1475378.904      122656.188          63.750  
   3236314.406      390460.193          63.750  
     66829.069     -240730.776          63.750  
 23  6  5 17 47 51.6790000  0  7G19G 3G 6G 9G31G17G 4
   2391953.805      407236.543          63.750  
     54317.552      393515.270          63.750  
   1710124.328     -505888.369          63.750  
   1827244.081     -955431.418          63.750  
   1475544.265      123523.103          63.750  
   3236808.630      393036.688          63.750  
     66605.747     -241907.998          63.750  
 23  6  5 17 47 52.6790000  0  7G19G 3G 6G 9G31G17G 4
   2392296.235      409034.802          63.750  
     54557.983      394797.432          63.750  
   1709674.788     -508241.896          63.750  
   1826695.099     -958310.400          63.750  
   1475710.521      124390.875          63.750  
   3237295.400      395613.657          63.750  
     66380.720     -243084.559          63.750  
 23  6  5 17 47 53.6790000  0  7G19G 3G 6G 9G31G17G 4
   2392638.043      410833.732          63.750  
     54802.962      396080.082          63.750  
   1709228.696     -510594.913          63.750  
   1826145.891     -961189.002          63.750  
   1475872.462      125259.423          63.750  
   3237783.822      398191.007          63.750  
     66159.605     -244260.548          63.750  
 23  6  5 17 47 54.6790000  0  7G19G 3G 6G 9G31G17G 4
   2392979.367      412632.881          63.750  
     55046.741      397362.793          63.750  
   1708779.644     -512947.856          63.750  
   1825598.135     -964067.679          63.750  
   1476039.112      126128.305          63.750  
   3238277.032      400768.282          63.750  
     65936.011     -245436.408          63.750  
 23  6  5 17 47 55.6790000  0  7G19G 3G 6G 9G31G17G 4
   2393322.569      414431.935          63.750  
     55293.213      398645.262          63.750  
   1708330.208     -515301.020          63.750  
   1825048.903     -966946.737          63.750  
   1476201.708      126997.202          63.750  
   3238767.334      403345.222          63.750  
     65711.969     -246612.437          63.750  
 23  6  5 17 47 56.6790000  0  7G19G 3G 6G 9G31G17G 4
   2393665.238      416231.727          63.750  
     55537.027      399928.327          63.750  
   1707882.992     -517653.584          63.750  
   1824502.726     -969825.372          63.750  
   1476367.583      127866.941          63.750  
   3239259.154      405922.621          63.750  
     65489.929     -247787.847          63.750  
 23  6  5 17 47 57.6790000  0  7G19G 3G 6G 9G31G17G 4
   2394008.821      418032.445          63.750  
     55781.842      401212.128          63.750  
   1707434.146     -520005.402          63.750  
   1823954.466     -972703.363          63.750  
   1476537.271      128737.709          63.750  
   3239749.403      408500.643          63.750  
     65265.392     -248962.428          63.750  
 23  6  5 17 47 58.6790000  0  7G19G 3G 6G 9G31G17G 4
   2394351.997      419833.694          63.750  
     56028.061      402496.320          63.750  
   1706987.538     -522356.784          63.750  
   1823405.539     -975581.106          63.750  
   1476706.278      129609.137          63.750  
   3240239.197      411078.940          63.750  
     65044.035     -250136.551          63.750  
 23  6  5 17 47 59.6790000  0  7G19G 3G 6G 9G31G17G 4
   2394694.695      421635.253          63.750  
     56271.522      403780.659          63.750  
   1706541.571     -524708.025          63.750  
   1822858.442     -978458.841          63.750  
   1476872.946      130480.955          63.750  
   3240729.945      413657.252          63.750  
     64820.802     -251310.460          63.750  
 23  6  5 17 48  0.6790000  0  7G19G 3G 6G 9G31G17G 4
   2395036.590      423437.455          63.750  
     56519.107      405065.482          63.750  
   1706093.838     -527058.763          63.750  
   1822310.455     -981336.224          63.750  
   1477037.817      131353.532          63.750  
   3241221.413      416235.965          63.750  
     64597.413     -252483.829          63.750  
 23  6  5 17 48  1.6790000  0  7G19G 3G 6G 9G31G17G 4
   2395380.807      425240.292          63.750  
     56764.465      406350.787          63.750  
   1705648.107     -529408.980          63.750  
   1821764.855     -984213.265          63.750  
   1477203.979      132226.851          63.750  
   3241710.091      418815.008          63.750  
     64374.174     -253656.642          63.750  
 23  6  5 17 48  2.6790000  0  7G19G 3G 6G 9G31G17G 4
   2395723.534      427043.935          63.750  
     57009.585      407636.736          63.750  
   1705199.139     -531758.553          63.750  
   1821216.437     -987089.789          63.750  
   1477367.688      133101.086          63.750  
   3242200.545      421394.565          63.750  
     64146.931     -254828.756          63.750  
 23  6  5 17 48  3.6790000  0  7G19G 3G 6G 9G31G17G 4
   2396066.910      428848.578          63.750  
     57256.146      408923.536          63.750  
   1704754.165     -534107.247          63.750  
   1820668.826     -989965.608          63.750  
   1477535.598      133976.430          63.750  
   3242689.513      423974.868          63.750  
     63926.975     -255999.954          63.750  
 23  6  5 17 48  4.6790000  0  7G19G 3G 6G 9G31G17G 4
   2396408.845      430653.786          63.750  
     57501.157      410210.726          63.750  
   1704308.576     -536455.536          63.750  
   1820122.432     -992841.160          63.750  
   1477699.197      134852.437          63.750  
   3243185.696      426555.460          63.750  
     63701.789     -257170.693          63.750  
 23  6  5 17 48  5.6790000  0  7G19G 3G 6G 9G31G17G 4
   2396752.688      432459.471          63.750  
     57746.252      411498.236          63.750  
   1703861.487     -538803.480          63.750  
   1819576.126     -995716.516          63.750  
   1477866.395      135729.055          63.750  
   3243675.221      429136.216          63.750  
     63478.287     -258341.037          63.750  
 23  6  5 17 48  6.6790000  0  7G19G 3G 6G 9G31G17G 4
   2397096.644      434265.822          63.750  
     57990.119      412786.275          63.750  
   1703413.347     -541150.903          63.750  
   1819029.759     -998591.521          63.750  
   1478033.452      136606.417          63.750  
   3244169.229      431717.378          63.750  
     63254.254     -259510.801          63.750  
 23  6  5 17 48  7.6790000  0  7G19G 3G 6G 9G31G17G 4
   2397439.991      436072.901          63.750  
     58234.973      414074.851          63.750  
   1702966.731     -543497.739          63.750  
   1818482.184    -1001466.080          63.750  
   1478200.520      137484.623          63.750  
   3244662.740      434298.999          63.750  
     63028.650     -260679.947          63.750  
 23  6  5 17 48  8.6790000  0  7G19G 3G 6G 9G31G17G 4
   2397783.642      437880.427          63.750  
     58478.327      415363.741          63.750  
   1702519.629     -545844.260          63.750  
   1817936.108    -1004340.474          63.750  
   1478369.877      138363.390          63.750  
   3245154.558      436880.791          63.750  
     62808.990     -261848.714          63.750  
 23  6  5 17 48  9.6790000  0  7G19G 3G 6G 9G31G17G 4
   2398128.124      439688.096          63.750  
     58724.199      416652.610          63.750  
   1702072.633     -548190.774          63.750  
   1817387.416    -1007215.035          63.750  
   1478537.175      139242.390          63.750  
   3245648.087      439462.440          63.750  
     62587.299     -263017.438          63.750  
 23  6  5 17 48 10.6790000  0  7G19G 3G 6G 9G31G17G 4
   2398473.531      441496.056          63.750  
     58971.397      417941.601          63.750  
   1701624.746     -550537.145          63.750  
   1816840.760    -1010089.598          63.750  
   1478700.965      140121.820          63.750  
   3246135.687      442044.110          63.750  
     62365.716     -264185.979          63.750  
 23  6  5 17 48 11.6790000  0  7G19G 3G 6G 9G31G17G 4
   2398818.144      443304.939          63.750  
     59217.452      419231.369          63.750  
   1701177.783     -552882.741          63.750  
   1816294.808    -1012963.511          63.750  
   1478868.136      141002.275          63.750  
   3246627.945      444626.419          63.750  
     62141.836     -265353.682          63.750  
 23  6  5 17 48 12.6790000  0  7G19G 3G 6G 9G31G17G 4
   2399160.551      445114.536          63.750  
     59464.947      420521.683          63.750  
   1700731.133     -555227.762          63.750  
   1815746.565    -1015837.022          63.750  
   1479037.820      141883.543          63.750  
   3247118.811      447209.172          63.750  
     61921.098     -266520.767          63.750  
 23  6  5 17 48 13.6790000  0  7G19G 3G 6G 9G31G17G 4
   2399504.740      446924.567          63.750  
     59707.505      421812.288          63.750  
   1700286.989     -557572.466          63.750  
   1815199.067    -1018710.370          63.750  
   1479206.586      142765.371          63.750  
   3247612.462      449792.062          63.750  
     61699.984     -267687.491          63.750  
 23  6  5 17 48 14.6790000  0  7G19G 3G 6G 9G31G17G 4
   2399848.756      448735.748          63.750  
     59954.954      423103.895          63.750  
   1699840.931     -559916.168          63.750  
   1814651.631    -1021582.855          63.750  
   1479375.701      143648.446          63.750  
   3248102.208      452375.861          63.750  
     61475.557     -268853.155          63.750  
 23  6  5 17 48 15.6790000  0  7G19G 3G 6G 9G31G17G 4
   2400192.905      450547.559          63.750  
     60202.002      424395.949          63.750  
   1699396.531     -562259.378          63.750  
   1814105.519    -1024455.021          63.750  
   1479543.183      144532.256          63.750  
   3248595.998      454960.000          63.750  
     61255.013     -270018.308          63.750  
 23  6  5 17 48 16.6790000  0  7G19G 3G 6G 9G31G17G 4
   2400537.152      452359.958          63.750  
     60447.739      425688.450          63.750  
   1698950.312     -564602.137          63.750  
   1813559.354    -1027326.874          63.750  
   1479714.929      145416.769          63.750  
   3249084.051      457544.451          63.750  
     61035.934     -271182.955          63.750  
 23  6  5 17 48 17.6790000  0  7G19G 3G 6G 9G31G17G 4
   2400883.255      454173.119          63.750  
     60693.548      426981.550          63.750  
   1698505.517     -566944.269          63.750  
   1813012.853    -1030198.272          63.750  
   1479880.027      146302.159          63.750  
   3249579.279      460129.371          63.750  
     60811.549     -272346.919          63.750  
 23  6  5 17 48 18.6790000  0  7G19G 3G 6G 9G31G17G 4
   2401228.383      455986.766          63.750  
     60939.339      428274.981          63.750  
   1698059.975     -569286.047          63.750  
   1812465.730    -1033069.454          63.750  
   1480048.826      147188.128          63.750  
   3250071.177      462714.507          63.750  
     60591.137     -273510.487          63.750  
 23  6  5 17 48 19.6790000  0  7G19G 3G 6G 9G31G17G 4
   2401573.361      457800.738          63.750  
     61181.964      429568.580          63.750  
   1697614.659     -571627.644          63.750  
   1811919.283    -1035940.623          63.750  
   1480215.129      148074.537          63.750  
   3250565.360      465299.696          63.750  
     60365.718     -274673.848          63.750  
 23  6  5 17 48 20.6790000  0  7G19G 3G 6G 9G31G17G 4
   2401919.128      459614.933          63.750  
     61428.588      430862.232          63.750  
   1697169.406     -573969.155          63.750  
   1811372.299    -1038811.842          63.750  
   1480383.047      148961.280          63.750  
   3251056.132      467884.822          63.750  
     60145.239     -275837.058          63.750  
 23  6  5 17 48 21.6790000  0  7G19G 3G 6G 9G31G17G 4
   2402264.966      461430.048          63.750  
     61675.507      432156.653          63.750  
   1696724.878     -576309.896          63.750  
   1810826.734    -1041682.432          63.750  
   1480550.328      149849.063          63.750  
   3251553.013      470470.603          63.750  
     59924.043     -276999.402          63.750  
 23  6  5 17 48 22.6790000  0  7G19G 3G 6G 9G31G17G 4
   2402611.089      463246.053          63.750  
     61919.305      433451.808          63.750  
   1696278.600     -578649.875          63.750  
   1810279.941    -1044552.443          63.750  
   1480719.970      150737.832          63.750  
   3252041.458      473057.000          63.750  
     59702.905     -278161.016          63.750  
 23  6  5 17 48 23.6790000  0  7G19G 3G 6G 9G31G17G 4
   2402954.641      465062.461          63.750  
     62162.062      434747.222          63.750  
   1695832.282     -580989.578          63.750  
   1809735.492    -1047422.340          63.750  
   1480891.106      151627.112          63.750  
   3252534.332      475643.506          63.750  
     59479.323     -279322.289          63.750  
 23  6  5 17 48 24.6790000  0  7G19G 3G 6G 9G31G17G 4
   2403300.488      466879.695          63.750  
     62410.175      436043.281          63.750  
   1695385.990     -583328.608          63.750  
   1809187.730    -1050291.692          63.750  
   1481063.376      152517.332          63.750  
   3253025.655      478230.555          63.750  
     59260.592     -280482.825          63.750  
 23  6  5 17 48 25.6790000  0  7G19G 3G 6G 9G31G17G 4
   2403645.665      468697.403          63.750  
     62659.002      437339.673          63.750  
   1694939.351     -585667.287          63.750  
   1808641.402    -1053160.858          63.750  
   1481234.688      153408.131          63.750  
   3253519.429      480817.808          63.750  
     59039.777     -281642.979          63.750  
 23  6  5 17 48 26.6790000  0  7G19G 3G 6G 9G31G17G 4
   2403991.012      470515.521          63.750  
     62902.642      438636.331          63.750  
   1694494.466     -588005.696          63.750  
   1808097.347    -1056029.877          63.750  
   1481403.844      154299.451          63.750  
   3254008.753      483405.194          63.750  
     58817.811     -282802.794          63.750  
 23  6  5 17 48 27.6790000  0  7G19G 3G 6G 9G31G17G 4
   2404337.536      472334.382          63.750  
     63147.201      439933.567          63.750  
   1694048.972     -590343.503          63.750  
   1807551.947    -1058898.479          63.750  
   1481573.020      155191.626          63.750  
   3254504.235      485993.051          63.750  
     58594.759     -283961.979          63.750  
 23  6  5 17 48 28.6790000  0  7G19G 3G 6G 9G31G17G 4
   2404685.065      474153.995          63.750  
     63397.293      441231.396          63.750  
   1693605.087     -592680.685          63.750  
   1807007.149    -1061766.594          63.750  
   1481743.542      156084.663          63.750  
   3254997.690      488581.370          63.750  
     58375.506     -285120.482          63.750  
 23  6  5 17 48 29.6790000  0  7G19G 3G 6G 9G31G17G 4
   2405030.151      475974.172          63.750  
     63643.266      442529.635          63.750  
   1693161.742     -595017.458          63.750  
   1806458.299    -1064634.453          63.750  
   1481914.217      156978.386          63.750  
   3255487.349      491169.999          63.750  
     58154.086     -286278.523          63.750  
 23  6  5 17 48 30.6790000  0  7G19G 3G 6G 9G31G17G 4
   2405377.866      477795.052          63.750  
     63890.935      443828.397          63.750  
   1692715.916     -597353.650          63.750  
   1805915.212    -1067501.896          63.750  
   1482081.275      157872.900          63.750  
   3255985.020      493759.031          63.750  
     57927.890     -287435.966          63.750  
 23  6  5 17 48 31.6790000  0  7G19G 3G 6G 9G31G17G 4
   2405724.547      479616.507          63.750  
     64139.436      445127.612          63.750  
   1692272.825     -599689.387          63.750  
   1805368.854    -1070369.051          63.750  
   1482254.695      158768.112          63.750  
   3256475.715      496348.387          63.750  
     57714.319     -288592.908          63.750  
 23  6  5 17 48 32.6790000  0  7G19G 3G 6G 9G31G17G 4
   2406071.064      481438.773          63.750  
     64385.897      446427.462          63.750  
   1691827.635     -602024.475          63.750  
   1804824.844    -1073235.689          63.750  
   1482424.452      159664.240          63.750  
   3256968.766      498938.239          63.750  
     57490.104     -289749.115          63.750  
 23  6  5 17 48 33.6790000  0  7G19G 3G 6G 9G31G17G 4
   2406418.023      483261.794          63.750  
     64630.209      447727.908          63.750  
   1691384.362     -604358.926          63.750  
   1804278.286    -1076101.853          63.750  
   1482599.092      160561.236          63.750  
   3257463.182      501528.582          63.750  
     57270.682     -290904.669          63.750  
 23  6  5 17 48 34.6790000  0  7G19G 3G 6G 9G31G17G 4
   2406764.600      485084.922          63.750  
     64880.584      449028.325          63.750  
   1690938.427     -606693.408          63.750  
   1803735.102    -1078968.201          63.750  
   1482768.842      161458.451          63.750  
   3257954.419      504118.773          63.750  
     57050.924     -292060.202          63.750  
 23  6  5 17 48 35.6790000  0  7G19G 3G 6G 9G31G17G 4
   2407109.932      486908.188          63.750  
     65126.106      450328.690          63.750  
   1690493.962     -609027.888          63.750  
   1803189.080    -1081834.700          63.750  
   1482939.518      162355.910          63.750  
   3258442.268      506708.824          63.750  
     56832.818     -293215.712          63.750  
 23  6  5 17 48 36.6790000  0  7G19G 3G 6G 9G31G17G 4
   2407458.100      488732.441          63.750  
     65378.115      451629.902          63.750  
   1690050.671     -611361.516          63.750  
   1802642.358    -1084700.500          63.750  
   1483111.347      163254.465          63.750  
   3258940.053      509299.552          63.750  
     56611.333     -294370.306          63.750  
 23  6  5 17 48 37.6790000  0  7G19G 3G 6G 9G31G17G 4
   2407804.702      490556.633          63.750  
     65622.033      452930.923          63.750  
   1689605.146     -613695.322          63.750  
   1802095.336    -1087566.634          63.750  
   1483280.588      164153.083          63.750  
   3259429.992      511889.979          63.750  
     56393.611     -295525.031          63.750  
 23  6  5 17 48 38.6790000  0  7G19G 3G 6G 9G31G17G 4
   2408152.845      492382.070          63.750  
     65870.985      454233.013          63.750  
   1689161.570     -616028.034          63.750  
   1801552.340    -1090431.817          63.750  
   1483449.488      165053.044          63.750  
   3259928.279      514481.349          63.750  
     56173.123     -296678.612          63.750  
 23  6  5 17 48 39.6790000  0  7G19G 3G 6G 9G31G17G 4
   2408499.950      494208.061          63.750  
     66120.473      455535.497          63.750  
   1688717.916     -618360.313          63.750  
   1801007.626    -1093296.733          63.750  
   1483621.222      165953.672          63.750  
   3260419.122      517073.011          63.750  
     55957.218     -297831.737          63.750  
 23  6  5 17 48 40.6790000  0  7G19G 3G 6G 9G31G17G 4
   2408848.564      496034.524          63.750  
     66367.515      456838.331          63.750  
   1688272.385     -620692.257          63.750  
   1800460.968    -1096161.453          63.750  
   1483792.053      166854.894          63.750  
   3260916.279      519664.852          63.750  
     55735.705     -298984.467          63.750  
 23  6  5 17 48 41.6790000  0  7G19G 3G 6G 9G31G17G 4
   2409198.030      497862.160          63.750  
     66619.244      458142.154          63.750  
   1687828.229     -623023.173          63.750  
   1799917.241    -1099025.302          63.750  
   1483964.421      167757.380          63.750  
   3261410.285      522257.611          63.750  
     55515.647     -300136.106          63.750  
 23  6  5 17 48 42.6790000  0  7G19G 3G 6G 9G31G17G 4
   2409545.169      499689.984          63.750  
     66867.153      459446.009          63.750  
   1687386.444     -625354.021          63.750  
   1799371.144    -1101889.239          63.750  
   1484136.261      168660.194          63.750  
   3261906.160      524850.280          63.750  
     55299.851     -301287.668          63.750  
 23  6  5 17 48 43.6790000  0  7G19G 3G 6G 9G31G17G 4
   2409894.438      501518.252          63.750  
     67114.057      460750.155          63.750  
   1686944.700     -627684.565          63.750  
   1798828.329    -1104753.021          63.750  
   1484309.006      169563.530          63.750  
   3262393.369      527443.111          63.750  
     55080.238     -302438.851          63.750  
 23  6  5 17 48 44.6790000  0  7G19G 3G 6G 9G31G17G 4
   2410241.999      503347.258          63.750  
     67364.076      462054.901          63.750  
   1686500.908     -630014.493          63.750  
   1798281.756    -1107616.376          63.750  
   1484480.271      170467.730          63.750  
   3262890.104      530036.404          63.750  
     54857.212     -303589.399          63.750  
 23  6  5 17 48 45.6790000  0  7G19G 3G 6G 9G31G17G 4
   2410589.142      505176.803          63.750  
     67612.781      463360.028          63.750  
   1686057.459     -632344.031          63.750  
   1797738.824    -1110479.454          63.750  
   1484651.177      171372.574          63.750  
   3263378.882      532629.950          63.750  
     54638.019     -304739.488          63.750  
 23  6  5 17 48 46.6790000  0  7G19G 3G 6G 9G31G17G 4
   2410937.095      507007.073          63.750  
     67860.804      464665.690          63.750  
   1685615.009     -634672.970          63.750  
   1797195.578    -1113342.109          63.750  
   1484824.291      172278.265          63.750  
   3263871.906      535223.921          63.750  
     54419.479     -305888.968          63.750  
 23  6  5 17 48 47.6790000  0  7G19G 3G 6G 9G31G17G 4
   2411286.650      508837.976          63.750  
     68107.907      465971.856          63.750  
   1685172.840     -637001.401          63.750  
   1796651.499    -1116204.421          63.750  
   1484995.236      173184.678          63.750  
   3264362.342      537818.267          63.750  
     54204.799     -307037.894          63.750  
 23  6  5 17 48 48.6790000  0  7G19G 3G 6G 9G31G17G 4
   2411633.146      510670.040          63.750  
     68358.816      467279.021          63.750  
   1684728.799     -639328.817          63.750  
   1796106.989    -1119065.856          63.750  
   1485169.676      174092.377          63.750  
   3264856.178      540413.482          63.750  
     53986.238     -308185.722          63.750  
 23  6  5 17 48 49.6790000  0  7G19G 3G 6G 9G31G17G 4
   2411984.186      512502.196          63.750  
     68606.803      468586.129          63.750  
   1684286.499     -641656.258          63.750  
   1795562.762    -1121927.473          63.750  
   1485342.823      175000.272          63.750  
   3265348.646      543008.525          63.750  
     53768.857     -309333.560          63.750  
 23  6  5 17 48 50.6790000  0  7G19G 3G 6G 9G31G17G 4
   2412331.355      514334.707          63.750  
     68859.330      469893.436          63.750  
   1683844.448     -643983.492          63.750  
   1795016.880    -1124789.034          63.750  
   1485515.116      175908.639          63.750  
   3265848.292      545603.653          63.750  
     53549.590     -310481.139          63.750  
 23  6  5 17 48 51.6790000  0  7G19G 3G 6G 9G31G17G 4
   2412680.484      516167.615          63.750  
     69109.320      471200.996          63.750  
   1683401.069     -646310.449          63.750  
   1794472.979    -1127650.477          63.750  
   1485688.078      176817.496          63.750  
   3266340.990      548198.882          63.750  
     53332.785     -311628.391          63.750  
 23  6  5 17 48 52.6790000  0  7G19G 3G 6G 9G31G17G 4
   2413029.357      518001.238          63.750  
     69362.938      472509.093          63.750  
   1682958.639     -648636.830          63.750  
   1793926.024    -1130511.498          63.750  
   1485860.693      177727.188          63.750  
   3266831.967      550794.579          63.750  
     53112.389     -312775.052          63.750  
 23  6  5 17 48 53.6790000  0  7G19G 3G 6G 9G31G17G 4
   2413377.547      519835.435          63.750  
     69610.721      473817.636          63.750  
   1682514.756     -650962.762          63.750  
   1793382.647    -1133372.213          63.750  
   1486030.898      178637.573          63.750  
   3267333.192      553390.542          63.750  
     52898.999     -313921.170          63.750  
 23  6  5 17 48 54.6790000  0  7G19G 3G 6G 9G31G17G 4
   2413729.066      521670.201          63.750  
     69861.894      475126.600          63.750  
   1682072.464     -653288.245          63.750  
   1792837.225    -1136232.631          63.750  
   1486206.079      179548.638          63.750  
   3267826.389      555986.835          63.750  
     52678.645     -315066.839          63.750  
 23  6  5 17 48 55.6790000  0  7G19G 3G 6G 9G31G17G 4
   2414077.032      523505.382          63.750  
     70110.480      476435.817          63.750  
   1681630.438     -655613.419          63.750  
   1792294.481    -1139092.926          63.750  
   1486376.748      180460.229          63.750  
   3268318.147      558583.269          63.750  
     52462.378     -316212.152          63.750  
 23  6  5 17 48 56.6790000  0  7G19G 3G 6G 9G31G17G 4
   2414428.627      525341.419          63.750  
     70360.638      477745.736          63.750  
   1681187.653     -657937.905          63.750  
   1791749.913    -1141952.652          63.750  
   1486550.396      181372.785          63.750  
   3268813.862      561180.238          63.750  
     52244.464     -317356.722          63.750  
 23  6  5 17 48 57.6790000  0  7G19G 3G 6G 9G31G17G 4
   2414777.578      527178.003          63.750  
     70607.169      479056.055          63.750  
   1680744.504     -660261.972          63.750  
   1791206.806    -1144812.133          63.750  
   1486725.330      182286.001          63.750  
   3269303.395      563777.504          63.750  
     52026.253     -318500.829          63.750  
 23  6  5 17 48 58.6790000  0  7G19G 3G 6G 9G31G17G 4
   2415127.727      529015.188          63.750  
     70856.684      480366.812          63.750  
   1680300.166     -662585.552          63.750  
   1790663.271    -1147671.299          63.750  
   1486899.231      183199.936          63.750  
   3269796.903      566375.066          63.750  
     51810.622     -319644.406          63.750  
 23  6  5 17 48 59.6790000  0  7G19G 3G 6G 9G31G17G 4
   2415478.556      530853.101          63.750  
     71105.418      481678.137          63.750  
   1679859.936     -664908.557          63.750  
   1790118.637    -1150529.996          63.750  
   1487075.767      184114.693          63.750  
   3270282.457      568973.116          63.750  
     51588.946     -320787.354          63.750  
 23  6  5 17 49  0.6790000  0  7G19G 3G 6G 9G31G17G 4
   2415826.880      532691.460          63.750  
     71354.848      482989.759          63.750  
   1679417.857     -667231.234          63.750  
   1789575.809    -1153388.563          63.750  
   1487249.406      185030.014          63.750  
   3270779.740      571571.269          63.750  
     51376.621     -321929.971          63.750  
 23  6  5 17 49  1.6790000  0  7G19G 3G 6G 9G31G17G 4
   2416177.723      534530.677          63.750  
     71601.039      484302.087          63.750  
   1678977.439     -669553.197          63.750  
   1789030.954    -1156246.550          63.750  
   1487422.846      185946.312          63.750  
   3271273.606      574170.050          63.750  
     51158.090     -323071.785          63.750  
 23  6  5 17 49  2.6790000  0  7G19G 3G 6G 9G31G17G 4
   2416526.775      536370.304          63.750  
     71851.722      485614.683          63.750  
   1678533.737     -671874.877          63.750  
   1788485.648    -1159104.406          63.750  
   1487596.482      186863.125          63.750  
   3271764.446      576768.943          63.750  
     50937.438     -324213.284          63.750  
 23  6  5 17 49  3.6790000  0  7G19G 3G 6G 9G31G17G 4
   2416875.621      538210.734          63.750  
     72100.172      486927.910          63.750  
   1678091.300     -674195.879          63.750  
   1787942.642    -1161961.757          63.750  
   1487770.891      187780.858          63.750  
   3272265.898      579368.369          63.750  
     50717.886     -325354.069          63.750  
 23  6  5 17 49  4.6790000  0  7G19G 3G 6G 9G31G17G 4
   2417226.275      540051.795          63.750  
     72348.606      488241.606          63.750  
   1677651.017     -676516.385          63.750  
   1787397.325    -1164818.752          63.750  
   1487946.387      188699.319          63.750  
   3272761.591      581968.146          63.750  
     50506.694     -326494.310          63.750  
 23  6  5 17 49  5.6790000  0  7G19G 3G 6G 9G31G17G 4
   2417575.366      541893.503          63.750  
     72598.062      489555.798          63.750  
   1677209.834     -678836.365          63.750  
   1786855.708    -1167675.376          63.750  
   1488122.280      189618.564          63.750  
   3273257.995      584568.301          63.750  
     50282.802     -327633.987          63.750  
 23  6  5 17 49  6.6790000  0  7G19G 3G 6G 9G31G17G 4
   2417926.488      543735.796          63.750  
     72848.486      490870.431          63.750  
   1676768.040     -681155.907          63.750  
   1786311.823    -1170531.709          63.750  
   1488296.173      190538.487          63.750  
   3273754.839      587168.729          63.750  
     50069.452     -328773.170          63.750  
 23  6  5 17 49  7.6790000  0  7G19G 3G 6G 9G31G17G 4
   2418278.797      545578.522          63.750  
     73100.624      492185.347          63.750  
   1676328.398     -683475.121          63.750  
   1785765.164    -1173387.879          63.750  
   1488472.438      191458.972          63.750  
   3274242.814      589769.373          63.750  
     49850.715     -329911.995          63.750  
 23  6  5 17 49  8.6790000  0  7G19G 3G 6G 9G31G17G 4
   2418629.657      547422.051          63.750  
     73352.159      493500.898          63.750  
   1675884.438     -685793.673          63.750  
   1785223.437    -1176243.549          63.750  
   1488649.393      192380.350          63.750  
   3274737.109      592370.514          63.750  
     49634.622     -331050.118          63.750  
 23  6  5 17 49  9.6790000  0  7G19G 3G 6G 9G31G17G 4
   2418982.154      549266.219          63.750  
     73602.575      494816.933          63.750  
   1675446.226     -688111.705          63.750  
   1784680.522    -1179098.857          63.750  
   1488824.797      193302.493          63.750  
   3275231.489      594971.998          63.750  
     49418.323     -332187.675          63.750  
 23  6  5 17 49 10.6790000  0  7G19G 3G 6G 9G31G17G 4
   2419332.838      551110.935          63.750  
     73856.322      496133.379          63.750  
   1675003.035     -690429.332          63.750  
   1784137.663    -1181953.901          63.750  
   1488999.775      194225.292          63.750  
   3275728.498      597573.744          63.750  
     49205.011     -333324.758          63.750  
 23  6  5 17 49 11.6790000  0  7G19G 3G 6G 9G31G17G 4
   2419685.435      552956.354          63.750  
     74106.163      497450.343          63.750  
   1674562.254     -692746.382          63.750  
   1783594.060    -1184808.536          63.750  
   1489175.397      195148.904          63.750  
   3276224.768      600175.944          63.750  
     48990.398     -334461.263          63.750  
 23  6  5 17 49 12.6790000  0  7G19G 3G 6G 9G31G17G 4
   2420035.570      554802.393          63.750  
     74354.674      498767.799          63.750  
   1674121.293     -695062.943          63.750  
   1783051.522    -1187662.822          63.750  
   1489350.422      196073.253          63.750  
   3276718.634      602778.495          63.750  
     48775.512     -335597.223          63.750  
 23  6  5 17 49 13.6790000  0  7G19G 3G 6G 9G31G17G 4
   2420387.813      556649.039          63.750  
     74607.212      500085.700          63.750  
   1673680.068     -697379.014          63.750  
   1782509.609    -1190516.792          63.750  
   1489524.738      196998.319          63.750  
   3277215.971      605381.320          63.750  
     48558.800     -336732.662          63.750  
 23  6  5 17 49 14.6790000  0  7G19G 3G 6G 9G31G17G 4
   2420737.276      558496.354          63.750  
     74853.853      501404.117          63.750  
   1673239.990     -699694.542          63.750  
   1781965.626    -1193370.377          63.750  
   1489700.996      197924.174          63.750  
   3277710.646      607984.563          63.750  
     48342.829     -337867.516          63.750  
 23  6  5 17 49 15.6790000  0  7G19G 3G 6G 9G31G17G 4
   2421088.762      560344.255          63.750  
     75103.707      502722.957          63.750  
   1672801.330     -702009.627          63.750  
   1781423.941    -1196223.648          63.750  
   1489878.658      198850.710          63.750  
   3278209.220      610588.139          63.750  
     48124.526     -339001.869          63.750  
 23  6  5 17 49 16.6790000  0  7G19G 3G 6G 9G31G17G 4
   2421440.163      562192.575          63.750  
     75352.651      504042.090          63.750  
   1672358.387     -704324.404          63.750  
   1780879.647    -1199076.792          63.750  
   1490054.154      199777.801          63.750  
   3278703.161      613191.821          63.750  
     47906.924     -340135.874          63.750  
 23  6  5 17 49 17.6790000  0  7G19G 3G 6G 9G31G17G 4
   2421790.521      564041.606          63.750  
     75601.775      505361.761          63.750  
   1671919.897     -706638.606          63.750  
   1780335.989    -1201929.505          63.750  
   1490231.351      200705.705          63.750  
   3279194.989      615795.973          63.750  
     47692.380     -341269.254          63.750  
 23  6  5 17 49 18.6790000  0  7G19G 3G 6G 9G31G17G 4
   2422142.079      565891.646          63.750  
     75850.116      506682.287          63.750  
   1671478.300     -708951.916          63.750  
   1779792.866    -1204781.486          63.750  
   1490407.924      201634.725          63.750  
   3279692.835      618400.841          63.750  
     47473.328     -342401.701          63.750  
 23  6  5 17 49 19.6790000  0  7G19G 3G 6G 9G31G17G 4
   2422493.990      567741.878          63.750  
     76096.958      508002.868          63.750  
   1671038.832     -711265.178          63.750  
   1779250.317    -1207633.558          63.750  
   1490586.776      202564.064          63.750  
   3280191.133      621005.618          63.750  
     47256.613     -343534.078          63.750  
 23  6  5 17 49 20.6790000  0  7G19G 3G 6G 9G31G17G 4
   2422846.393      569592.882          63.750  
     76348.604      509324.063          63.750  
   1670598.581     -713577.772          63.750  
   1778707.300    -1210485.143          63.750  
   1490764.672      203494.295          63.750  
   3280683.166      623610.886          63.750  
     47041.021     -344665.723          63.750  
 23  6  5 17 49 21.6790000  0  7G19G 3G 6G 9G31G17G 4
   2423197.869      571444.525          63.750  
     76596.946      510645.740          63.750  
   1670159.776     -715889.858          63.750  
   1778164.626    -1213336.367          63.750  
   1490940.254      204425.263          63.750  
   3281181.306      626216.529          63.750  
     46830.110     -345796.820          63.750  
 23  6  5 17 49 22.6790000  0  7G19G 3G 6G 9G31G17G 4
   2423550.377      573296.721          63.750  
     76846.600      511967.820          63.750  
   1669720.028     -718201.530          63.750  
   1777621.426    -1216187.330          63.750  
   1491120.094      205356.904          63.750  
   3281673.646      628822.424          63.750  
     46611.832     -346927.484          63.750  
 23  6  5 17 49 23.6790000  0  7G19G 3G 6G 9G31G17G 4
   2423903.939      575149.694          63.750  
     77100.366      513290.506          63.750  
   1669279.883     -720512.550          63.750  
   1777078.568    -1219037.778          63.750  
   1491298.692      206289.422          63.750  
   3282171.342      631428.816          63.750  
     46398.868     -348057.443          63.750  
 23  6  5 17 49 24.6790000  0  7G19G 3G 6G 9G31G17G 4
   2424256.370      577003.428          63.750  
     77354.844      514613.794          63.750  
   1668841.665     -722822.929          63.750  
   1776537.146    -1221887.770          63.750  
   1491477.799      207222.816          63.750  
   3282674.146      634035.714          63.750  
     46181.524     -349186.719          63.750  
 23  6  5 17 49 25.6790000  0  7G19G 3G 6G 9G31G17G 4
   2424609.057      578857.250          63.750  
     77606.416      515937.036          63.750  
   1668401.204     -725133.339          63.750  
   1775994.289    -1224737.940          63.750  
   1491654.416      208156.412          63.750  
   3283167.814      636642.414          63.750  
     45966.812     -350315.977          63.750  
 23  6  5 17 49 26.6790000  0  7G19G 3G 6G 9G31G17G 4
   2424961.155      580711.764          63.750  
     77860.676      517260.833          63.750  
   1667962.472     -727443.199          63.750  
   1775452.768    -1227587.704          63.750  
   1491832.812      209090.811          63.750  
   3283665.748      639249.506          63.750  
     45753.888     -351444.646          63.750  
 23  6  5 17 49 27.6790000  0  7G19G 3G 6G 9G31G17G 4
   2425315.325      582566.964          63.750  
     78117.170      518585.151          63.750  
   1667522.288     -729752.491          63.750  
   1774910.353    -1230437.073          63.750  
   1492010.161      210026.010          63.750  
   3284165.695      641857.027          63.750  
     45537.285     -352572.712          63.750  
 23  6  5 17 49 28.6790000  0  7G19G 3G 6G 9G31G17G 4
   2425667.158      584422.841          63.750  
     78373.247      519909.985          63.750  
   1667083.284     -732061.236          63.750  
   1774369.528    -1233286.046          63.750  
   1492184.628      210961.999          63.750  
   3284662.295      644464.957          63.750  
     45323.463     -353700.189          63.750  
 23  6  5 17 49 29.6790000  0  7G19G 3G 6G 9G31G17G 4
   2426020.820      586279.212          63.750  
     78627.257      521235.178          63.750  
   1666643.896     -734369.607          63.750  
   1773828.247    -1236134.811          63.750  
   1492362.630      211898.606          63.750  
   3285160.236      647073.106          63.750  
     45112.218     -354827.247          63.750  
 23  6  5 17 49 30.6790000  0  7G19G 3G 6G 9G31G17G 4
   2426372.531      588136.027          63.750  
     78878.243      522560.663          63.750  
   1666204.027     -736677.650          63.750  
   1773287.255    -1238983.395          63.750  
   1492538.958      212835.761          63.750  
   3285656.786      649681.429          63.750  
     44895.958     -355953.950          63.750  
 23  6  5 17 49 31.6790000  0  7G19G 3G 6G 9G31G17G 4
   2426726.841      589993.176          63.750  
     79133.238      523886.331          63.750  
   1665766.620     -738985.491          63.750  
   1772745.983    -1241831.936          63.750  
   1492719.318      213773.370          63.750  
   3286148.188      652289.804          63.750  
     44684.248     -357080.416          63.750  
 23  6  5 17 49 32.6790000  0  7G19G 3G 6G 9G31G17G 4
   2427079.119      591851.310          63.750  
     79380.550      525212.828          63.750  
   1665326.090     -741292.476          63.750  
   1772203.786    -1244679.775          63.750  
   1492896.688      214712.077          63.750  
   3286648.823      654898.892          63.750  
     44468.907     -358205.978          63.750  
 23  6  5 17 49 33.6790000  0  7G19G 3G 6G 9G31G17G 4
   2427432.039      593709.738          63.750  
     79634.942      526539.449          63.750  
   1664886.032     -743599.273          63.750  
   1771662.073    -1247527.582          63.750  
   1493074.151      215651.186          63.750  
   3287140.773      657507.986          63.750  
     44252.866     -359331.284          63.750  
 23  6  5 17 49 34.6790000  0  7G19G 3G 6G 9G31G17G 4
   2427786.411      595568.650          63.750  
     79884.545      527866.428          63.750  
   1664447.036     -745905.734          63.750  
   1771118.599    -1250375.195          63.750  
   1493252.610      216590.896          63.750  
   3287640.467      660117.265          63.750  
     44038.309     -360456.226          63.750  
 23  6  5 17 49 35.6790000  0  7G19G 3G 6G 9G31G17G 4
   2428140.661      597428.272          63.750  
     80137.571      529193.975          63.750  
   1664009.181     -748211.610          63.750  
   1770577.741    -1253222.383          63.750  
   1493430.640      217531.432          63.750  
   3288136.828      662727.010          63.750  
     43823.553     -361580.549          63.750  
 23  6  5 17 49 36.6790000  0  7G19G 3G 6G 9G31G17G 4
   2428496.626      599288.979          63.750  
     80388.989      530522.422          63.750  
   1663570.591     -750516.518          63.750  
   1770037.103    -1256068.775          63.750  
   1493608.434      218473.179          63.750  
   3288634.407      665337.525          63.750  
     43611.205     -362703.877          63.750  
 23  6  5 17 49 37.6790000  0  7G19G 3G 6G 9G31G17G 4
   2428851.345      601150.159          63.750  
     80644.234      531851.216          63.750  
   1663132.149     -752821.067          63.750  
   1769495.873    -1258914.963          63.750  
   1493784.213      219415.478          63.750  
   3289130.576      667948.251          63.750  
     43395.029     -363826.775          63.750  
 23  6  5 17 49 38.6790000  0  7G19G 3G 6G 9G31G17G 4
   2429205.704      603012.002          63.750  
     80897.213      533180.502          63.750  
   1662693.814     -755125.084          63.750  
   1768954.981    -1261760.775          63.750  
   1493962.319      220358.579          63.750  
   3289625.396      670559.341          63.750  
     43180.891     -364949.146          63.750  
 23  6  5 17 49 39.6790000  0  7G19G 3G 6G 9G31G17G 4
   2429559.873      604874.107          63.750  
     81148.927      534509.904          63.750  
   1662255.294     -757428.969          63.750  
   1768412.744    -1264606.591          63.750  
   1494142.291      221302.052          63.750  
   3290128.963      673170.423          63.750  
     42968.758     -366071.304          63.750  
 23  6  5 17 49 40.6790000  0  7G19G 3G 6G 9G31G17G 4
   2429913.713      606736.592          63.750  
     81405.368      535839.536          63.750  
   1661816.260     -759732.604          63.750  
   1767872.855    -1267452.330          63.750  
   1494324.109      222246.027          63.750  
   3290620.576      675781.606          63.750  
     42753.758     -367193.184          63.750  
 23  6  5 17 49 41.6790000  0  7G19G 3G 6G 9G31G17G 4
   2430268.879      608599.967          63.750  
     81659.569      537169.905          63.750  
   1661379.195     -762035.447          63.750  
   1767330.034    -1270297.443          63.750  
   1494507.960      223190.989          63.750  
   3291122.696      678393.412          63.750  
     42543.217     -368314.228          63.750  
 23  6  5 17 49 42.6790000  0  7G19G 3G 6G 9G31G17G 4
   2430623.244      610464.002          63.750  
     81911.723      538500.815          63.750  
   1660938.931     -764337.762          63.750  
   1766789.341    -1273142.163          63.750  
   1494686.546      224136.739          63.750  
   3291617.142      681005.599          63.750  
     42332.571     -369434.700          63.750  
 23  6  5 17 49 43.6790000  0  7G19G 3G 6G 9G31G17G 4
   2430978.273      612328.956          63.750  
     82165.226      539832.458          63.750  
   1660501.522     -766639.283          63.750  
   1766248.813    -1275986.270          63.750  
   1494864.582      225083.497          63.750  
   3292116.106      683618.403          63.750  
     42112.440     -370554.359          63.750  
 23  6  5 17 49 44.6790000  0  7G19G 3G 6G 9G31G17G 4
   2431333.685      614194.232          63.750  
     82419.405      541164.278          63.750  
   1660064.099     -768940.604          63.750  
   1765709.123    -1278830.321          63.750  
   1495046.527      226030.701          63.750  
   3292610.337      686231.266          63.750  
     41903.434     -371673.758          63.750  
 23  6  5 17 49 45.6790000  0  7G19G 3G 6G 9G31G17G 4
   2431688.556      616060.076          63.750  
     82673.867      542496.514          63.750  
   1659627.613     -771241.487          63.750  
   1765165.445    -1281674.072          63.750  
   1495224.729      226978.594          63.750  
   3293110.744      688844.417          63.750  
     41690.046     -372792.688          63.750  
 23  6  5 17 49 46.6790000  0  7G19G 3G 6G 9G31G17G 4
   2432045.388      617926.744          63.750  
     82928.296      543829.425          63.750  
   1659188.791     -773541.660          63.750  
   1764625.833    -1284517.300          63.750  
   1495400.403      227927.427          63.750  
   3293607.665      691458.115          63.750  
     41475.900     -373910.874          63.750  
 23  6  5 17 49 47.6790000  0  7G19G 3G 6G 9G31G17G 4
   2432399.458      619793.719          63.750  
     83180.370      545162.502          63.750  
   1658752.308     -775841.649          63.750  
   1764081.754    -1287360.483          63.750  
   1495582.069      228876.699          63.750  
   3294110.560      694071.840          63.750  
     41263.078     -375028.836          63.750  
 23  6  5 17 49 48.6790000  0  7G19G 3G 6G 9G31G17G 4
   2432755.262      621661.581          63.750  
     83434.355      546496.277          63.750  
   1658315.137     -778140.881          63.750  
   1763542.643    -1290203.077          63.750  
   1495763.297      229826.921          63.750  
   3294604.387      696686.148          63.750  
     41052.840     -376146.001          63.750  
 23  6  5 17 49 49.6790000  0  7G19G 3G 6G 9G31G17G 4
   2433110.864      623529.777          63.750  
     83689.398      547830.275          63.750  
   1657876.266     -780439.893          63.750  
   1763000.083    -1293045.586          63.750  
   1495941.474      230777.629          63.750  
   3295099.708      699300.535          63.750  
     40842.908     -377262.883          63.750  
 23  6  5 17 49 50.6790000  0  7G19G 3G 6G 9G31G17G 4
   2433467.020      625398.399          63.750  
     83943.770      549164.544          63.750  
   1657440.335     -782738.610          63.750  
   1762460.287    -1295887.968          63.750  
   1496124.814      231728.861          63.750  
   3295595.639      701915.051          63.750  
     40628.795     -378379.428          63.750  
 23  6  5 17 49 51.6790000  0  7G19G 3G 6G 9G31G17G 4
   2433821.673      627267.673          63.750  
     84200.666      550499.308          63.750  
   1657003.036     -785036.776          63.750  
   1761919.985    -1298729.972          63.750  
   1496305.956      232680.861          63.750  
   3296093.560      704529.954          63.750  
     40418.809     -379495.448          63.750  
 23  6  5 17 49 52.6790000  0  7G19G 3G 6G 9G31G17G 4
   2434177.189      629137.472          63.750  
     84454.209      551834.429          63.750  
   1656565.852     -787334.545          63.750  
   1761378.334    -1301571.718          63.750  
   1496489.218      233633.518          63.750  
   3296592.197      707145.113          63.750  
     40205.449     -380610.985          63.750  
 23  6  5 17 49 53.6790000  0  7G19G 3G 6G 9G31G17G 4
   2434534.439      631008.128          63.750  
     84705.172      553170.278          63.750  
   1656129.122     -789631.575          63.750  
   1760837.650    -1304412.891          63.750  
   1496667.198      234587.129          63.750  
   3297089.487      709760.837          63.750  
     39995.202     -381725.743          63.750  
 23  6  5 17 49 54.6790000  0  7G19G 3G 6G 9G31G17G 4
   2434890.565      632879.650          63.750  
     84963.437      554506.829          63.750  
   1655690.447     -791927.880          63.750  
   1760298.592    -1307253.508          63.750  
   1496854.235      235541.728          63.750  
   3297589.657      712377.136          63.750  
     39779.251     -382839.749          63.750  
 23  6  5 17 49 55.6790000  0  7G19G 3G 6G 9G31G17G 4
   2435246.791      634752.023          63.750  
     85218.087      555844.098          63.750  
   1655254.438     -794223.431          63.750  
   1759755.808    -1310093.505          63.750  
   1497034.556      236497.280          63.750  
   3298088.619      714994.019          63.750  
     39567.871     -383952.952          63.750  
 23  6  5 17 49 56.6790000  0  7G19G 3G 6G 9G31G17G 4
   2435602.979      636624.929          63.750  
     85470.047      557181.748          63.750  
   1654817.186     -796518.570          63.750  
   1759216.097    -1312933.263          63.750  
   1497214.796      237453.521          63.750  
   3298586.403      717611.159          63.750  
     39359.005     -385065.711          63.750  
 23  6  5 17 49 57.6790000  0  7G19G 3G 6G 9G31G17G 4
   2435959.639      638498.688          63.750  
     85724.147      558520.101          63.750  
   1654380.820     -798812.991          63.750  
   1758675.816    -1315772.443          63.750  
   1497395.845      238410.702          63.750  
   3299083.229      720228.886          63.750  
     39149.470     -386177.687          63.750  
 23  6  5 17 49 58.6790000  0  7G19G 3G 6G 9G31G17G 4
   2436316.068      640372.667          63.750  
     85975.152      559858.504          63.750  
   1653943.209     -801107.318          63.750  
   1758136.200    -1318611.686          63.750  
   1497578.394      239368.213          63.750  
   3299582.720      722846.547          63.750  
     38937.202     -387289.553          63.750  
 23  6  5 17 49 59.6790000  0  7G19G 3G 6G 9G31G17G 4
   2436672.481      642247.162          63.750  
     86228.502      561197.275          63.750  
   1653507.749     -803401.231          63.750  
   1757595.510    -1321450.688          63.750  
   1497763.234      240326.367          63.750  
   3300076.726      725464.441          63.750  
     38726.893     -388400.987          63.750  
 23  6  5 17 50  0.6790000  0  7G19G 3G 6G 9G31G17G 4
   2437029.490      644122.285          63.750  
     86481.897      562536.534          63.750  
   1653071.358     -805694.641          63.750  
   1757054.937    -1324289.328          63.750  
   1497946.707      241285.269          63.750  
   3300575.477      728082.703          63.750  
     38514.183     -389511.837          63.750  
 23  6  5 17 50  1.6790000  0  7G19G 3G 6G 9G31G17G 4
   2437386.494      645997.714          63.750  
     86734.081      563875.955          63.750  
   1652632.419     -807987.851          63.750  
   1756515.288    -1327127.943          63.750  
   1498133.184      242244.562          63.750  
   3301072.478      730700.963          63.750  
     38302.388     -390622.475          63.750  
 23  6  5 17 50  2.6790000  0  7G19G 3G 6G 9G31G17G 4
   2437743.429      647873.774          63.750  
     86987.408      565215.850          63.750  
   1652197.365     -810280.562          63.750  
   1755975.073    -1329966.201          63.750  
   1498317.206      243204.605          63.750  
   3301571.693      733319.618          63.750  
     38091.211     -391732.574          63.750  
 23  6  5 17 50  3.6790000  0  7G19G 3G 6G 9G31G17G 4
   2438099.156      649750.150          63.750  
     87244.330      566555.914          63.750  
   1651758.329     -812573.065          63.750  
   1755434.446    -1332804.428          63.750  
   1498502.259      244165.080          63.750  
   3302068.532      735938.315          63.750  
     37880.155     -392842.411          63.750  
 23  6  5 17 50  4.6790000  0  7G19G 3G 6G 9G31G17G 4
   2438455.413      651627.434          63.750  
     87499.156      567896.733          63.750  
   1651322.513     -814864.797          63.750  
   1754894.588    -1335642.012          63.750  
   1498684.682      245126.587          63.750  
   3302566.729      738557.623          63.750  
     37672.552     -393951.449          63.750  
 23  6  5 17 50  5.6790000  0  7G19G 3G 6G 9G31G17G 4
   2438813.536      653505.403          63.750  
     87759.589      569238.083          63.750  
   1650888.143     -817155.962          63.750  
   1754354.991    -1338479.206          63.750  
   1498868.520      246088.863          63.750  
   3303065.442      741177.320          63.750  
     37458.644     -395059.907          63.750  
 23  6  5 17 50  6.6790000  0  7G19G 3G 6G 9G31G17G 4
   2439172.258      655383.708          63.750  
     88016.966      570579.631          63.750  
   1650452.367     -819446.905          63.750  
   1753814.800    -1341316.336          63.750  
   1499050.617      247051.626          63.750  
   3303562.856      743797.098          63.750  
     37250.104     -396168.051          63.750  
 23  6  5 17 50  7.6790000  0  7G19G 3G 6G 9G31G17G 4
   2439528.962      657262.826          63.750  
     88275.353      571921.821          63.750  
   1650017.741     -821737.156          63.750  
   1753274.823    -1344152.932          63.750  
   1499233.835      248015.285          63.750  
   3304064.678      746417.396          63.750  
     37039.348     -397275.511          63.750  
 23  6  5 17 50  8.6790000  0  7G19G 3G 6G 9G31G17G 4
   2439887.294      659142.558          63.750  
     88528.378      573264.485          63.750  
   1649582.411     -824026.922          63.750  
   1752734.229    -1346989.191          63.750  
   1499414.995      248979.706          63.750  
   3304561.123      749038.021          63.750  
     36828.683     -398382.438          63.750  
 23  6  5 17 50  9.6790000  0  7G19G 3G 6G 9G31G17G 4
   2440245.881      661022.704          63.750  
     88783.565      574607.402          63.750  
   1649147.327     -826316.401          63.750  
   1752194.993    -1349825.320          63.750  
   1499600.659      249944.622          63.750  
   3305061.659      751658.783          63.750  
     36616.558     -399489.007          63.750  
 23  6  5 17 50 10.6790000  0  7G19G 3G 6G 9G31G17G 4
   2440603.839      662903.427          63.750  
     89041.114      575950.750          63.750  
   1648712.868     -828605.409          63.750  
   1751653.497    -1352661.144          63.750  
   1499782.023      250910.252          63.750  
   3305560.938      754279.841          63.750  
     36407.376     -400595.094          63.750  
 23  6  5 17 50 11.6790000  0  7G19G 3G 6G 9G31G17G 4
   2440963.060      664784.610          63.750  
     89293.700      577294.409          63.750  
   1648276.673     -830894.079          63.750  
   1751115.593    -1355496.795          63.750  
   1499969.325      251876.429          63.750  
   3306058.345      756901.072          63.750  
     36194.919     -401700.826          63.750  
 23  6  5 17 50 12.6790000  0  7G19G 3G 6G 9G31G17G 4
   2441318.530      666666.376          63.750  
     89550.060      578638.488          63.750  
   1647840.743     -833182.290          63.750  
   1750574.748    -1358332.138          63.750  
   1500153.448      252843.319          63.750  
   3306557.964      759522.601          63.750  
     35987.937     -402806.045          63.750  
 23  6  5 17 50 13.6790000  0  7G19G 3G 6G 9G31G17G 4
   2441676.799      668549.076          63.750  
     89803.606      579983.369          63.750  
   1647403.910     -835469.668          63.750  
   1750034.635    -1361166.808          63.750  
   1500339.714      253811.275          63.750  
   3307053.445      762144.798          63.750  
     35776.683     -403910.374          63.750  
 23  6  5 17 50 14.6790000  0  7G19G 3G 6G 9G31G17G 4
   2442034.468      670432.245          63.750  
     90057.333      581328.584          63.750  
   1646968.560     -837756.699          63.750  
   1749495.397    -1364001.282          63.750  
   1500523.639      254779.802          63.750  
   3307555.845      764767.213          63.750  
     35566.161     -405014.332          63.750  
 23  6  5 17 50 15.6790000  0  7G19G 3G 6G 9G31G17G 4
   2442391.523      672315.608          63.750  
     90313.177      582673.831          63.750  
   1646531.932     -840043.641          63.750  
   1748955.904    -1366835.836          63.750  
   1500708.382      255748.637          63.750  
   3308048.735      767389.521          63.750  
     35358.886     -406118.174          63.750  
 23  6  5 17 50 16.6790000  0  7G19G 3G 6G 9G31G17G 4
   2442751.136      674199.466          63.750  
     90568.254      584019.455          63.750  
   1646097.171     -842330.205          63.750  
   1748418.556    -1369670.144          63.750  
   1500894.972      256718.083          63.750  
   3308548.749      770012.050          63.750  
     35144.673     -407221.594          63.750  
 23  6  5 17 50 17.6790000  0  7G19G 3G 6G 9G31G17G 4
   2443109.656      676084.344          63.750  
     90826.299      585365.903          63.750  
   1645661.896     -844615.878          63.750  
   1747878.277    -1372503.730          63.750  
   1501077.248      257688.668          63.750  
   3309046.604      772635.306          63.750  
     34935.878     -408324.078          63.750  
 23  6  5 17 50 18.6790000  0  7G19G 3G 6G 9G31G17G 4
   2443468.757      677969.786          63.750  
     91081.900      586712.788          63.750  
   1645227.457     -846901.094          63.750  
   1747338.872    -1375337.023          63.750  
   1501262.918      258659.936          63.750  
   3309545.429      775258.843          63.750  
     34725.994     -409426.057          63.750  
 23  6  5 17 50 19.6790000  0  7G19G 3G 6G 9G31G17G 4
   2443827.572      679855.512          63.750  
     91339.249      588059.815          63.750  
   1644792.880     -849186.134          63.750  
   1746799.520    -1378170.305          63.750  
   1501448.332      259631.594          63.750  
   3310045.866      777882.366          63.750  
     34515.646     -410527.854          63.750  
 23  6  5 17 50 20.6790000  0  7G19G 3G 6G 9G31G17G 4
   2444185.881      681741.556          63.750  
     91596.833      589407.022          63.750  
   1644359.846     -851470.983          63.750  
   1746259.011    -1381003.544          63.750  
   1501633.898      260603.699          63.750  
   3310546.221      780505.981          63.750  
     34306.280     -411629.412          63.750  
 23  6  5 17 50 21.6790000  0  7G19G 3G 6G 9G31G17G 4
   2444546.262      683628.024          63.750  
     91853.360      590754.467          63.750  
   1643926.063     -853755.533          63.750  
   1745720.340    -1383836.646          63.750  
   1501815.659      261576.319          63.750  
   3311045.493      783129.686          63.750  
     34095.687     -412730.646          63.750  
 23  6  5 17 50 22.6790000  0  7G19G 3G 6G 9G31G17G 4
   2444904.940      685515.406          63.750  
     92110.548      592102.718          63.750  
   1643488.959     -856039.283          63.750  
   1745180.505    -1386669.093          63.750  
   1502004.167      262549.979          63.750  
   3311542.703      785754.060          63.750  
     33887.784     -413831.010          63.750  
 23  6  5 17 50 23.6790000  0  7G19G 3G 6G 9G31G17G 4
   2445263.826      687403.664          63.750  
     92368.206      593451.698          63.750  
   1643055.716     -858322.247          63.750  
   1744642.232    -1389500.938          63.750  
   1502188.229      263524.660          63.750  
   3312045.602      788379.028          63.750  
     33678.389     -414930.587          63.750  
 23  6  5 17 50 24.6790000  0  7G19G 3G 6G 9G31G17G 4
   2445622.159      689292.577          63.750  
     92626.591      594801.161          63.750  
   1642620.237     -860604.695          63.750  
   1744103.229    -1392332.406          63.750  
   1502374.635      264500.092          63.750  
   3312543.144      791004.354          63.750  
     33465.688     -416029.598          63.750  
 23  6  5 17 50 25.6790000  0  7G19G 3G 6G 9G31G17G 4
   2445982.887      691182.239          63.750  
     92883.904      596151.240          63.750  
   1642185.552     -862886.501          63.750  
   1743563.835    -1395163.388          63.750  
   1502559.960      265476.393          63.750  
   3313044.496      793630.172          63.750  
     33256.034     -417127.908          63.750  
 23  6  5 17 50 26.6790000  0  7G19G 3G 6G 9G31G17G 4
   2446341.224      693072.512          63.750  
     93138.265      597501.805          63.750  
   1641752.415     -865167.798          63.750  
   1743024.181    -1397994.017          63.750  
   1502746.537      266453.434          63.750  
   3313544.497      796256.326          63.750  
     33045.460     -418225.670          63.750  
 23  6  5 17 50 27.6790000  0  7G19G 3G 6G 9G31G17G 4
   2446702.316      694963.716          63.750  
     93394.759      598853.133          63.750  
   1641319.303     -867448.283          63.750  
   1742487.659    -1400824.002          63.750  
   1502933.896      267431.516          63.750  
   3314043.676      798883.122          63.750  
     32837.879     -419322.608          63.750  
 23  6  5 17 50 28.6790000  0  7G19G 3G 6G 9G31G17G 4
   2447061.812      696855.438          63.750  
     93652.087      600204.829          63.750  
   1640886.549     -869728.357          63.750  
   1741949.946    -1403653.735          63.750  
   1503119.720      268410.227          63.750  
   3314544.749      801510.167          63.750  
     32629.911     -420419.101          63.750  
 23  6  5 17 50 29.6790000  0  7G19G 3G 6G 9G31G17G 4
   2447422.840      698747.283          63.750  
     93910.665      601556.506          63.750  
   1640452.494     -872008.420          63.750  
   1741413.708    -1406483.621          63.750  
   1503306.285      269389.179          63.750  
   3315045.245      804137.062          63.750  
     32419.800     -421515.531          63.750  
 23  6  5 17 50 30.6790000  0  7G19G 3G 6G 9G31G17G 4
   2447782.934      700640.058          63.750  
     94169.061      602908.965          63.750  
   1640018.465     -874287.697          63.750  
   1740873.759    -1409312.874          63.750  
   1503492.355      270369.153          63.750  
   3315542.305      806764.575          63.750  
     32210.271     -422611.159          63.750  
 23  6  5 17 50 31.6790000  0  7G19G 3G 6G 9G31G17G 4
   2448143.470      702533.316          63.750  
     94426.685      604261.741          63.750  
   1639583.443     -876566.566          63.750  
   1740337.046    -1412141.877          63.750  
   1503678.562      271349.741          63.750  
   3316045.865      809392.303          63.750  
     32001.930     -423706.334          63.750  
 23  6  5 17 50 32.6790000  0  7G19G 3G 6G 9G31G17G 4
   2448502.516      704426.861          63.750  
     94684.795      605614.687          63.750  
   1639151.765     -878845.292          63.750  
   1739798.345    -1414970.892          63.750  
   1503863.150      272330.727          63.750  
   3316542.424      812020.042          63.750  
     31791.885     -424801.307          63.750  
 23  6  5 17 50 33.6790000  0  7G19G 3G 6G 9G31G17G 4
   2448864.200      706320.968          63.750  
     94943.041      606968.015          63.750  
   1638717.109     -881123.562          63.750  
   1739261.329    -1417799.606          63.750  
   1504050.980      273312.396          63.750  
   3317044.100      814648.060          63.750  
     31583.898     -425895.828          63.750  
 23  6  5 17 50 34.6790000  0  7G19G 3G 6G 9G31G17G 4
   2449224.148      708215.889          63.750  
     95200.413      608322.044          63.750  
   1638282.502     -883401.115          63.750  
   1738722.231    -1420627.788          63.750  
   1504238.534      274295.005          63.750  
   3317543.623      817276.632          63.750  
     31376.553     -426989.568          63.750  
 23  6  5 17 50 35.6790000  0  7G19G 3G 6G 9G31G17G 4
   2449584.038      710111.506          63.750  
     95458.397      609676.593          63.750  
   1637850.505     -885678.110          63.750  
   1738183.337    -1423455.542          63.750  
   1504425.672      275278.414          63.750  
   3318045.829      819905.608          63.750  
     31170.471     -428082.699          63.750  
 23  6  5 17 50 36.6790000  0  7G19G 3G 6G 9G31G17G 4
   2449946.094      712007.804          63.750  
     95716.075      611031.684          63.750  
   1637416.527     -887954.529          63.750  
   1737646.548    -1426282.878          63.750  
   1504612.491      276262.626          63.750  
   3318548.838      822534.953          63.750  
     30964.430     -429175.261          63.750  
 23  6  5 17 50 37.6790000  0  7G19G 3G 6G 9G31G17G 4
   2450307.988      713905.037          63.750  
     95977.582      612387.562          63.750  
   1636984.166     -890230.107          63.750  
   1737107.198    -1429109.553          63.750  
   1504800.587      277247.890          63.750  
   3319048.797      825164.993          63.750  
     30754.064     -430266.932          63.750  
 23  6  5 17 50 38.6790000  0  7G19G 3G 6G 9G31G17G 4
   2450669.691      715802.982          63.750  
     96234.463      613744.021          63.750  
   1636551.973     -892505.115          63.750  
   1736568.647    -1431935.808          63.750  
   1504987.604      278233.979          63.750  
   3319549.095      827795.446          63.750  
     30546.310     -431357.966          63.750  
 23  6  5 17 50 39.6790000  0  7G19G 3G 6G 9G31G17G 4
   2451031.397      717701.629          63.750  
     96492.067      615101.003          63.750  
   1636119.483     -894779.524          63.750  
   1736029.919    -1434761.610          63.750  
   1505174.644      279220.873          63.750  
   3320051.650      830426.334          63.750  
     30337.228     -432448.406          63.750  
 23  6  5 17 50 40.6790000  0  7G19G 3G 6G 9G31G17G 4
   2451394.679      719600.839          63.750  
     96749.250      616458.434          63.750  
   1635687.005     -897053.480          63.750  
   1735492.391    -1437587.120          63.750  
   1505359.895      280208.473          63.750  
   3320551.137      833057.510          63.750  
     30130.612     -433538.332          63.750  
 23  6  5 17 50 41.6790000  0  7G19G 3G 6G 9G31G17G 4
   2451754.392      721500.637          63.750  
     97006.013      617816.293          63.750  
   1635253.615     -899326.969          63.750  
   1734954.949    -1440412.324          63.750  
   1505548.771      281196.770          63.750  
   3321053.349      835688.991          63.750  
     29924.265     -434627.758          63.750  
 23  6  5 17 50 42.6790000  0  7G19G 3G 6G 9G31G17G 4
   2452116.667      723400.992          63.750  
     97264.430      619174.535          63.750  
   1634820.104     -901599.995          63.750  
   1734417.052    -1443237.247          63.750  
   1505735.997      282185.736          63.750  
   3321555.154      838320.734          63.750  
     29713.456     -435716.705          63.750  
 23  6  5 17 50 43.6790000  0  7G19G 3G 6G 9G31G17G 4
   2452479.279      725301.200          63.750  
     97521.650      620532.519          63.750  
   1634386.545     -903873.304          63.750  
   1733880.319    -1446062.573          63.750  
   1505924.356      283174.668          63.750  
   3322056.564      840952.056          63.750  
     29507.496     -436805.883          63.750  
 23  6  5 17 50 44.6790000  0  7G19G 3G 6G 9G31G17G 4
   2452838.003      727201.742          63.750  
     97782.321      621890.686          63.750  
   1633954.857     -906146.383          63.750  
   1733342.933    -1448887.844          63.750  
   1506113.499      284164.037          63.750  
   3322555.098      843583.436          63.750  
     29296.353     -437894.802          63.750  
 23  6  5 17 50 45.6790000  0  7G19G 3G 6G 9G31G17G 4
   2453200.847      729103.062          63.750  
     98040.025      623249.467          63.750  
   1633520.989     -908418.784          63.750  
   1732805.371    -1451712.617          63.750  
   1506303.195      285154.316          63.750  
   3323056.773      846215.309          63.750  
     29091.672     -438983.010          63.750  
 23  6  5 17 50 46.6790000  0  7G19G 3G 6G 9G31G17G 4
   2453560.477      731004.906          63.750  
     98296.751      624608.629          63.750  
   1633092.021     -910690.791          63.750  
   1732268.262    -1454537.133          63.750  
   1506490.358      286145.219          63.750  
   3323558.271      848847.427          63.750  
     28883.860     -440070.763          63.750  
 23  6  5 17 50 47.6790000  0  7G19G 3G 6G 9G31G17G 4
   2453922.624      732906.956          63.750  
     98552.863      625967.861          63.750  
   1632658.697     -912962.683          63.750  
   1731731.762    -1457361.703          63.750  
   1506678.545      287136.459          63.750  
   3324059.291      851479.479          63.750  
     28676.039     -441158.391          63.750  
 23  6  5 17 50 48.6790000  0  7G19G 3G 6G 9G31G17G 4
   2454284.763      734809.649          63.750  
     98809.356      627327.578          63.750  
   1632224.396     -915234.058          63.750  
   1731192.979    -1460185.918          63.750  
   1506866.729      288128.439          63.750  
   3324555.673      854111.868          63.750  
     28471.535     -442245.478          63.750  
 23  6  5 17 50 49.6790000  0  7G19G 3G 6G 9G31G17G 4
   2454646.077      736713.620          63.750  
     99069.305      628688.436          63.750  
   1631792.206     -917504.241          63.750  
   1730655.912    -1463009.104          63.750  
   1507055.631      289121.833          63.750  
   3325059.079      856745.279          63.750  
     28264.802     -443331.332          63.750  
 23  6  5 17 50 50.6790000  0  7G19G 3G 6G 9G31G17G 4
   2455010.848      738618.210          63.750  
     99326.383      630049.755          63.750  
   1631359.578     -919773.930          63.750  
   1730119.008    -1465831.950          63.750  
   1507246.355      290115.965          63.750  
   3325559.405      859379.023          63.750  
     28059.115     -444416.663          63.750  
 23  6  5 17 50 51.6790000  0  7G19G 3G 6G 9G31G17G 4
   2455374.120      740523.577          63.750  
     99585.215      631411.717          63.750  
   1630925.666     -922042.961          63.750  
   1729582.314    -1468654.289          63.750  
   1507435.143      291110.991          63.750  
   3326060.522      862013.281          63.750  
     27852.120     -445501.271          63.750  
 23  6  5 17 50 52.6790000  0  7G19G 3G 6G 9G31G17G 4
   2455735.782      742428.653          63.750  
     99845.478      632773.242          63.750  
   1630495.160     -924312.397          63.750  
   1729044.137    -1471477.209          63.750  
   1507626.188      292105.823          63.750  
   3326564.492      864646.952          63.750  
     27648.111     -446586.271          63.750  
 23  6  5 17 50 53.6790000  0  7G19G 3G 6G 9G31G17G 4
   2456098.878      744334.575          63.750  
    100107.000      634135.463          63.750  
   1630061.669     -926581.089          63.750  
   1728507.069    -1474299.533          63.750  
   1507816.074      293101.624          63.750  
   3327064.199      867281.181          63.750  
     27437.706     -447670.488          63.750  
 23  6  5 17 50 54.6790000  0  7G19G 3G 6G 9G31G17G 4
   2456460.758      746241.046          63.750  
    100363.341      635498.085          63.750  
   1629631.709     -928849.348          63.750  
   1727970.688    -1477121.574          63.750  
   1508006.121      294098.112          63.750  
   3327564.229      869915.685          63.750  
     27233.038     -448754.241          63.750  
 23  6  5 17 50 55.6790000  0  7G19G 3G 6G 9G31G17G 4
   2456824.169      748147.598          63.750  
    100625.781      636860.649          63.750  
   1629201.308     -931117.615          63.750  
   1727435.477    -1479943.798          63.750  
   1508197.010      295094.789          63.750  
   3328068.746      872550.013          63.750  
     27025.818     -449837.967          63.750  
 23  6  5 17 50 56.6790000  0  7G19G 3G 6G 9G31G17G 4
   2457185.108      750055.473          63.750  
    100880.368      638224.408          63.750  
   1628769.119     -933384.679          63.750  
   1726899.077    -1482764.958          63.750  
   1508386.374      296092.922          63.750  
   3328570.893      875185.356          63.750  
     26822.025     -450920.454          63.750  
 23  6  5 17 50 57.6790000  0  7G19G 3G 6G 9G31G17G 4
   2457548.513      751964.015          63.750  
    101141.454      639588.649          63.750  
   1628339.758     -935651.195          63.750  
   1726360.066    -1485585.753          63.750  
   1508574.131      297091.810          63.750  
   3329070.235      877821.107          63.750  
     26615.372     -452002.347          63.750  
 23  6  5 17 50 58.6790000  0  7G19G 3G 6G 9G31G17G 4
   2457911.185      753872.328          63.750  
    101400.595      640952.545          63.750  
   1627907.959     -937918.029          63.750  
   1725824.156    -1488407.021          63.750  
   1508764.911      298090.612          63.750  
   3329573.451      880456.345          63.750  
     26408.362     -453084.533          63.750  
 23  6  5 17 50 59.6790000  0  7G19G 3G 6G 9G31G17G 4
   2458276.023      755781.290          63.750  
    101659.976      642316.924          63.750  
   1627477.244     -940184.356          63.750  
   1725283.601    -1491227.926          63.750  
   1508954.456      299090.154          63.750  
   3330071.519      883091.939          63.750  
     26203.270     -454166.168          63.750  
 23  6  5 17 51  0.6790000  0  7G19G 3G 6G 9G31G17G 4
   2458638.925      757691.573          63.750  
    101916.798      643682.482          63.750  
   1627046.870     -942449.440          63.750  
   1724748.865    -1494047.770          63.750  
   1509145.308      300091.154          63.750  
   3330577.804      885728.581          63.750  
     25993.394     -455246.549          63.750  
 23  6  5 17 51  1.6790000  0  7G19G 3G 6G 9G31G17G 4
   2459004.107      759602.383          63.750  
    102178.487      645048.451          63.750  
   1626616.889     -944714.110          63.750  
   1724210.848    -1496867.344          63.750  
   1509337.459      301092.796          63.750  
   3331076.441      888365.473          63.750  
     25790.690     -456326.466          63.750  
 23  6  5 17 51  2.6790000  0  7G19G 3G 6G 9G31G17G 4
   2459366.515      761513.704          63.750  
    102441.985      646414.752          63.750  
   1626186.389     -946978.389          63.750  
   1723674.473    -1499686.686          63.750  
   1509526.649      302095.063          63.750  
   3331577.104      891002.593          63.750  
     25587.813     -457405.954          63.750  
 23  6  5 17 51  3.6790000  0  7G19G 3G 6G 9G31G17G 4
   2459731.161      763424.994          63.750  
    102704.231      647780.906          63.750  
   1625754.038     -949242.801          63.750  
   1723137.122    -1502506.338          63.750  
   1509717.791      303097.412          63.750  
   3332079.945      893639.386          63.750  
     25381.170     -458485.559          63.750  
 23  6  5 17 51  4.6790000  0  7G19G 3G 6G 9G31G17G 4
   2460094.179      765337.267          63.750  
    102961.922      649147.854          63.750  
   1625322.417     -951506.333          63.750  
   1722601.943    -1505325.250          63.750  
   1509906.528      304100.877          63.750  
   3332583.025      896276.915          63.750  
     25176.479     -459564.246          63.750  
 23  6  5 17 51  5.6790000  0  7G19G 3G 6G 9G31G17G 4
   2460457.516      767250.253          63.750  
    103225.184      650515.408          63.750  
   1624891.234     -953769.270          63.750  
   1722065.126    -1508143.739          63.750  
   1510099.066      305105.174          63.750  
   3333086.490      898914.842          63.750  
     24970.156     -460642.297          63.750  
 23  6  5 17 51  6.6790000  0  7G19G 3G 6G 9G31G17G 4
   2460822.568      769164.329          63.750  
    103487.247      651883.890          63.750  
   1624458.965     -956031.223          63.750  
   1721528.839    -1510961.386          63.750  
   1510288.621      306110.681          63.750  
   3333588.229      901553.614          63.750  
     24767.448     -461719.335          63.750  
 23  6  5 17 51  7.6790000  0  7G19G 3G 6G 9G31G17G 4
   2461185.116      771078.760          63.750  
    103749.486      653252.612          63.750  
   1624029.903     -958292.912          63.750  
   1720993.112    -1513778.959          63.750  
   1510483.388      307116.650          63.750  
   3334090.662      904192.460          63.750  
     24566.240     -462796.064          63.750  
 23  6  5 17 51  8.6790000  0  7G19G 3G 6G 9G31G17G 4
   2461552.036      772994.183          63.750  
    104007.542      654622.144          63.750  
   1623599.538     -960553.734          63.750  
   1720457.966    -1516595.794          63.750  
   1510671.198      308123.740          63.750  
   3334593.964      906832.024          63.750  
     24360.016     -463871.894          63.750  
 23  6  5 17 51  9.6790000  0  7G19G 3G 6G 9G31G17G 4
   2461916.855      774910.177          63.750  
    104270.480      655992.134          63.750  
   1623168.470     -962814.092          63.750  
   1719922.728    -1519412.334          63.750  
   1510862.988      309131.513          63.750  
   3335095.653      909471.858          63.750  
     24152.964     -464947.239          63.750  
 23  6  5 17 51 10.6790000  0  7G19G 3G 6G 9G31G17G 4
   2462282.121      776826.391          63.750  
    104530.655      657362.167          63.750  
   1622738.454     -965074.320          63.750  
   1719386.389    -1522228.927          63.750  
   1511055.551      310139.632          63.750  
   3335603.197      912111.619          63.750  
     23948.449     -466022.431          63.750  
 23  6  5 17 51 11.6790000  0  7G19G 3G 6G 9G31G17G 4
   2462647.677      778743.182          63.750  
    104791.188      658732.648          63.750  
   1622309.665     -967334.097          63.750  
   1718847.996    -1525045.202          63.750  
   1511247.898      311148.433          63.750  
   3336104.290      914751.703          63.750  
     23741.203     -467097.114          63.750  
 23  6  5 17 51 12.6790000  0  7G19G 3G 6G 9G31G17G 4
   2463013.371      780660.608          63.750  
    105051.341      660103.597          63.750  
   1621881.309     -969593.343          63.750  
   1718313.179    -1527861.120          63.750  
   1511440.729      312157.993          63.750  
   3336607.448      917392.132          63.750  
     23539.131     -468171.254          63.750  
 23  6  5 17 51 13.6790000  0  7G19G 3G 6G 9G31G17G 4
   2463378.052      782578.212          63.750  
    105309.887      661474.629          63.750  
   1621451.549     -971852.506          63.750  
   1717776.055    -1530677.120          63.750  
   1511627.729      313167.838          63.750  
   3337110.380      920032.455          63.750  
     23333.152     -469245.273          63.750  
 23  6  5 17 51 14.6790000  0  7G19G 3G 6G 9G31G17G 4
   2463743.103      784497.312          63.750  
    105571.209      662846.983          63.750  
   1621021.377     -974110.295          63.750  
   1717239.180    -1533491.893          63.750  
   1511819.387      314179.308          63.750  
   3337608.422      922673.999          63.750  
     23131.607     -470317.868          63.750  
 23  6  5 17 51 15.6790000  0  7G19G 3G 6G 9G31G17G 4
   2464108.414      786416.442          63.750  
    105833.232      664219.201          63.750  
   1620590.329     -976368.160          63.750  
   1716704.077    -1536306.907          63.750  
   1512009.979      315190.928          63.750  
   3338109.107      925315.295          63.750  
     22928.520     -471390.533          63.750  
 23  6  5 17 51 16.6790000  0  7G19G 3G 6G 9G31G17G 4
   2464473.186      788335.708          63.750  
    106093.613      665591.424          63.750  
   1620161.779     -978625.994          63.750  
   1716166.974    -1539122.041          63.750  
   1512200.626      316202.801          63.750  
   3338607.016      927956.443          63.750  
     22721.962     -472463.118          63.750  
 23  6  5 17 51 17.6790000  0  7G19G 3G 6G 9G31G17G 4
   2464837.636      790255.572          63.750  
    106353.987      666964.104          63.750  
   1619732.133     -980883.337          63.750  
   1715631.547    -1541936.865          63.750  
   1512397.390      317215.384          63.750  
   3339110.827      930597.896          63.750  
     22521.575     -473535.177          63.750  
 23  6  5 17 51 18.6790000  0  7G19G 3G 6G 9G31G17G 4
   2465204.574      792176.441          63.750  
    106614.526      668337.658          63.750  
   1619304.238     -983139.747          63.750  
   1715095.245    -1544750.908          63.750  
   1512593.219      318229.112          63.750  
   3339612.653      933240.093          63.750  
     22313.881     -474606.300          63.750  
 23  6  5 17 51 19.6790000  0  7G19G 3G 6G 9G31G17G 4
   2465570.196      794097.736          63.750  
    106877.429      669711.486          63.750  
   1618872.624     -985395.881          63.750  
   1714559.860    -1547564.818          63.750  
   1512788.138      319243.360          63.750  
   3340119.266      935882.405          63.750  
     22111.244     -475677.053          63.750  
 23  6  5 17 51 20.6790000  0  7G19G 3G 6G 9G31G17G 4
   2465936.200      796019.285          63.750  
    107140.071      671085.415          63.750  
   1618443.377     -987651.854          63.750  
   1714025.500    -1550378.739          63.750  
   1512981.280      320257.992          63.750  
   3340624.202      938524.732          63.750  
     21903.901     -476747.653          63.750  
 23  6  5 17 51 21.6790000  0  7G19G 3G 6G 9G31G17G 4
   2466302.508      797941.631          63.750  
    107404.244      672460.028          63.750  
   1618012.499     -989907.121          63.750  
   1713490.440    -1553192.118          63.750  
   1513172.025      321273.532          63.750  
   3341126.836      941167.562          63.750  
     21700.842     -477817.499          63.750  
 23  6  5 17 51 22.6790000  0  7G19G 3G 6G 9G31G17G 4
   2466668.934      799865.062          63.750  
    107666.005      673835.564          63.750  
   1617579.589     -992161.412          63.750  
   1712955.908    -1556004.682          63.750  
   1513366.439      322290.304          63.750  
   3341632.984      943811.195          63.750  
     21497.427     -478886.364          63.750  
 23  6  5 17 51 23.6790000  0  7G19G 3G 6G 9G31G17G 4
   2467033.811      801788.821          63.750  
    107926.848      675211.290          63.750  
   1617152.628     -994415.487          63.750  
   1712420.896    -1558817.180          63.750  
   1513559.431      323307.506          63.750  
   3342137.686      946454.907          63.750  
     21295.147     -479954.955          63.750  
 23  6  5 17 51 24.6790000  0  7G19G 3G 6G 9G31G17G 4
   2467401.301      803713.409          63.750  
    108189.837      676587.682          63.750  
   1616722.587     -996668.833          63.750  
   1711885.422    -1561629.131          63.750  
   1513754.168      324325.640          63.750  
   3342639.654      949099.114          63.750  
     21090.484     -481022.798          63.750  
 23  6  5 17 51 25.6790000  0  7G19G 3G 6G 9G31G17G 4
   2467766.954      805638.630          63.750  
    108450.544      677964.595          63.750  
   1616294.008     -998921.640          63.750  
   1711352.508    -1564440.670          63.750  
   1513949.242      325344.576          63.750  
   3343141.847      951743.732          63.750  
     20890.074     -482090.045          63.750  
 23  6  5 17 51 26.6790000  0  7G19G 3G 6G 9G31G17G 4
   2468132.225      807563.979          63.750  
    108713.988      679341.497          63.750  
   1615865.525    -1001174.425          63.750  
   1710818.655    -1567252.367          63.750  
   1514141.471      326363.733          63.750  
   3343641.048      954388.177          63.750  
     20686.580     -483157.245          63.750  
 23  6  5 17 51 27.6790000  0  7G19G 3G 6G 9G31G17G 4
   2468499.487      809489.934          63.750  
    108974.431      680718.829          63.750  
   1615438.019    -1003426.715          63.750  
   1710283.278    -1570063.731          63.750  
   1514338.682      327383.614          63.750  
   3344146.454      957032.947          63.750  
     20482.153     -484223.928          63.750  
 23  6  5 17 51 28.6790000  0  7G19G 3G 6G 9G31G17G 4
   2468866.171      811416.838          63.750  
    109233.813      682096.981          63.750  
   1615011.177    -1005678.167          63.750  
   1709746.556    -1572874.415          63.750  
   1514533.643      328404.556          63.750  
   3344645.339      959678.379          63.750  
     20281.230     -485289.770          63.750  
 23  6  5 17 51 29.6790000  0  7G19G 3G 6G 9G31G17G 4
   2469231.293      813344.583          63.750  
    109498.256      683475.831          63.750  
   1614587.086    -1007928.880          63.750  
   1709210.635    -1575684.536          63.750  
   1514728.688      329426.439          63.750  
   3345150.302      962324.366          63.750  
     20075.967     -486354.800          63.750  
 23  6  5 17 51 30.6790000  0  7G19G 3G 6G 9G31G17G 4
   2469598.358      815272.268          63.750  
    109760.609      684854.458          63.750  
   1614157.316    -1010179.749          63.750  
   1708676.161    -1578494.955          63.750  
   1514920.846      330448.403          63.750  
   3345651.371      964970.026          63.750  
     19872.839     -487419.980          63.750  
 23  6  5 17 51 31.6790000  0  7G19G 3G 6G 9G31G17G 4
   2469964.406      817200.337          63.750  
    110022.870      686233.344          63.750  
   1613731.717    -1012430.330          63.750  
   1708140.523    -1581305.261          63.750  
   1515115.860      331470.850          63.750  
   3346149.668      967615.800          63.750  
     19670.871     -488484.853          63.750  
 23  6  5 17 51 32.6790000  0  7G19G 3G 6G 9G31G17G 4
   2470331.205      819129.751          63.750  
    110283.430      687613.427          63.750  
   1613301.273    -1014679.683          63.750  
   1707605.688    -1584114.499          63.750  
   1515310.509      332494.770          63.750  
   3346655.957      970262.621          63.750  
     19466.892     -489548.418          63.750  
 23  6  5 17 51 33.6790000  0  7G19G 3G 6G 9G31G17G 4
   2470699.702      821059.653          63.750  
    110545.232      688993.854          63.750  
   1612876.357    -1016928.636          63.750  
   1707069.899    -1586923.497          63.750  
   1515506.056      333519.307          63.750  
   3347162.772      972909.673          63.750  
     19262.474     -490611.567          63.750  
 23  6  5 17 51 34.6790000  0  7G19G 3G 6G 9G31G17G 4
   2471066.586      822990.118          63.750  
    110803.841      690374.702          63.750  
   1612446.332    -1019177.140          63.750  
   1706532.274    -1589732.202          63.750  
   1515696.385      334544.515          63.750  
   3347664.980      975556.960          63.750  
     19062.118     -491674.269          63.750  
 23  6  5 17 51 35.6790000  0  7G19G 3G 6G 9G31G17G 4
   2471434.053      824920.659          63.750  
    111072.813      691755.492          63.750  
   1612018.195    -1021425.664          63.750  
   1705999.691    -1592541.087          63.750  
   1515887.029      335569.945          63.750  
   3348172.437      978204.078          63.750  
     18858.838     -492736.926          63.750  
 23  6  5 17 51 36.6790000  0  7G19G 3G 6G 9G31G17G 4
   2471802.782      826852.332          63.750  
    111336.443      693137.271          63.750  
   1611588.332    -1023673.155          63.750  
   1705465.343    -1595349.113          63.750  
   1516085.188      336596.612          63.750  
   3348674.740      980852.031          63.750  
     18657.600     -493798.536          63.750  
 23  6  5 17 51 37.6790000  0  7G19G 3G 6G 9G31G17G 4
   2472170.832      828784.627          63.750  
    111596.152      694519.518          63.750  
   1611161.258    -1025920.124          63.750  
   1704932.141    -1598156.763          63.750  
   1516280.879      337624.032          63.750  
   3349176.303      983500.344          63.750  
     18453.756     -494859.603          63.750  
 23  6  5 17 51 38.6790000  0  7G19G 3G 6G 9G31G17G 4
   2472537.523      830717.800          63.750  
    111860.262      695902.536          63.750  
   1610730.686    -1028166.333          63.750  
   1704399.127    -1600963.800          63.750  
   1516478.999      338652.432          63.750  
   3349680.711      986149.252          63.750  
     18253.747     -495919.819          63.750  
 23  6  5 17 51 39.6790000  0  7G19G 3G 6G 9G31G17G 4
   2472906.275      832651.448          63.750  
    112124.303      697285.859          63.750  
   1610304.655    -1030412.170          63.750  
   1703865.696    -1603770.636          63.750  
   1516677.707      339681.458          63.750  
   3350180.584      988798.348          63.750  
     18054.780     -496979.692          63.750  
 23  6  5 17 51 40.6790000  0  7G19G 3G 6G 9G31G17G 4
   2473273.909      834585.723          63.750  
    112386.482      698669.677          63.750  
   1609879.159    -1032657.474          63.750  
   1703331.757    -1606577.102          63.750  
   1516873.148      340711.204          63.750  
   3350689.469      991447.799          63.750  
     17852.210     -498038.981          63.750  
 23  6  5 17 51 41.6790000  0  7G19G 3G 6G 9G31G17G 4
   2473643.473      836520.880          63.750  
    112651.072      700054.227          63.750  
   1609452.700    -1034901.985          63.750  
   1702798.930    -1609382.957          63.750  
   1517070.171      341741.959          63.750  
   3351189.342      994097.838          63.750  
     17651.389     -499097.456          63.750  
 23  6  5 17 51 42.6790000  0  7G19G 3G 6G 9G31G17G 4
   2474012.188      838456.786          63.750  
    112911.975      701439.377          63.750  
   1609026.257    -1037145.870          63.750  
   1702265.502    -1612188.327          63.750  
   1517266.644      342773.541          63.750  
   3351693.608      996748.332          63.750  
     17446.676     -500155.276          63.750  
 23  6  5 17 51 43.6790000  0  7G19G 3G 6G 9G31G17G 4
   2474379.833      840393.253          63.750  
    113178.260      702824.940          63.750  
   1608600.769    -1039389.291          63.750  
   1701731.034    -1614993.397          63.750  
   1517459.989      343805.823          63.750  
   3352199.949      999399.132          63.750  
     17246.912     -501212.579          63.750  
 23  6  5 17 51 44.6790000  0  7G19G 3G 6G 9G31G17G 4
   2474747.070      842329.789          63.750  
    113443.839      704210.432          63.750  
   1608173.162    -1041632.740          63.750  
   1701197.252    -1617798.670          63.750  
   1517659.625      344838.297          63.750  
   3352701.412     1002049.734          63.750  
     17045.715     -502269.887          63.750  
 23  6  5 17 51 45.6790000  0  7G19G 3G 6G 9G31G17G 4
   2475116.775      844266.470          63.750  
    113708.037      705595.933          63.750  
   1607745.728    -1043876.138          63.750  
   1700662.255    -1620604.049          63.750  
   1517852.713      345871.052          63.750  
   3353211.757     1004700.156          63.750  
     16846.422     -503327.118          63.750  
 23  6  5 17 51 46.6790000  0  7G19G 3G 6G 9G31G17G 4
   2475483.222      846203.909          63.750  
    113970.607      706982.034          63.750  
   1607320.556    -1046118.884          63.750  
   1700128.450    -1623408.937          63.750  
   1518050.592      346904.682          63.750  
   3353712.745     1007351.091          63.750  
     16645.360     -504383.674          63.750  
 23  6  5 17 51 47.6790000  0  7G19G 3G 6G 9G31G17G 4
   2475852.138      848142.809          63.750  
    114233.337      708369.462          63.750  
   1606892.512    -1048360.292          63.750  
   1699594.431    -1626212.627          63.750  
   1518246.740      347939.872          63.750  
   3354219.351     1010003.195          63.750  
     16445.267     -505438.847          63.750  
 23  6  5 17 51 48.6790000  0  7G19G 3G 6G 9G31G17G 4
   2476221.378      850082.021          63.750  
    114498.799      709757.061          63.750  
   1606466.811    -1050601.445          63.750  
   1699059.661    -1629016.266          63.750  
   1518444.204      348975.518          63.750  
   3354723.835     1012655.332          63.750  
     16246.242     -506493.770          63.750  
 23  6  5 17 51 49.6790000  0  7G19G 3G 6G 9G31G17G 4
   2476588.898      852021.700          63.750  
    114761.485      711145.001          63.750  
   1606039.945    -1052842.252          63.750  
   1698526.769    -1631819.688          63.750  
   1518640.740      350011.748          63.750  
   3355227.968     1015307.687          63.750  
     16046.646     -507548.271          63.750  
 23  6  5 17 51 50.6790000  0  7G19G 3G 6G 9G31G17G 4
   2476959.090      853961.886          63.750  
    115029.918      712533.306          63.750  
   1605614.149    -1055082.650          63.750  
   1697993.393    -1634622.864          63.750  
   1518840.121      351048.598          63.750  
   3355731.209     1017960.251          63.750  
     15845.689     -508602.370          63.750  
 23  6  5 17 51 51.6790000  0  7G19G 3G 6G 9G31G17G 4
   2477328.144      855902.089          63.750  
    115293.188      713921.484          63.750  
   1605187.354    -1057323.131          63.750  
   1697458.862    -1637426.276          63.750  
   1519036.025      352085.585          63.750  
   3356235.345     1020612.546          63.750  
     15644.243     -509656.500          63.750  
 23  6  5 17 51 52.6790000  0  7G19G 3G 6G 9G31G17G 4
   2477697.842      857842.625          63.750  
    115555.525      715309.864          63.750  
   1604760.631    -1059563.355          63.750  
   1696926.157    -1640229.624          63.750  
   1519232.314      353123.038          63.750  
   3356739.162     1023264.902          63.750  
     15445.449     -510710.362          63.750  
 23  6  5 17 51 53.6790000  0  7G19G 3G 6G 9G31G17G 4
   2478066.374      859783.663          63.750  
    115819.280      716698.573          63.750  
   1604333.976    -1061803.217          63.750  
   1696393.669    -1643032.738          63.750  
   1519428.188      354161.110          63.750  
   3357247.205     1025917.459          63.750  
     15246.402     -511763.812          63.750  
 23  6  5 17 51 54.6790000  0  7G19G 3G 6G 9G31G17G 4
   2478435.482      861725.556          63.750  
    116086.271      718088.026          63.750  
   1603909.321    -1064042.299          63.750  
   1695859.014    -1645835.259          63.750  
   1519628.712      355200.162          63.750  
   3357752.094     1028570.622          63.750  
     15041.143     -512816.461          63.750  
 23  6  5 17 51 55.6790000  0  7G19G 3G 6G 9G31G17G 4
   2478805.039      863668.327          63.750  
    116351.326      719478.193          63.750  
   1603484.753    -1066280.596          63.750  
   1695326.546    -1648637.149          63.750  
   1519828.095      356240.201          63.750  
   3358256.180     1031224.355          63.750  
     14842.082     -513868.280          63.750  
 23  6  5 17 51 56.6790000  0  7G19G 3G 6G 9G31G17G 4
   2479174.049      865611.926          63.750  
    116619.946      720869.062          63.750  
   1603054.563    -1068518.162          63.750  
   1694795.391    -1651438.471          63.750  
   1520023.320      357281.203          63.750  
   3358765.953     1033878.685          63.750  
     14641.437     -514919.363          63.750  
 23  6  5 17 51 57.6790000  0  7G19G 3G 6G 9G31G17G 4
   2479543.206      867556.213          63.750  
    116880.577      722260.491          63.750  
   1602632.045    -1070755.134          63.750  
   1694263.620    -1654239.361          63.750  
   1520223.273      358322.989          63.750  
   3359265.911     1036533.387          63.750  
     14445.415     -515969.805          63.750  
 23  6  5 17 51 58.6790000  0  7G19G 3G 6G 9G31G17G 4
   2479914.567      869499.609          63.750  
    117147.747      723650.867          63.750  
   1602204.978    -1072993.106          63.750  
   1693731.997    -1657041.422          63.750  
   1520421.315      359364.021          63.750  
   3359769.484     1039186.935          63.750  
     14245.880     -517021.229          63.750  
 23  6  5 17 51 59.6790000  0  7G19G 3G 6G 9G31G17G 4
   2480285.236      871444.473          63.750  
    117408.756      725042.571          63.750  
   1601779.225    -1075229.722          63.750  
   1693198.522    -1659842.274          63.750  
   1520621.592      360406.626          63.750  
   3360273.521     1041841.659          63.750  
     14045.522     -518071.259          63.750  
 23  6  5 17 52  0.6790000  0  7G19G 3G 6G 9G31G17G 4
   2480656.188      873390.464          63.750  
    117673.072      726435.283          63.750  
   1601353.602    -1077465.295          63.750  
   1692666.353    -1662642.250          63.750  
   1520820.812      361450.507          63.750  
   3360780.921     1044497.237          63.750  
     13848.181     -519120.219          63.750  
 23  6  5 17 52  1.6790000  0  7G19G 3G 6G 9G31G17G 4
   2481027.595      875336.554          63.750  
    117937.254      727827.949          63.750  
   1600929.045    -1079700.857          63.750  
   1692133.896    -1665442.389          63.750  
   1521019.425      362494.599          63.750  
   3361283.273     1047152.646          63.750  
     13650.235     -520169.133          63.750  
 23  6  5 17 52  2.6790000  0  7G19G 3G 6G 9G31G17G 4
   2481398.796      877283.344          63.750  
    118202.636      729221.158          63.750  
   1600504.141    -1081935.823          63.750  
   1691601.229    -1668242.089          63.750  
   1521216.712      363539.495          63.750  
   3361791.054     1049808.459          63.750  
     13448.983     -521217.439          63.750  
 23  6  5 17 52  3.6790000  0  7G19G 3G 6G 9G31G17G 4
   2481766.790      879231.436          63.750  
    118465.153      730615.530          63.750  
   1600080.398    -1084169.589          63.750  
   1691068.651    -1671040.740          63.750  
   1521418.514      364585.831          63.750  
   3362297.556     1052465.302          63.750  
     13250.667     -522264.501          63.750  
 23  6  5 17 52  4.6790000  0  7G19G 3G 6G 9G31G17G 4
   2482136.365      881179.583          63.750  
    118734.160      732009.833          63.750  
   1599654.011    -1086403.394          63.750  
   1690535.069    -1673839.599          63.750  
   1521614.521      365632.340          63.750  
   3362800.246     1055121.910          63.750  
     13053.290     -523311.580          63.750  
 23  6  5 17 52  5.6790000  0  7G19G 3G 6G 9G31G17G 4
   2482505.514      883127.729          63.750  
    118998.828      733403.966          63.750  
   1599230.760    -1088637.288          63.750  
   1690003.639    -1676638.712          63.750  
   1521814.541      366678.964          63.750  
   3363308.067     1057778.257          63.750  
     12854.657     -524358.739          63.750  
 23  6  5 17 52  6.6790000  0  7G19G 3G 6G 9G31G17G 4
   2482876.477      885076.114          63.750  
    119262.673      734798.217          63.750  
   1598805.781    -1090871.041          63.750  
   1689469.885    -1679437.858          63.750  
   1522018.586      367725.967          63.750  
   3363811.271     1060434.535          63.750  
     12655.601     -525405.711          63.750  
 23  6  5 17 52  7.6790000  0  7G19G 3G 6G 9G31G17G 4
   2483248.275      887025.335          63.750  
    119529.417      736193.161          63.750  
   1598380.141    -1093104.072          63.750  
   1688936.221    -1682236.400          63.750  
   1522218.335      368773.889          63.750  
   3364318.311     1063091.380          63.750  
     12457.607     -526451.910          63.750  
 23  6  5 17 52  8.6790000  0  7G19G 3G 6G 9G31G17G 4
   2483616.353      888974.882          63.750  
    119793.474      737588.313          63.750  
   1597953.542    -1095336.841          63.750  
   1688403.031    -1685034.892          63.750  
   1522415.086      369822.303          63.750  
   3364822.591     1065748.274          63.750  
     12259.675     -527497.862          63.750  
 23  6  5 17 52  9.6790000  0  7G19G 3G 6G 9G31G17G 4
   2483990.557      890925.505          63.750  
    120062.266      738984.380          63.750  
   1597529.115    -1097568.658          63.750  
   1687870.022    -1687832.560          63.750  
   1522613.789      370871.882          63.750  
   3365325.865     1068405.976          63.750  
     12058.193     -528542.789          63.750  
 23  6  5 17 52 10.6790000  0  7G19G 3G 6G 9G31G17G 4
   2484362.101      892876.670          63.750  
    120327.232      740380.847          63.750  
   1597103.927    -1099800.018          63.750  
   1687337.245    -1690629.952          63.750  
   1522814.251      371922.143          63.750  
   3365832.092     1071063.922          63.750  
     11858.680     -529587.264          63.750  
 23  6  5 17 52 11.6790000  0  7G19G 3G 6G 9G31G17G 4
   2484734.728      894828.624          63.750  
    120594.117      741777.976          63.750  
   1596679.280    -1102030.686          63.750  
   1686805.462    -1693426.812          63.750  
   1523013.675      372973.310          63.750  
   3366341.842     1073722.386          63.750  
     11661.458     -530630.990          63.750  
 23  6  5 17 52 12.6790000  0  7G19G 3G 6G 9G31G17G 4
   2485107.143      896780.798          63.750  
    120855.146      743175.189          63.750  
   1596255.417    -1104261.224          63.750  
   1686275.731    -1696223.709          63.750  
   1523211.975      374024.824          63.750  
   3366847.486     1076380.799          63.750  
     11461.712     -531674.566          63.750  
 23  6  5 17 52 13.6790000  0  7G19G 3G 6G 9G31G17G 4
   2485478.737      898734.150          63.750  
    121122.130      744573.448          63.750  
   1595830.346    -1106490.697          63.750  
   1685742.430    -1699019.681          63.750  
   1523413.641      375077.626          63.750  
   3367352.278     1079040.086          63.750  
     11264.203     -532717.040          63.750  
 23  6  5 17 52 14.6790000  0  7G19G 3G 6G 9G31G17G 4
   2485849.239      900688.239          63.750  
    121390.553      745972.287          63.750  
   1595409.835    -1108719.499          63.750  
   1685210.348    -1701815.156          63.750  
   1523616.103      376131.291          63.750  
   3367861.248     1081699.856          63.750  
     11065.575     -533758.841          63.750  
 23  6  5 17 52 15.6790000  0  7G19G 3G 6G 9G31G17G 4
   2486222.566      902642.805          63.750  
    121654.758      747371.458          63.750  
   1594984.400    -1110947.930          63.750  
   1684679.590    -1704610.454          63.750  
   1523815.211      377185.538          63.750  
   3368370.083     1084359.805          63.750  
     10866.290     -534800.250          63.750  
 23  6  5 17 52 16.6790000  0  7G19G 3G 6G 9G31G17G 4
   2486595.475      904597.739          63.750  
    121922.011      748770.879          63.750  
   1594560.104    -1113176.101          63.750  
   1684149.014    -1707405.610          63.750  
   1524014.649      378240.302          63.750  
   3368869.966     1087019.831          63.750  
     10665.960     -535841.333          63.750  
 23  6  5 17 52 17.6790000  0  7G19G 3G 6G 9G31G17G 4
   2486966.050      906553.260          63.750  
    122188.760      750170.720          63.750  
   1594135.730    -1115403.777          63.750  
   1683617.630    -1710200.445          63.750  
   1524215.349      379295.764          63.750  
   3369380.270     1089680.184          63.750  
     10467.526     -536881.908          63.750  
 23  6  5 17 52 18.6790000  0  7G19G 3G 6G 9G31G17G 4
   2487340.455      908509.330          63.750  
    122457.192      751570.992          63.750  
   1593712.977    -1117630.978          63.750  
   1683086.223    -1712994.983          63.750  
   1524412.554      380351.914          63.750  
   3369887.284     1092340.797          63.750  
     10271.835     -537921.998          63.750  
 23  6  5 17 52 19.6790000  0  7G19G 3G 6G 9G31G17G 4
   2487709.254      910466.148          63.750  
    122725.176      752971.867          63.750  
   1593286.975    -1119857.550          63.750  
   1682552.989    -1715789.044          63.750  
   1524614.112      381408.904          63.750  
   3370395.085     1095001.879          63.750  
     10072.529     -538961.413          63.750  
 23  6  5 17 52 20.6790000  0  7G19G 3G 6G 9G31G17G 4
   2488084.348      912423.644          63.750  
    122993.938      754373.290          63.750  
   1592864.866    -1122083.505          63.750  
   1682020.229    -1718582.658          63.750  
   1524814.908      382466.729          63.750  
   3370899.262     1097663.371          63.750  
      9875.735     -540000.187          63.750  
 23  6  5 17 52 21.6790000  0  7G19G 3G 6G 9G31G17G 4
   2488455.495      914381.738          63.750  
    123260.559      755775.158          63.750  
   1592437.832    -1124308.986          63.750  
   1681487.546    -1721375.960          63.750  
   1525015.771      383525.259          63.750  
   3371405.333     1100325.173          63.750  
      9678.426     -541038.456          63.750  
 23  6  5 17 52 22.6790000  0  7G19G 3G 6G 9G31G17G 4
   2488827.544      916340.066          63.750  
    123524.646      757177.142          63.750  
   1592014.216    -1126534.309          63.750  
   1680955.160    -1724169.262          63.750  
   1525218.331      384584.149          63.750  
   3371908.459     1102986.922          63.750  
      9482.727     -542076.546          63.750  
 23  6  5 17 52 23.6790000  0  7G19G 3G 6G 9G31G17G 4
   2489202.193      918298.997          63.750  
    123793.294      758579.564          63.750  
   1591591.822    -1128759.151          63.750  
   1680424.770    -1726962.247          63.750  
   1525419.239      385643.725          63.750  
   3372416.105     1105649.004          63.750  
      9280.644     -543114.119          63.750  
 23  6  5 17 52 24.6790000  0  7G19G 3G 6G 9G31G17G 4
   2489573.838      920258.281          63.750  
    124062.872      759982.208          63.750  
   1591168.034    -1130983.703          63.750  
   1679891.408    -1729755.116          63.750  
   1525620.524      386703.821          63.750  
   3372926.775     1108311.147          63.750  
      9086.270     -544151.382          63.750  
 23  6  5 17 52 25.6790000  0  7G19G 3G 6G 9G31G17G 4
   2489947.348      922218.206          63.750  
    124329.750      761385.361          63.750  
   1590744.298    -1133207.716          63.750  
   1679361.811    -1732547.582          63.750  
   1525820.281      387764.683          63.750  
   3373427.553     1110973.672          63.750  
      8888.809     -545188.067          63.750  
 23  6  5 17 52 26.6790000  0  7G19G 3G 6G 9G31G17G 4
   2490320.827      924178.604          63.750  
    124594.897      762788.848          63.750  
   1590321.433    -1135431.367          63.750  
   1678828.701    -1735339.854          63.750  
   1526026.362      388826.106          63.750  
   3373937.053     1113636.369          63.750  
      8691.111     -546224.364          63.750  
 23  6  5 17 52 27.6790000  0  7G19G 3G 6G 9G31G17G 4
   2490693.962      926139.662          63.750  
    124863.184      764192.840          63.750  
   1589897.386    -1137654.403          63.750  
   1678298.441    -1738131.712          63.750  
   1526222.509      389888.337          63.750  
   3374442.691     1116299.469          63.750  
      8494.189     -547260.040          63.750  
 23  6  5 17 52 28.6790000  0  7G19G 3G 6G 9G31G17G 4
   2491070.126      928101.073          63.750  
    125127.854      765597.062          63.750  
   1589474.727    -1139877.227          63.750  
   1677766.496    -1740923.485          63.750  
   1526426.871      390951.013          63.750  
   3374950.859     1118962.629          63.750  
      8296.247     -548295.455          63.750  
 23  6  5 17 52 29.6790000  0  7G19G 3G 6G 9G31G17G 4
   2491443.037      930063.676          63.750  
    125395.438      767002.328          63.750  
   1589052.614    -1142098.939          63.750  
   1677235.384    -1743714.331          63.750  
   1526634.390      392015.023          63.750  
   3375464.431     1121626.695          63.750  
      8099.631     -549329.757          63.750  
 23  6  5 17 52 30.6790000  0  7G19G 3G 6G 9G31G17G 4
   2491818.203      932026.536          63.750  
    125664.254      768407.724          63.750  
   1588631.738    -1144320.469          63.750  
   1676703.038    -1746505.152          63.750  
   1526836.882      393079.427          63.750  
   3375972.143     1124290.749          63.750  
      7905.523     -550363.832          63.750  
 23  6  5 17 52 31.6790000  0  7G19G 3G 6G 9G31G17G 4
   2492192.229      933990.160          63.750  
    125932.120      769813.740          63.750  
   1588209.771    -1146541.343          63.750  
   1676172.046    -1749295.462          63.750  
   1527040.687      394144.669          63.750  
   3376476.385     1126955.298          63.750  
      7707.137     -551397.223          63.750  
 23  6  5 17 52 32.6790000  0  7G19G 3G 6G 9G31G17G 4
   2492564.672      935954.342          63.750  
    126196.661      771220.193          63.750  
   1587787.004    -1148761.749          63.750  
   1675639.840    -1752085.483          63.750  
   1527243.903      395210.620          63.750  
   3376983.005     1129620.085          63.750  
      7508.387     -552430.112          63.750  
 23  6  5 17 52 33.6790000  0  7G19G 3G 6G 9G31G17G 4
   2492937.752      937919.190          63.750  
    126467.667      772627.174          63.750  
   1587363.770    -1150981.576          63.750  
   1675107.433    -1754875.087          63.750  
   1527441.823      396277.369          63.750  
   3377489.808     1132285.309          63.750  
      7312.484     -553462.382          63.750  
 23  6  5 17 52 34.6790000  0  7G19G 3G 6G 9G31G17G 4
   2493314.189      939884.510          63.750  
    126734.813      774034.456          63.750  
   1586940.741    -1153201.037          63.750  
   1674576.866    -1757664.480          63.750  
   1527643.555      397344.701          63.750  
   3377997.750     1134950.696          63.750  
      7114.120     -554494.291          63.750  
 23  6  5 17 52 35.6790000  0  7G19G 3G 6G 9G31G17G 4
   2493686.692      941850.321          63.750  
    127002.237      775442.109          63.750  
   1586517.574    -1155420.079          63.750  
   1674045.288    -1760453.631          63.750  
   1527845.998      398412.651          63.750  
   3378501.319     1137616.278          63.750  
      6921.074     -555525.765          63.750  
 23  6  5 17 52 36.6790000  0  7G19G 3G 6G 9G31G17G 4
   2494059.853      943816.902          63.750  
    127272.505      776850.387          63.750  
   1586096.889    -1157638.466          63.750  
   1673513.550    -1763242.264          63.750  
   1528053.980      399481.482          63.750  
   3379008.654     1140282.362          63.750  
      6724.710     -556556.516          63.750  
 23  6  5 17 52 37.6790000  0  7G19G 3G 6G 9G31G17G 4
   2494433.129      945784.229          63.750  
    127537.349      778259.277          63.750  
   1585673.361    -1159856.176          63.750  
   1672984.753    -1766030.404          63.750  
   1528254.046      400551.188          63.750  
   3379512.743     1142948.910          63.750  
      6527.004     -557586.588          63.750  
 23  6  5 17 52 38.6790000  0  7G19G 3G 6G 9G31G17G 4
   2494807.521      947751.566          63.750  
    127804.862      779668.036          63.750  
   1585253.756    -1162073.976          63.750  
   1672454.423    -1768818.812          63.750  
   1528461.719      401621.023          63.750  
   3380016.431     1145615.169          63.750  
      6331.681     -558616.729          63.750  
 23  6  5 17 52 39.6790000  0  7G19G 3G 6G 9G31G17G 4
   2495182.194      949719.743          63.750  
    128070.762      781077.499          63.750  
   1584829.886    -1164291.030          63.750  
   1671924.380    -1771606.618          63.750  
   1528667.298      402691.825          63.750  
   3380527.041     1148281.991          63.750  
      6136.423     -559646.069          63.750  
 23  6  5 17 52 40.6790000  0  7G19G 3G 6G 9G31G17G 4
   2495559.820      951688.434          63.750  
    128339.235      782487.361          63.750  
   1584409.854    -1166507.645          63.750  
   1671393.913    -1774394.158          63.750  
   1528874.855      403763.262          63.750  
   3381032.366     1150949.063          63.750  
      5937.863     -560674.965          63.750  
 23  6  5 17 52 41.6790000  0  7G19G 3G 6G 9G31G17G 4
   2495933.871      953657.996          63.750  
    128606.002      783897.935          63.750  
   1583988.382    -1168723.481          63.750  
   1670864.405    -1777181.086          63.750  
   1529078.390      404835.702          63.750  
   3381541.566     1153616.723          63.750  
      5743.854     -561703.062          63.750  
 23  6  5 17 52 42.6790000  0  7G19G 3G 6G 9G31G17G 4
   2496309.867      955628.142          63.750  
    128875.485      785308.952          63.750  
   1583565.046    -1170938.844          63.750  
   1670334.065    -1779967.698          63.750  
   1529282.397      405908.822          63.750  
   3382047.920     1156284.662          63.750  
      5550.268     -562730.643          63.750  
 23  6  5 17 52 43.6790000  0  7G19G 3G 6G 9G31G17G 4
   2496686.104      957599.064          63.750  
    129142.079      786720.596          63.750  
   1583146.220    -1173153.479          63.750  
   1669804.197    -1782753.770          63.750  
   1529488.158      406982.857          63.750  
   3382557.756     1158953.123          63.750  
      5358.292     -563757.504          63.750  
 23  6  5 17 52 44.6790000  0  7G19G 3G 6G 9G31G17G 4
   2497061.358      959570.502          63.750  
    129412.347      788132.667          63.750  
   1582723.660    -1175367.746          63.750  
   1669274.829    -1785539.590          63.750  
   1529689.334      408057.549          63.750  
   3383066.020     1161621.843          63.750  
      5161.394     -564783.922          63.750  
 23  6  5 17 52 45.6790000  0  7G19G 3G 6G 9G31G17G 4
   2497435.263      961542.430          63.750  
    129678.840      789545.044          63.750  
   1582304.357    -1177581.589          63.750  
   1668743.999    -1788325.177          63.750  
   1529892.754      409132.810          63.750  
   3383576.712     1164290.710          63.750  
      4966.306     -565809.917          63.750  
 23  6  5 17 52 46.6790000  0  7G19G 3G 6G 9G31G17G 4
   2497809.760      963515.108          63.750  
    129946.893      790958.059          63.750  
   1581881.477    -1179794.764          63.750  
   1668214.533    -1791110.261          63.750  
   1530099.038      410208.976          63.750  
   3384083.216     1166960.092          63.750  
      4771.690     -566835.213          63.750  
 23  6  5 17 52 47.6790000  0  7G19G 3G 6G 9G31G17G 4
   2498185.012      965488.056          63.750  
    130216.559      792371.191          63.750  
   1581459.531    -1182007.765          63.750  
   1667685.468    -1793895.329          63.750  
   1530305.642      411285.529          63.750  
   3384592.028     1169629.463          63.750  
      4577.523     -567860.317          63.750  
 23  6  5 17 52 48.6790000  0  7G19G 3G 6G 9G31G17G 4
   2498561.513      967461.693          63.750  
    130485.682      793784.885          63.750  
   1581039.430    -1184220.164          63.750  
   1667156.125    -1796679.958          63.750  
   1530510.739      412362.915          63.750  
   3385099.494     1172299.231          63.750  
      4379.970     -568884.799          63.750  
 23  6  5 17 52 49.6790000  0  7G19G 3G 6G 9G31G17G 4
   2498934.369      969435.649          63.750  
    130754.164      795198.768          63.750  
   1580616.717    -1186432.332          63.750  
   1666625.331    -1799464.517          63.750  
   1530718.849      413440.721          63.750  
   3385603.370     1174969.034          63.750  
      4187.139     -569909.001          63.750  
 23  6  5 17 52 50.6790000  0  7G19G 3G 6G 9G31G17G 4
   2499309.663      971410.423          63.750  
    131026.525      796613.305          63.750  
   1580197.854    -1188643.776          63.750  
   1666094.989    -1802248.521          63.750  
   1530923.247      414519.452          63.750  
   3386110.647     1177639.346          63.750  
      3989.207     -570932.475          63.750  
 23  6  5 17 52 51.6790000  0  7G19G 3G 6G 9G31G17G 4
   2499684.061      973385.249          63.750  
    131297.309      798027.779          63.750  
   1579775.371    -1190855.254          63.750  
   1665564.238    -1805032.734          63.750  
   1531125.980      415598.383          63.750  
   3386616.524     1180309.471          63.750  
      3798.744     -571955.945          63.750  
 23  6  5 17 52 52.6790000  0  7G19G 3G 6G 9G31G17G 4
   2500058.900      975360.895          63.750  
    131566.191      799442.953          63.750  
   1579355.920    -1193066.006          63.750  
   1665033.673    -1807816.364          63.750  
   1531332.351      416678.260          63.750  
   3387124.073     1182980.142          63.750  
      3601.995     -572978.659          63.750  
 23  6  5 17 52 53.6790000  0  7G19G 3G 6G 9G31G17G 4
   2500436.678      977337.429          63.750  
    131835.824      800858.841          63.750  
   1578935.133    -1195275.942          63.750  
   1664505.850    -1810599.361          63.750  
   1531537.295      417759.122          63.750  
   3387633.583     1185651.382          63.750  
      3407.202     -574000.542          63.750  
 23  6  5 17 52 54.6790000  0  7G19G 3G 6G 9G31G17G 4
   2500812.724      979314.038          63.750  
    132105.112      802274.677          63.750  
   1578514.952    -1197485.922          63.750  
   1663976.184    -1813382.551          63.750  
   1531739.049      418840.199          63.750  
   3388140.239     1188322.433          63.750  
      3215.566     -575022.429          63.750  
 23  6  5 17 52 55.6790000  0  7G19G 3G 6G 9G31G17G 4
   2501189.389      981291.897          63.750  
    132377.689      803691.642          63.750  
   1578092.260    -1199694.702          63.750  
   1663447.921    -1816164.712          63.750  
   1531948.396      419922.652          63.750  
   3388651.042     1190994.459          63.750  
      3019.010     -576043.118          63.750  
 23  6  5 17 52 56.6790000  0  7G19G 3G 6G 9G31G17G 4
   2501565.759      983269.792          63.750  
    132646.018      805108.485          63.750  
   1577672.492    -1201903.547          63.750  
   1662918.174    -1818947.106          63.750  
   1532153.767      421005.249          63.750  
   3389160.342     1193666.221          63.750  
      2825.288     -577063.833          63.750  
 23  6  5 17 52 57.6790000  0  7G19G 3G 6G 9G31G17G 4
   2501943.971      985248.710          63.750  
    132914.363      806526.218          63.750  
   1577253.105    -1204111.458          63.750  
   1662388.909    -1821728.744          63.750  
   1532361.544      422089.004          63.750  
   3389669.613     1196338.771          63.750  
      2629.383     -578083.592          63.750  
 23  6  5 17 52 58.6790000  0  7G19G 3G 6G 9G31G17G 4
   2502322.975      987228.490          63.750  
    133184.853      807944.660          63.750  
   1576833.258    -1206318.607          63.750  
   1661861.403    -1824509.767          63.750  
   1532570.034      423173.732          63.750  
   3390173.206     1199011.834          63.750  
      2437.211     -579102.556          63.750  
 23  6  5 17 52 59.6790000  0  7G19G 3G 6G 9G31G17G 4
   2502697.203      989208.433          63.750  
    133453.679      809363.187          63.750  
   1576413.254    -1208525.662          63.750  
   1661331.773    -1827290.863          63.750  
   1532774.359      424258.771          63.750  
   3390687.478     1201684.857          63.750  
      2243.704     -580121.404          63.750  
 23  6  5 17 53  0.6790000  0  7G19G 3G 6G 9G31G17G 4
   2503075.263      991188.716          63.750  
    133726.944      810781.868          63.750  
   1575992.502    -1210732.480          63.750  
   1660804.052    -1830071.886          63.750  
   1532976.312      425344.264          63.750  
   3391195.331     1204357.895          63.750  
      2046.613     -581139.996          63.750  
 23  6  5 17 53  1.6790000  0  7G19G 3G 6G 9G31G17G 4
   2503449.093      993169.693          63.750  
    133995.742      812201.135          63.750  
   1575572.370    -1212938.659          63.750  
   1660276.765    -1832852.435          63.750  
   1533183.207      426430.595          63.750  
   3391699.684     1207031.378          63.750  
      1857.300     -582157.922          63.750  
 23  6  5 17 53  2.6790000  0  7G19G 3G 6G 9G31G17G 4
   2503828.096      995151.455          63.750  
    134265.208      813621.030          63.750  
   1575151.754    -1215144.167          63.750  
   1659746.376    -1835632.477          63.750  
   1533390.193      427517.818          63.750  
   3392207.933     1209705.323          63.750  
      1659.419     -583175.157          63.750  
 23  6  5 17 53  3.6790000  0  7G19G 3G 6G 9G31G17G 4
   2504205.055      997133.613          63.750  
    134534.749      815041.195          63.750  
   1574733.608    -1217349.358          63.750  
   1659217.955    -1838412.370          63.750  
   1533595.416      428605.553          63.750  
   3392724.494     1212379.372          63.750  
      1464.364     -584192.059          63.750  
 23  6  5 17 53  4.6790000  0  7G19G 3G 6G 9G31G17G 4
   2504581.599      999116.398          63.750  
    134802.935      816461.852          63.750  
   1574312.484    -1219554.001          63.750  
   1658689.643    -1841191.888          63.750  
   1533799.390      429694.061          63.750  
   3393226.877     1215053.824          63.750  
      1273.961     -585208.370          63.750  
 23  6  5 17 53  5.6790000  0  7G19G 3G 6G 9G31G17G 4
   2504958.822     1001099.911          63.750  
    135074.226      817883.107          63.750  
   1573894.767    -1221758.016          63.750  
   1658158.620    -1843970.926          63.750  
   1534006.828      430783.396          63.750  
   3393737.354     1217728.699          63.750  
      1081.147     -586224.021          63.750  
 23  6  5 17 53  6.6790000  0  7G19G 3G 6G 9G31G17G 4
   2505337.469     1003083.778          63.750  
    135344.824      819304.575          63.750  
   1573474.869    -1223961.771          63.750  
   1657629.287    -1846749.869          63.750  
   1534216.906      431873.240          63.750  
   3394247.156     1220403.653          63.750  
       886.584     -587239.390          63.750  
 23  6  5 17 53  7.6790000  0  7G19G 3G 6G 9G31G17G 4
   2505714.548     1005068.316          63.750  
    135615.873      820726.557          63.750  
   1573056.360    -1226164.917          63.750  
   1657099.955    -1849528.376          63.750  
   1534424.538      432963.841          63.750  
   3394757.624     1223078.972          63.750  
       694.225     -588254.138          63.750  
 23  6  5 17 53  8.6790000  0  7G19G 3G 6G 9G31G17G 4
   2506093.706     1007053.471          63.750  
    135889.680      822149.050          63.750  
   1572638.709    -1228367.544          63.750  
   1656571.582    -1852306.524          63.750  
   1534633.802      434055.212          63.750  
   3395265.926     1225754.635          63.750  
       500.528     -589268.340          63.750  
 23  6  5 17 53  9.6790000  0  7G19G 3G 6G 9G31G17G 4
   2506471.912     1009039.104          63.750  
    136157.690      823571.872          63.750  
   1572219.305    -1230569.770          63.750  
   1656041.342    -1855084.441          63.750  
   1534836.115      435147.182          63.750  
   3395772.425     1228430.514          63.750  
       306.340     -590282.122          63.750  
 23  6  5 17 53 10.6790000  0  7G19G 3G 6G 9G31G17G 4
   2506849.010     1011025.363          63.750  
    136431.561      824995.183          63.750  
   1571799.252    -1232771.456          63.750  
   1655514.145    -1857861.979          63.750  
   1535043.634      436239.898          63.750  
   3396288.771     1231106.719          63.750  
       114.215     -591295.332          63.750  
 23  6  5 17 53 11.6790000  0  7G19G 3G 6G 9G31G17G 4
   2507228.729     1013012.322          63.750  
    136704.803      826419.065          63.750  
   1571378.990    -1234972.534          63.750  
   1654985.333    -1860639.069          63.750  
   1535250.664      437333.439          63.750  
   3396793.182     1233783.328          63.750  
       -84.521     -592307.905          63.750  
 23  6  5 17 53 12.6790000  0  7G19G 3G 6G 9G31G17G 4
   2507605.124     1014999.746          63.750  
    136972.729      827843.277          63.750  
   1570962.468    -1237173.222          63.750  
   1654456.302    -1863415.937          63.750  
   1535462.645      438427.562          63.750  
   3397307.458     1236460.180          63.750  
      -273.042     -593320.086          63.750  
 23  6  5 17 53 13.6790000  0  7G19G 3G 6G 9G31G17G 4
   2507986.065     1016987.766          63.750  
    137245.999      829267.941          63.750  
   1570543.137    -1239373.407          63.750  
   1653929.754    -1866192.478          63.750  
   1535669.691      439522.428          63.750  
   3397814.544     1239137.292          63.750  
      -466.474     -594331.721          63.750  
 23  6  5 17 53 14.6790000  0  7G19G 3G 6G 9G31G17G 4
   2508364.061     1018976.370          63.750  
    137520.351      830693.052          63.750  
   1570125.580    -1241573.101          63.750  
   1653401.537    -1868968.671          63.750  
   1535879.621      440617.975          63.750  
   3398324.341     1241814.719          63.750  
      -658.799     -595342.837          63.750  
 23  6  5 17 53 15.6790000  0  7G19G 3G 6G 9G31G17G 4
   2508743.016     1020965.584          63.750  
    137791.258      832118.655          63.750  
   1569707.054    -1243772.258          63.750  
   1652874.469    -1871744.511          63.750  
   1536088.790      441714.266          63.750  
   3398829.761     1244492.470          63.750  
      -848.451     -596353.403          63.750  
 23  6  5 17 53 16.6790000  0  7G19G 3G 6G 9G31G17G 4
   2509119.648     1022955.356          63.750  
    138061.017      833544.660          63.750  
   1569289.160    -1245970.936          63.750  
   1652347.090    -1874520.040          63.750  
   1536297.203      442811.227          63.750  
   3399345.529     1247170.520          63.750  
     -1041.331     -597363.468          63.750  
 23  6  5 17 53 17.6790000  0  7G19G 3G 6G 9G31G17G 4
   2509499.112     1024945.502          63.750  
    138335.703      834970.922          63.750  
   1568872.102    -1248169.322          63.750  
   1651818.275    -1877295.447          63.750  
   1536504.396      443908.699          63.750  
   3399858.765     1249848.652          63.750  
     -1231.096     -598373.223          63.750  
 23  6  5 17 53 18.6790000  0  7G19G 3G 6G 9G31G17G 4
   2509876.575     1026936.126          63.750  
    138604.890      836397.531          63.750  
   1568450.479    -1250367.312          63.750  
   1651292.299    -1880070.616          63.750  
   1536713.431      445006.761          63.750  
   3400367.713     1252526.984          63.750  
     -1423.541     -599382.555          63.750  
 23  6  5 17 53 19.6790000  0  7G19G 3G 6G 9G31G17G 4
   2510255.024     1028927.712          63.750  
    138875.705      837824.964          63.750  
   1568033.801    -1252564.419          63.750  
   1650764.571    -1882845.055          63.750  
   1536922.232      446105.962          63.750  
   3400878.156     1255206.015          63.750  
     -1612.827     -600390.978          63.750  
 23  6  5 17 53 20.6790000  0  7G19G 3G 6G 9G31G17G 4
   2510633.582     1030919.925          63.750  
    139147.105      839252.882          63.750  
   1567614.863    -1254761.008          63.750  
   1650238.045    -1885619.134          63.750  
   1537137.102      447205.884          63.750  
   3401387.065     1257885.370          63.750  
     -1805.812     -601398.850          63.750  
 23  6  5 17 53 21.6790000  0  7G19G 3G 6G 9G31G17G 4
   2511013.917     1032912.474          63.750  
    139417.588      840681.011          63.750  
   1567196.783    -1256957.332          63.750  
   1649709.006    -1888393.132          63.750  
   1537349.023      448306.223          63.750  
   3401901.639     1260564.784          63.750  
     -1995.292     -602406.461          63.750  
 23  6  5 17 53 22.6790000  0  7G19G 3G 6G 9G31G17G 4
   2511392.928     1034905.647          63.750  
    139686.030      842109.622          63.750  
   1566779.598    -1259153.108          63.750  
   1649179.427    -1891166.750          63.750  
   1537558.522      449407.366          63.750  
   3402406.241     1263244.532          63.750  
     -2186.592     -603413.475          63.750  
 23  6  5 17 53 23.6790000  0  7G19G 3G 6G 9G31G17G 4
   2511772.195     1036899.368          63.750  
    139955.617      843538.634          63.750  
   1566362.669    -1261348.431          63.750  
   1648651.609    -1893940.061          63.750  
   1537771.271      450509.156          63.750  
   3402914.901     1265924.565          63.750  
     -2375.689     -604420.032          63.750  
 23  6  5 17 53 24.6790000  0  7G19G 3G 6G 9G31G17G 4
   2512154.088     1038893.664          63.750  
    140229.006      844968.120          63.750  
   1565944.782    -1263543.264          63.750  
   1648122.832    -1896713.065          63.750  
   1537976.531      451611.642          63.750  
   3403428.359     1268604.872          63.750  
     -2568.325     -605426.047          63.750  
 23  6  5 17 53 25.6790000  0  7G19G 3G 6G 9G31G17G 4
   2512533.993     1040888.360          63.750  
    140499.989      846397.860          63.750  
   1565526.684    -1265737.752          63.750  
   1647595.435    -1899485.884          63.750  
   1538187.675      452714.657          63.750  
   3403935.683     1271285.337          63.750  
     -2761.475     -606431.721          63.750  
 23  6  5 17 53 26.6790000  0  7G19G 3G 6G 9G31G17G 4
   2512913.833     1042883.918          63.750  
    140773.560      847828.319          63.750  
   1565109.785    -1267931.474          63.750  
   1647067.265    -1902258.105          63.750  
   1538393.257      453818.674          63.750  
   3404449.385     1273966.355          63.750  
     -2953.820     -607436.599          63.750  
 23  6  5 17 53 27.6790000  0  7G19G 3G 6G 9G31G17G 4
   2513292.051     1044880.237          63.750  
    141045.153      849259.379          63.750  
   1564692.728    -1270124.536          63.750  
   1646539.437    -1905029.823          63.750  
   1538607.863      454923.556          63.750  
   3404959.086     1276647.849          63.750  
     -3144.882     -608440.788          63.750  
 23  6  5 17 53 28.6790000  0  7G19G 3G 6G 9G31G17G 4
   2513671.341     1046877.022          63.750  
    141319.010      850690.828          63.750  
   1564274.611    -1272317.193          63.750  
   1646011.518    -1907801.309          63.750  
   1538816.727      456029.057          63.750  
   3405468.722     1279329.532          63.750  
     -3337.557     -609444.559          63.750  
 23  6  5 17 53 29.6790000  0  7G19G 3G 6G 9G31G17G 4
   2514052.526     1048874.216          63.750  
    141592.683      852122.522          63.750  
   1563859.015    -1274509.518          63.750  
   1645485.160    -1910572.643          63.750  
   1539033.295      457135.075          63.750  
   3405981.190     1282011.354          63.750  
     -3530.395     -610447.975          63.750  
 23  6  5 17 53 30.6790000  0  7G19G 3G 6G 9G31G17G 4
   2514430.102     1050871.781          63.750  
    141866.324      853554.445          63.750  
   1563440.874    -1276701.579          63.750  
   1644958.079    -1913343.854          63.750  
   1539242.677      458241.590          63.750  
   3406491.147     1284693.247          63.750  
     -3715.128     -611451.113          63.750  
 23  6  5 17 53 31.6790000  0  7G19G 3G 6G 9G31G17G 4
   2514813.397     1052870.738          63.750  
    142140.827      854987.639          63.750  
   1563025.012    -1278892.295          63.750  
   1644431.735    -1916113.900          63.750  
   1539452.151      459349.644          63.750  
   3407001.256     1287376.285          63.750  
     -3909.351     -612452.869          63.750  
 23  6  5 17 53 32.6790000  0  7G19G 3G 6G 9G31G17G 4
   2515192.009     1054870.208          63.750  
    142409.727      856421.215          63.750  
   1562608.223    -1281082.596          63.750  
   1643904.604    -1918883.687          63.750  
   1539664.863      460458.320          63.750  
   3407507.245     1290059.536          63.750  
     -4100.554     -613454.193          63.750  
 23  6  5 17 53 33.6790000  0  7G19G 3G 6G 9G31G17G 4
   2515574.507     1056870.058          63.750  
    142681.261      857855.028          63.750  
   1562188.843    -1283272.595          63.750  
   1643377.919    -1921653.334          63.750  
   1539875.228      461567.516          63.750  
   3408024.338     1292742.865          63.750  
     -4290.128     -614455.182          63.750  
 23  6  5 17 53 34.6790000  0  7G19G 3G 6G 9G31G17G 4
   2515953.599     1058870.460          63.750  
    142952.569      859289.265          63.750  
   1561773.323    -1285462.132          63.750  
   1642851.254    -1924422.707          63.750  
   1540087.238      462677.366          63.750  
   3408537.353     1295426.478          63.750  
     -4478.181     -615455.702          63.750  
 23  6  5 17 53 35.6790000  0  7G19G 3G 6G 9G31G17G 4
   2516335.101     1060870.986          63.750  
    143225.487      860723.492          63.750  
   1561354.603    -1287651.618          63.750  
   1642323.979    -1927192.171          63.750  
   1540298.386      463787.471          63.750  
   3409050.874     1298109.967          63.750  
     -4668.511     -616456.142          63.750  
 23  6  5 17 53 36.6790000  0  7G19G 3G 6G 9G31G17G 4
   2516715.655     1062872.798          63.750  
    143497.042      862158.873          63.750  
   1560937.825    -1289839.903          63.750  
   1641796.938    -1929960.611          63.750  
   1540505.970      464898.985          63.750  
   3409560.759     1300794.415          63.750  
     -4857.051     -617455.358          63.750  
 23  6  5 17 53 37.6790000  0  7G19G 3G 6G 9G31G17G 4
   2517099.904     1064875.110          63.750  
    143769.817      863594.638          63.750  
   1560521.463    -1292027.738          63.750  
   1641269.957    -1932728.771          63.750  
   1540718.970      466011.146          63.750  
   3410070.156     1303479.124          63.750  
     -5048.295     -618454.109          63.750  
 23  6  5 17 53 38.6790000  0  7G19G 3G 6G 9G31G17G 4
   2517477.904     1066877.741          63.750  
    144044.092      865030.556          63.750  
   1560106.220    -1294215.368          63.750  
   1640742.039    -1935496.889          63.750  
   1540930.792      467123.734          63.750  
   3410583.688     1306163.859          63.750  
     -5236.161     -619452.628          63.750  
 23  6  5 17 53 39.6790000  0  7G19G 3G 6G 9G31G17G 4
   2517858.494     1068880.880          63.750  
    144320.157      866466.858          63.750  
   1559690.245    -1296402.581          63.750  
   1640215.068    -1938264.747          63.750  
   1541142.257      468236.952          63.750  
   3411091.404     1308848.795          63.750  
     -5425.852     -620450.706          63.750  
 23  6  5 17 53 40.6790000  0  7G19G 3G 6G 9G31G17G 4
   2518241.278     1070884.907          63.750  
    144595.862      867903.936          63.750  
   1559274.401    -1298588.948          63.750  
   1639690.449    -1941031.935          63.750  
   1541353.482      469351.180          63.750  
   3411599.553     1311534.367          63.750  
     -5618.829     -621447.913          63.750  
 23  6  5 17 53 41.6790000  0  7G19G 3G 6G 9G31G17G 4
   2518622.340     1072889.517          63.750  
    144869.070      869341.446          63.750  
   1558859.812    -1300774.823          63.750  
   1639161.274    -1943798.789          63.750  
   1541565.976      470466.149          63.750  
   3412110.963     1314220.238          63.750  
     -5808.090     -622444.617          63.750  
 23  6  5 17 53 42.6790000  0  7G19G 3G 6G 9G31G17G 4
   2519003.913     1074893.620          63.750  
    145145.571      870778.333          63.750  
   1558442.556    -1302961.289          63.750  
   1638635.150    -1946566.406          63.750  
   1541775.930      471580.703          63.750  
   3412620.544     1316905.317          63.750  
     -5999.230     -623441.888          63.750  
 23  6  5 17 53 43.6790000  0  7G19G 3G 6G 9G31G17G 4
   2519385.686     1076899.315          63.750  
    145420.638      872216.671          63.750  
   1558027.547    -1305146.231          63.750  
   1638108.923    -1949332.657          63.750  
   1541991.866      472697.015          63.750  
   3413134.521     1319591.733          63.750  
     -6189.325     -624437.605          63.750  
 23  6  5 17 53 44.6790000  0  7G19G 3G 6G 9G31G17G 4
   2519767.160     1078905.943          63.750  
    145693.298      873655.810          63.750  
   1557611.532    -1307330.324          63.750  
   1637581.991    -1952098.240          63.750  
   1542204.522      473814.354          63.750  
   3413647.023     1322278.779          63.750  
     -6377.822     -625432.459          63.750  
 23  6  5 17 53 45.6790000  0  7G19G 3G 6G 9G31G17G 4
   2520148.190     1080912.201          63.750  
    145966.382      875094.459          63.750  
   1557195.208    -1309514.867          63.750  
   1637055.936    -1954864.424          63.750  
   1542418.389      474931.461          63.750  
   3414157.837     1324965.180          63.750  
     -6568.442     -626427.743          63.750  
 23  6  5 17 53 46.6790000  0  7G19G 3G 6G 9G31G17G 4
   2520528.443     1082919.336          63.750  
    146240.744      876533.832          63.750  
   1556780.475    -1311698.614          63.750  
   1636529.696    -1957629.995          63.750  
   1542630.059      476049.562          63.750  
   3414669.116     1327652.161          63.750  
     -6757.833     -627422.206          63.750  
 23  6  5 17 53 47.6790000  0  7G19G 3G 6G 9G31G17G 4
   2520911.703     1084926.904          63.750  
    146511.581      877973.504          63.750  
   1556364.300    -1313882.000          63.750  
   1636004.016    -1960395.362          63.750  
   1542842.263      477168.231          63.750  
   3415178.925     1330339.325          63.750  
     -6946.114     -628416.286          63.750  
 23  6  5 17 53 48.6790000  0  7G19G 3G 6G 9G31G17G 4
   2521292.420     1086935.057          63.750  
    146785.647      879413.656          63.750  
   1555950.516    -1316064.878          63.750  
   1635477.820    -1963160.382          63.750  
   1543051.957      478287.623          63.750  
   3415690.604     1333026.771          63.750  
     -7135.786     -629409.841          63.750  
 23  6  5 17 53 49.6790000  0  7G19G 3G 6G 9G31G17G 4
   2521674.095     1088943.731          63.750  
    147058.343      880854.180          63.750  
   1555533.606    -1318247.319          63.750  
   1634952.320    -1965925.139          63.750  
   1543265.170      479407.632          63.750  
   3416205.357     1335714.472          63.750  
     -7321.416     -630402.947          63.750  
 23  6  5 17 53 50.6790000  0  7G19G 3G 6G 9G31G17G 4
   2522058.790     1090953.127          63.750  
    147337.379      882295.301          63.750  
   1555121.868    -1320429.104          63.750  
   1634425.686    -1968689.420          63.750  
   1543478.034      480528.521          63.750  
   3416716.851     1338402.607          63.750  
     -7513.503     -631395.365          63.750  
 23  6  5 17 53 51.6790000  0  7G19G 3G 6G 9G31G17G 4
   2522439.384     1092962.645          63.750  
    147612.971      883736.399          63.750  
   1554704.562    -1322610.861          63.750  
   1633900.361    -1971453.814          63.750  
   1543689.307      481649.649          63.750  
   3417232.278     1341090.584          63.750  
     -7702.510     -632387.722          63.750  
 23  6  5 17 53 52.6790000  0  7G19G 3G 6G 9G31G17G 4
   2522822.491     1094973.208          63.750  
    147886.617      885178.434          63.750  
   1554289.742    -1324791.631          63.750  
   1633373.756    -1974217.404          63.750  
   1543904.188      482771.924          63.750  
   3417739.797     1343779.313          63.750  
     -7890.732     -633379.094          63.750  
 23  6  5 17 53 53.6790000  0  7G19G 3G 6G 9G31G17G 4
   2523207.256     1096984.361          63.750  
    148161.025      886620.907          63.750  
   1553877.327    -1326971.903          63.750  
   1632848.999    -1976980.660          63.750  
   1544119.183      483894.943          63.750  
   3418253.404     1346468.384          63.750  
     -8080.233     -634369.946          63.750  
 23  6  5 17 53 54.6790000  0  7G19G 3G 6G 9G31G17G 4
   2523586.596     1098995.660          63.750  
    148434.050      888063.411          63.750  
   1553459.974    -1329152.107          63.750  
   1632320.900    -1979744.003          63.750  
   1544331.363      485018.227          63.750  
   3418765.001     1349157.302          63.750  
     -8267.556     -635360.668          63.750  
 23  6  5 17 53 55.6790000  0  7G19G 3G 6G 9G31G17G 4
   2523971.032     1101008.225          63.750  
    148707.701      889507.038          63.750  
   1553047.023    -1331331.103          63.750  
   1631797.080    -1982506.308          63.750  
   1544546.496      486142.913          63.750  
   3419275.890     1351847.210          63.750  
     -8454.600     -636350.210          63.750  
 23  6  5 17 53 56.6790000  0  7G19G 3G 6G 9G31G17G 4
   2524355.214     1103021.604          63.750  
    148985.563      890951.352          63.750  
   1552633.077    -1333509.373          63.750  
   1631270.764    -1985268.062          63.750  
   1544759.967      487268.521          63.750  
   3419785.410     1354537.628          63.750  
     -8644.468     -637338.982          63.750  
 23  6  5 17 53 57.6790000  0  7G19G 3G 6G 9G31G17G 4
   2524738.930     1105035.778          63.750  
    149256.767      892396.319          63.750  
   1552218.039    -1335686.931          63.750  
   1630744.947    -1988029.265          63.750  
   1544973.349      488395.065          63.750  
   3420296.779     1357228.579          63.750  
     -8831.750     -638327.039          63.750  
 23  6  5 17 53 58.6790000  0  7G19G 3G 6G 9G31G17G 4
   2525119.132     1107049.807          63.750  
    149532.208      893841.034          63.750  
   1551804.025    -1337864.680          63.750  
   1630219.502    -1990790.830          63.750  
   1545191.883      489521.610          63.750  
   3420810.145     1359919.145          63.750  
     -9021.448     -639315.256          63.750  
 23  6  5 17 53 59.6790000  0  7G19G 3G 6G 9G31G17G 4
   2525503.429     1109064.373          63.750  
    149807.071      895286.153          63.750  
   1551390.056    -1340041.980          63.750  
   1629694.558    -1993552.123          63.750  
   1545405.513      490648.806          63.750  
   3421320.308     1362609.908          63.750  
     -9208.201     -640303.005          63.750  
 23  6  5 17 54  0.6790000  0  7G19G 3G 6G 9G31G17G 4
   2525885.200     1111079.922          63.750  
    150082.148      896732.096          63.750  
   1550974.943    -1342218.382          63.750  
   1629168.354    -1996312.683          63.750  
   1545619.964      491777.099          63.750  
   3421832.753     1365301.381          63.750  
     -9398.518     -641289.846          63.750  
 23  6  5 17 54  1.6790000  0  7G19G 3G 6G 9G31G17G 4
   2526267.778     1113096.236          63.750  
    150354.786      898178.688          63.750  
   1550560.559    -1344394.078          63.750  
   1628644.342    -1999072.698          63.750  
   1545838.309      492906.299          63.750  
   3422346.542     1367993.356          63.750  
     -9584.692     -642275.965          63.750  
 23  6  5 17 54  2.6790000  0  7G19G 3G 6G 9G31G17G 4
   2526654.895     1115113.060          63.750  
    150629.893      899625.669          63.750  
   1550147.292    -1346569.344          63.750  
   1628117.802    -2001832.440          63.750  
   1546054.705      494036.137          63.750  
   3422858.862     1370685.566          63.750  
     -9771.638     -643261.615          63.750  
 23  6  5 17 54  3.6790000  0  7G19G 3G 6G 9G31G17G 4
   2527038.337     1117130.754          63.750  
    150906.092      901073.390          63.750  
   1549733.311    -1348743.820          63.750  
   1627591.777    -2004591.573          63.750  
   1546267.723      495166.950          63.750  
   3423372.522     1373378.346          63.750  
     -9958.985     -644246.478          63.750  
 23  6  5 17 54  4.6790000  0  7G19G 3G 6G 9G31G17G 4
   2527421.272     1119148.656          63.750  
    151179.995      902521.167          63.750  
   1549319.161    -1350918.177          63.750  
   1627065.416    -2007350.741          63.750  
   1546483.719      496298.119          63.750  
   3423885.481     1376071.055          63.750  
    -10146.465     -645231.172          63.750  
 23  6  5 17 54  5.6790000  0  7G19G 3G 6G 9G31G17G 4
   2527807.369     1121167.454          63.750  
    151457.746      903969.732          63.750  
   1548907.008    -1353091.697          63.750  
   1626539.776    -2010109.245          63.750  
   1546698.806      497430.296          63.750  
   3424397.736     1378764.399          63.750  
    -10333.813     -646215.023          63.750  
 23  6  5 17 54  6.6790000  0  7G19G 3G 6G 9G31G17G 4
   2528192.956     1123186.990          63.750  
    151731.682      905418.896          63.750  
   1548492.662    -1355264.559          63.750  
   1626016.990    -2012867.259          63.750  
   1546911.354      498563.360          63.750  
   3424906.450     1381458.163          63.750  
    -10519.328     -647198.195          63.750  
 23  6  5 17 54  7.6790000  0  7G19G 3G 6G 9G31G17G 4
   2528576.426     1125207.096          63.750  
    152010.343      906868.475          63.750  
   1548080.415    -1357436.927          63.750  
   1625491.273    -2015624.943          63.750  
   1547127.583      499697.102          63.750  
   3425423.250     1384152.240          63.750  
    -10707.760     -648180.857          63.750  
 23  6  5 17 54  8.6790000  0  7G19G 3G 6G 9G31G17G 4
   2528961.797     1127227.071          63.750  
    152284.466      908317.852          63.750  
   1547666.069    -1359609.483          63.750  
   1624966.721    -2018382.985          63.750  
   1547343.698      500830.853          63.750  
   3425929.337     1386845.916          63.750  
    -10895.572     -649163.683          63.750  
 23  6  5 17 54  9.6790000  0  7G19G 3G 6G 9G31G17G 4
   2529345.662     1129247.822          63.750  
    152559.271      909767.806          63.750  
   1547253.465    -1361781.358          63.750  
   1624440.417    -2021140.521          63.750  
   1547558.300      501965.472          63.750  
   3426444.200     1389540.046          63.750  
    -11084.314     -650145.837          63.750  
 23  6  5 17 54 10.6790000  0  7G19G 3G 6G 9G31G17G 4
   2529730.746     1131269.085          63.750  
    152832.787      911218.191          63.750  
   1546840.138    -1363952.776          63.750  
   1623914.923    -2023897.757          63.750  
   1547773.916      503100.781          63.750  
   3426953.169     1392234.427          63.750  
    -11269.200     -651127.485          63.750  
 23  6  5 17 54 11.6790000  0  7G19G 3G 6G 9G31G17G 4
   2530114.979     1133290.848          63.750  
    153110.245      912668.897          63.750  
   1546427.265    -1366123.788          63.750  
   1623391.387    -2026654.748          63.750  
   1547990.931      504236.691          63.750  
   3427463.989     1394929.024          63.750  
    -11456.007     -652108.715          63.750  
 23  6  5 17 54 12.6790000  0  7G19G 3G 6G 9G31G17G 4
   2530498.979     1135313.139          63.750  
    153385.309      914120.048          63.750  
   1546013.824    -1368294.333          63.750  
   1622868.789    -2029411.465          63.750  
   1548207.794      505373.270          63.750  
   3427979.341     1397623.855          63.750  
    -11641.042     -653089.460          63.750  
 23  6  5 17 54 13.6790000  0  7G19G 3G 6G 9G31G17G 4
   2530885.795     1137336.094          63.750  
    153664.011      915571.710          63.750  
   1545601.072    -1370464.292          63.750  
   1622344.526    -2032167.740          63.750  
   1548424.079      506510.618          63.750  
   3428494.548     1400319.090          63.750  
    -11829.135     -654069.595          63.750  
 23  6  5 17 54 14.6790000  0  7G19G 3G 6G 9G31G17G 4
   2531267.817     1139359.297          63.750  
    153936.348      917023.523          63.750  
   1545188.597    -1372634.060          63.750  
   1621819.016    -2034923.999          63.750  
   1548637.955      507648.360          63.750  
   3429006.229     1403014.286          63.750  
    -12012.481     -655049.534          63.750  
 23  6  5 17 54 15.6790000  0  7G19G 3G 6G 9G31G17G 4
   2531655.835     1141383.079          63.750  
    154217.847      918475.740          63.750  
   1544776.798    -1374803.346          63.750  
   1621296.451    -2037679.950          63.750  
   1548855.562      508786.810          63.750  
   3429519.056     1405709.797          63.750  
    -12200.926     -656028.957          63.750  
 23  6  5 17 54 16.6790000  0  7G19G 3G 6G 9G31G17G 4
   2532041.339     1143408.061          63.750  
    154490.812      919929.058          63.750  
   1544364.027    -1376971.479          63.750  
   1620772.834    -2040434.916          63.750  
   1549071.265      509926.602          63.750  
   3430033.717     1408406.222          63.750  
    -12386.654     -657007.208          63.750  
 23  6  5 17 54 17.6790000  0  7G19G 3G 6G 9G31G17G 4
   2532426.795     1145432.985          63.750  
    154771.193      921382.166          63.750  
   1543948.939    -1379139.764          63.750  
   1620250.244    -2043190.194          63.750  
   1549288.408      511066.429          63.750  
   3430549.643     1411102.274          63.750  
    -12574.248     -657985.610          63.750  
 23  6  5 17 54 18.6790000  0  7G19G 3G 6G 9G31G17G 4
   2532813.475     1147458.431          63.750  
    155047.438      922835.669          63.750  
   1543537.391    -1381307.604          63.750  
   1619724.200    -2045945.193          63.750  
   1549506.509      512206.922          63.750  
   3431060.896     1413798.611          63.750  
    -12761.302     -658963.524          63.750  
 23  6  5 17 54 19.6790000  0  7G19G 3G 6G 9G31G17G 4
   2533197.049     1149484.677          63.750  
    155327.689      924289.842          63.750  
   1543124.238    -1383474.694          63.750  
   1619202.077    -2048699.627          63.750  
   1549724.449      513348.327          63.750  
   3431576.495     1416495.438          63.750  
    -12947.167     -659940.696          63.750  
 23  6  5 17 54 20.6790000  0  7G19G 3G 6G 9G31G17G 4
   2533582.521     1151511.399          63.750  
    155606.471      925744.371          63.750  
   1542710.819    -1385641.404          63.750  
   1618676.189    -2051453.827          63.750  
   1549943.916      514490.351          63.750  
   3432084.394     1419192.448          63.750  
    -13133.392     -660917.441          63.750  
 23  6  5 17 54 21.6790000  0  7G19G 3G 6G 9G31G17G 4
   2533969.301     1153538.482          63.750  
    155886.894      927199.131          63.750  
   1542299.973    -1387807.808          63.750  
   1618152.795    -2054207.902          63.750  
   1550160.889      515632.843          63.750  
   3432593.752     1421889.570          63.750  
    -13319.233     -661893.882          63.750  
 23  6  5 17 54 22.6790000  0  7G19G 3G 6G 9G31G17G 4
   2534355.531     1155566.448          63.750  
    156161.720      928654.630          63.750  
   1541887.817    -1389973.404          63.750  
   1617628.863    -2056961.341          63.750  
   1550381.072      516776.354          63.750  
   3433108.403     1424587.287          63.750  
    -13506.442     -662869.503          63.750  
 23  6  5 17 54 23.6790000  0  7G19G 3G 6G 9G31G17G 4
   2534741.547     1157595.008          63.750  
    156437.767      930110.614          63.750  
   1541475.618    -1392138.481          63.750  
   1617103.756    -2059714.418          63.750  
   1550598.896      517920.593          63.750  
   3433619.129     1427285.295          63.750  
    -13691.509     -663844.574          63.750  
 23  6  5 17 54 24.6790000  0  7G19G 3G 6G 9G31G17G 4
   2535128.059     1159624.736          63.750  
    156715.114      931567.607          63.750  
   1541065.199    -1394302.476          63.750  
   1616580.291    -2062466.579          63.750  
   1550815.817      519066.131          63.750  
   3434131.925     1429984.196          63.750  
    -13876.336     -664818.532          63.750  
 23  6  5 17 54 25.6790000  0  7G19G 3G 6G 9G31G17G 4
   2535516.704     1161654.490          63.750  
    156994.092      933024.527          63.750  
   1540652.944    -1396466.491          63.750  
   1616054.464    -2065218.927          63.750  
   1551032.368      520211.818          63.750  
   3434642.663     1432682.827          63.750  
    -14062.861     -665792.500          63.750  
 23  6  5 17 54 26.6790000  0  7G19G 3G 6G 9G31G17G 4
   2535902.399     1163685.142          63.750  
    157270.816      934482.169          63.750  
   1540240.760    -1398629.716          63.750  
   1615529.626    -2067970.654          63.750  
   1551255.046      521358.506          63.750  
   3435162.474     1435382.072          63.750  
    -14246.390     -666765.674          63.750  
 23  6  5 17 54 27.6790000  0  7G19G 3G 6G 9G31G17G 4
   2536287.529     1165716.521          63.750  
    157546.533      935940.456          63.750  
   1539829.306    -1400792.256          63.750  
   1615007.276    -2070721.880          63.750  
   1551469.308      522506.078          63.750  
   3435672.067     1438081.787          63.750  
    -14431.974     -667738.116          63.750  
 23  6  5 17 54 28.6790000  0  7G19G 3G 6G 9G31G17G 4
   2536675.249     1167747.793          63.750  
    157825.456      937398.487          63.750  
   1539416.054    -1402954.975          63.750  
   1614482.926    -2073473.429          63.750  
   1551687.662      523653.670          63.750  
   3436184.177     1440781.120          63.750  
    -14616.405     -668710.753          63.750  
 23  6  5 17 54 29.6790000  0  7G19G 3G 6G 9G31G17G 4
   2537061.918     1169779.244          63.750  
    158099.223      938856.583          63.750  
   1539004.705    -1405117.583          63.750  
   1613960.066    -2076225.046          63.750  
   1551906.140      524801.571          63.750  
   3436697.306     1443480.340          63.750  
    -14801.855     -669683.244          63.750  
 23  6  5 17 54 30.6790000  0  7G19G 3G 6G 9G31G17G 4
   2537448.871     1171810.938          63.750  
    158379.799      940314.762          63.750  
   1538593.475    -1407280.034          63.750  
   1613435.999    -2078976.679          63.750  
   1552123.736      525949.839          63.750  
   3437215.627     1446179.503          63.750  
    -14983.504     -670655.568          63.750  
 23  6  5 17 54 31.6790000  0  7G19G 3G 6G 9G31G17G 4
   2537835.719     1173843.912          63.750  
    158654.729      941774.120          63.750  
   1538182.446    -1409441.266          63.750  
   1612913.613    -2081727.246          63.750  
   1552342.229      527099.521          63.750  
   3437717.925     1448879.675          63.750  
    -15170.605     -671626.629          63.750  
 23  6  5 17 54 32.6790000  0  7G19G 3G 6G 9G31G17G 4
   2538223.198     1175877.818          63.750  
    158934.746      943234.286          63.750  
   1537770.854    -1411601.641          63.750  
   1612390.415    -2084477.128          63.750  
   1552562.730      528250.254          63.750  
   3438237.626     1451580.514          63.750  
    -15354.372     -672596.845          63.750  
 23  6  5 17 54 33.6790000  0  7G19G 3G 6G 9G31G17G 4
   2538611.637     1177912.268          63.750  
    159212.940      944694.854          63.750  
   1537359.925    -1413761.541          63.750  
   1611867.830    -2087226.722          63.750  
   1552780.557      529401.660          63.750  
   3438748.877     1454281.598          63.750  
    -15539.479     -673566.552          63.750  
 23  6  5 17 54 34.6790000  0  7G19G 3G 6G 9G31G17G 4
   2538998.718     1179947.046          63.750  
    159491.138      946155.612          63.750  
   1536948.228    -1415921.177          63.750  
   1611343.786    -2089976.206          63.750  
   1553001.215      530553.521          63.750  
   3439265.986     1456982.732          63.750  
    -15724.373     -674535.992          63.750  
 23  6  5 17 54 35.6790000  0  7G19G 3G 6G 9G31G17G 4
   2539385.397     1181982.344          63.750  
    159767.560      947616.791          63.750  
   1536535.215    -1418080.367          63.750  
   1610822.673    -2092725.404          63.750  
   1553219.301      531706.043          63.750  
   3439778.625     1459684.142          63.750  
    -15908.799     -675504.957          63.750  
 23  6  5 17 54 36.6790000  0  7G19G 3G 6G 9G31G17G 4
   2539773.422     1184018.484          63.750  
    160049.816      949078.666          63.750  
   1536125.756    -1420238.777          63.750  
   1610298.649    -2095474.010          63.750  
   1553441.478      532859.529          63.750  
   3440296.438     1462386.080          63.750  
    -16091.241     -676473.135          63.750  
 23  6  5 17 54 37.6790000  0  7G19G 3G 6G 9G31G17G 4
   2540159.161     1186055.018          63.750  
    160325.571      950540.793          63.750  
   1535714.690    -1422396.877          63.750  
   1609777.612    -2098222.450          63.750  
   1553660.887      534013.525          63.750  
   3440810.748     1465088.125          63.750  
    -16277.578     -677440.974          63.750  
 23  6  5 17 54 38.6790000  0  7G19G 3G 6G 9G31G17G 4
   2540549.806     1188092.173          63.750  
    160604.906      952003.427          63.750  
   1535304.333    -1424554.414          63.750  
   1609253.409    -2100970.504          63.750  
   1553879.464      535168.287          63.750  
   3441326.527     1467790.532          63.750  
    -16460.714     -678408.224          63.750  
 23  6  5 17 54 39.6790000  0  7G19G 3G 6G 9G31G17G 4
   2540936.727     1190129.896          63.750  
    160881.988      953466.514          63.750  
   1534894.757    -1426711.450          63.750  
   1608730.716    -2103718.244          63.750  
   1554101.157      536323.725          63.750  
   3441842.787     1470493.202          63.750  
    -16645.328     -679374.983          63.750  
 23  6  5 17 54 40.6790000  0  7G19G 3G 6G 9G31G17G 4
   2541324.860     1192168.100          63.750  
    161160.642      954929.934          63.750  
   1534484.846    -1428868.089          63.750  
   1608207.979    -2106465.724          63.750  
   1554320.373      537479.790          63.750  
   3442354.882     1473196.101          63.750  
    -16828.511     -680341.300          63.750  
 23  6  5 17 54 41.6790000  0  7G19G 3G 6G 9G31G17G 4
   2541711.801     1194206.792          63.750  
    161439.722      956393.706          63.750  
   1534074.507    -1431024.284          63.750  
   1607684.993    -2109212.962          63.750  
   1554538.236      538636.473          63.750  
   3442872.359     1475899.173          63.750  
    -17012.907     -681307.188          63.750  
 23  6  5 17 54 42.6790000  0  7G19G 3G 6G 9G31G17G 4
   2542099.167     1196245.968          63.750  
    161718.084      957857.848          63.750  
   1533662.288    -1433180.072          63.750  
   1607162.068    -2111959.956          63.750  
   1554756.941      539793.772          63.750  
   3443382.565     1478602.467          63.750  
    -17197.638     -682272.625          63.750  
 23  6  5 17 54 43.6790000  0  7G19G 3G 6G 9G31G17G 4
   2542487.517     1198285.546          63.750  
    161998.173      959322.271          63.750  
   1533254.605    -1435335.536          63.750  
   1606639.068    -2114706.771          63.750  
   1554980.066      540951.594          63.750  
   3443898.269     1481305.891          63.750  
    -17380.906     -683237.733          63.750  
 23  6  5 17 54 44.6790000  0  7G19G 3G 6G 9G31G17G 4
   2542876.564     1200326.025          63.750  
    162275.615      960787.459          63.750  
   1532844.165    -1437490.160          63.750  
   1606117.099    -2117452.933          63.750  
   1555200.041      542110.448          63.750  
   3444414.473     1484009.930          63.750  
    -17563.576     -684201.979          63.750  
 23  6  5 17 54 45.6790000  0  7G19G 3G 6G 9G31G17G 4
   2543264.392     1202366.510          63.750  
    162555.854      962252.522          63.750  
   1532434.235    -1439644.847          63.750  
   1605594.176    -2120199.330          63.750  
   1555422.631      543269.434          63.750  
   3444924.600     1486713.642          63.750  
    -17746.146     -685166.292          63.750  
 23  6  5 17 54 46.6790000  0  7G19G 3G 6G 9G31G17G 4
   2543651.999     1204408.240          63.750  
    162833.605      963718.720          63.750  
   1532022.697    -1441798.352          63.750  
   1605071.538    -2122944.695          63.750  
   1555643.269      544429.812          63.750  
   3445448.378     1489418.406          63.750  
    -17928.702     -686129.383          63.750  
 23  6  5 17 54 47.6790000  0  7G19G 3G 6G 9G31G17G 4
   2544039.289     1206450.730          63.750  
    163110.290      965185.555          63.750  
   1531614.632    -1443951.140          63.750  
   1604551.503    -2125689.533          63.750  
   1555863.174      545591.079          63.750  
   3445964.036     1492123.633          63.750  
    -18112.956     -687091.755          63.750  
 23  6  5 17 54 48.6790000  0  7G19G 3G 6G 9G31G17G 4
   2544429.830     1208493.497          63.750  
    163388.628      966652.511          63.750  
   1531203.165    -1446103.743          63.750  
   1604025.454    -2128434.342          63.750  
   1556085.643      546752.742          63.750  
   3446479.026     1494828.820          63.750  
    -18295.039     -688053.926          63.750  
 23  6  5 17 54 49.6790000  0  7G19G 3G 6G 9G31G17G 4
   2544815.605     1210536.991          63.750  
    163667.855      968120.094          63.750  
   1530795.667    -1448255.662          63.750  
   1603503.337    -2131178.659          63.750  
   1556305.983      547915.250          63.750  
   3446998.349     1497534.446          63.750  
    -18477.519     -689015.396          63.750  
 23  6  5 17 54 50.6790000  0  7G19G 3G 6G 9G31G17G 4
   2545206.991     1212580.709          63.750  
    163948.237      969587.767          63.750  
   1530384.843    -1450407.445          63.750  
   1602981.821    -2133922.971          63.750  
   1556526.337      549078.128          63.750  
   3447509.325     1500240.035          63.750  
    -18660.331     -689976.700          63.750  
 23  6  5 17 54 51.6790000  0  7G19G 3G 6G 9G31G17G 4
   2545595.973     1214625.084          63.750  
    164227.991      971055.938          63.750  
   1529976.445    -1452558.642          63.750  
   1602459.012    -2136666.882          63.750  
   1556747.165      550241.777          63.750  
   3448026.500     1502946.009          63.750  
    -18842.464     -690937.406          63.750  
 23  6  5 17 54 52.6790000  0  7G19G 3G 6G 9G31G17G 4
   2545983.973     1216670.071          63.750  
    164505.308      972524.651          63.750  
   1529566.273    -1454709.272          63.750  
   1601937.379    -2139410.400          63.750  
   1556970.971      551406.179          63.750  
   3448537.349     1505652.299          63.750  
    -19023.427     -691897.548          63.750  
 23  6  5 17 54 53.6790000  0  7G19G 3G 6G 9G31G17G 4
   2546374.140     1218715.692          63.750  
    164784.623      973993.817          63.750  
   1529156.935    -1456859.364          63.750  
   1601414.375    -2142153.548          63.750  
   1557192.297      552571.333          63.750  
   3449049.256     1508358.926          63.750  
    -19207.472     -692857.121          63.750  
 23  6  5 17 54 54.6790000  0  7G19G 3G 6G 9G31G17G 4
   2546762.923     1220761.574          63.750  
    165064.305      975463.144          63.750  
   1528747.901    -1459009.239          63.750  
   1600893.683    -2144896.655          63.750  
   1557409.898      553736.888          63.750  
   3449565.251     1511065.584          63.750  
    -19388.738     -693816.478          63.750  
 23  6  5 17 54 55.6790000  0  7G19G 3G 6G 9G31G17G 4
   2547150.002     1222808.579          63.750  
    165343.309      976933.468          63.750  
   1528338.916    -1461158.062          63.750  
   1600372.358    -2147638.861          63.750  
   1557630.198      554903.687          63.750  
   3450078.800     1513773.019          63.750  
    -19571.422     -694774.737          63.750  
 23  6  5 17 54 56.6790000  0  7G19G 3G 6G 9G31G17G 4
   2547538.581     1224855.978          63.750  
    165621.337      978404.062          63.750  
   1527929.802    -1463306.551          63.750  
   1599850.607    -2150380.910          63.750  
   1557855.838      556071.037          63.750  
   3450594.269     1516480.618          63.750  
    -19752.611     -695732.662          63.750  
 23  6  5 17 54 57.6790000  0  7G19G 3G 6G 9G31G17G 4
   2547929.536     1226903.856          63.750  
    165901.360      979874.985          63.750  
   1527521.103    -1465454.624          63.750  
   1599329.521    -2153122.724          63.750  
   1558078.318      557238.983          63.750  
   3451105.802     1519188.394          63.750  
    -19935.045     -696690.168          63.750  
 23  6  5 17 54 58.6790000  0  7G19G 3G 6G 9G31G17G 4
   2548318.965     1228952.561          63.750  
    166182.975      981346.635          63.750  
   1527113.978    -1467601.951          63.750  
   1598807.238    -2155863.938          63.750  
   1558299.975      558407.885          63.750  
   3451621.663     1521896.724          63.750  
    -20119.238     -697646.896          63.750  
 23  6  5 17 54 59.6790000  0  7G19G 3G 6G 9G31G17G 4
   2548707.789     1231002.248          63.750  
    166461.750      982819.121          63.750  
   1526702.017    -1469748.354          63.750  
   1598285.505    -2158604.419          63.750  
   1558526.121      559577.878          63.750  
   3452138.154     1524605.742          63.750  
    -20298.503     -698602.686          63.750  
 23  6  5 17 55  0.6790000  0  7G19G 3G 6G 9G31G17G 4
   2549098.371     1233052.031          63.750  
    166740.218      984291.604          63.750  
   1526295.494    -1471894.712          63.750  
   1597765.248    -2161345.003          63.750  
   1558750.428      560748.128          63.750  
   3452652.142     1527314.601          63.750  
    -20483.159     -699558.418          63.750  
 23  6  5 17 55  1.6790000  0  7G19G 3G 6G 9G31G17G 4
   2549488.598     1235102.297          63.750  
    167021.362      985764.426          63.750  
   1525886.847    -1474040.646          63.750  
   1597243.414    -2164085.343          63.750  
   1558972.124      561918.980          63.750  
   3453167.804     1530023.646          63.750  
    -20662.926     -700513.712          63.750  
 23  6  5 17 55  2.6790000  0  7G19G 3G 6G 9G31G17G 4
   2549879.125     1237153.159          63.750  
    167299.884      987237.737          63.750  
   1525479.863    -1476186.059          63.750  
   1596720.927    -2166825.345          63.750  
   1559192.988      563090.556          63.750  
   3453682.622     1532733.006          63.750  
    -20845.293     -701468.464          63.750  
 23  6  5 17 55  3.6790000  0  7G19G 3G 6G 9G31G17G 4
   2550268.168     1239204.736          63.750  
    167581.512      988711.624          63.750  
   1525070.827    -1478330.818          63.750  
   1596201.087    -2169564.836          63.750  
   1559412.241      564262.991          63.750  
   3454203.645     1535442.777          63.750  
    -21028.174     -702422.548          63.750  
 23  6  5 17 55  4.6790000  0  7G19G 3G 6G 9G31G17G 4
   2550659.859     1241256.758          63.750  
    167864.678      990185.842          63.750  
   1524664.216    -1480475.204          63.750  
   1595677.850    -2172304.142          63.750  
   1559633.708      565435.985          63.750  
   3454719.569     1538152.751          63.750  
    -21208.666     -703376.246          63.750  
 23  6  5 17 55  5.6790000  0  7G19G 3G 6G 9G31G17G 4
   2551048.962     1243308.829          63.750  
    168146.205      991659.953          63.750  
   1524256.438    -1482619.594          63.750  
   1595157.464    -2175043.619          63.750  
   1559856.214      566609.162          63.750  
   3455243.584     1540862.472          63.750  
    -21391.621     -704329.944          63.750  
 23  6  5 17 55  6.6790000  0  7G19G 3G 6G 9G31G17G 4
   2551440.714     1245361.750          63.750  
    168427.638      993134.786          63.750  
   1523850.073    -1484763.221          63.750  
   1594635.391    -2177782.508          63.750  
   1560082.454      567783.311          63.750  
   3455761.082     1543572.743          63.750  
    -21572.531     -705282.855          63.750  
 23  6  5 17 55  7.6790000  0  7G19G 3G 6G 9G31G17G 4
   2551830.393     1247415.147          63.750  
    168712.917      994610.006          63.750  
   1523440.739    -1486906.392          63.750  
   1594115.916    -2180521.112          63.750  
   1560303.729      568958.078          63.750  
   3456278.165     1546283.265          63.750  
    -21753.063     -706235.304          63.750  
 23  6  5 17 55  8.6790000  0  7G19G 3G 6G 9G31G17G 4
   2552220.630     1249469.032          63.750  
    168990.628      996085.579          63.750  
   1523031.708    -1489049.160          63.750  
   1593593.294    -2183259.470          63.750  
   1560531.351      570133.457          63.750  
   3456791.836     1548993.974          63.750  
    -21933.958     -707187.307          63.750  
 23  6  5 17 55  9.6790000  0  7G19G 3G 6G 9G31G17G 4
   2552611.679     1251523.174          63.750  
    169273.999      997561.257          63.750  
   1522624.987    -1491191.744          63.750  
   1593073.634    -2185997.824          63.750  
   1560756.469      571309.214          63.750  
   3457304.255     1551704.604          63.750  
    -22113.922     -708139.155          63.750  
 23  6  5 17 55 10.6790000  0  7G19G 3G 6G 9G31G17G 4
   2553005.213     1253578.385          63.750  
    169553.432      999037.910          63.750  
   1522217.108    -1493333.312          63.750  
   1592553.462    -2188735.314          63.750  
   1560981.216      572486.197          63.750  
   3457823.498     1554416.095          63.750  
    -22298.472     -709089.931          63.750  
 23  6  5 17 55 11.6790000  0  7G19G 3G 6G 9G31G17G 4
   2553393.044     1255634.122          63.750  
    169837.136     1000514.946          63.750  
   1521809.313    -1495474.420          63.750  
   1592032.228    -2191472.534          63.750  
   1561203.552      573663.799          63.750  
   3458337.731     1557127.799          63.750  
    -22476.284     -710040.254          63.750  
 23  6  5 17 55 12.6790000  0  7G19G 3G 6G 9G31G17G 4
   2553786.753     1257690.100          63.750  
    170116.574     1001992.116          63.750  
   1521403.540    -1497615.337          63.750  
   1591511.763    -2194209.726          63.750  
   1561426.093      574841.808          63.750  
   3458855.134     1559839.479          63.750  
    -22657.913     -710990.382          63.750  
 23  6  5 17 55 13.6790000  0  7G19G 3G 6G 9G31G17G 4
   2554178.040     1259747.404          63.750  
    170396.137     1003470.484          63.750  
   1520996.294    -1499754.987          63.750  
   1590992.955    -2196945.834          63.750  
   1561647.957      576021.274          63.750  
   3459370.005     1562552.183          63.750  
    -22839.550     -711939.217          63.750  
 23  6  5 17 55 14.6790000  0  7G19G 3G 6G 9G31G17G 4
   2554569.522     1261805.228          63.750  
    170681.505     1004949.236          63.750  
   1520588.952    -1501894.184          63.750  
   1590471.332    -2199681.638          63.750  
   1561870.553      577201.383          63.750  
   3459889.331     1565265.132          63.750  
    -23021.569     -712887.581          63.750  
 23  6  5 17 55 15.6790000  0  7G19G 3G 6G 9G31G17G 4
   2554961.497     1263863.089          63.750  
    170960.713     1006427.911          63.750  
   1520182.175    -1504033.412          63.750  
   1589950.655    -2202417.641          63.750  
   1562094.503      578381.675          63.750  
   3460400.851     1567977.833          63.750  
    -23200.528     -713835.966          63.750  
 23  6  5 17 55 16.6790000  0  7G19G 3G 6G 9G31G17G 4
   2555351.310     1265921.381          63.750  
    171242.062     1007906.891          63.750  
   1519773.878    -1506172.269          63.750  
   1589430.521    -2205153.450          63.750  
   1562316.946      579562.517          63.750  
   3460918.902     1570690.694          63.750  
    -23381.410     -714783.954          63.750  
 23  6  5 17 55 17.6790000  0  7G19G 3G 6G 9G31G17G 4
   2555743.445     1267980.286          63.750  
    171525.415     1009386.342          63.750  
   1519368.251    -1508310.575          63.750  
   1588909.032    -2207888.887          63.750  
   1562544.770      580744.110          63.750  
   3461441.266     1573403.885          63.750  
    -23562.150     -715731.387          63.750  
 23  6  5 17 55 18.6790000  0  7G19G 3G 6G 9G31G17G 4
   2556134.576     1270040.225          63.750  
    171804.544     1010866.704          63.750  
   1518960.286    -1510447.905          63.750  
   1588389.090    -2210623.523          63.750  
   1562769.354      581926.847          63.750  
   3461958.944     1576117.816          63.750  
    -23742.784     -716677.848          63.750  
 23  6  5 17 55 19.6790000  0  7G19G 3G 6G 9G31G17G 4
   2556526.700     1272100.323          63.750  
    172088.004     1012347.108          63.750  
   1518553.198    -1512585.140          63.750  
   1587868.768    -2213358.228          63.750  
   1562995.307      583109.892          63.750  
   3462476.114     1578831.646          63.750  
    -23922.772     -717624.165          63.750  
 23  6  5 17 55 20.6790000  0  7G19G 3G 6G 9G31G17G 4
   2556919.284     1274160.422          63.750  
    172369.778     1013827.390          63.750  
   1518148.135    -1514722.440          63.750  
   1587350.589    -2216093.148          63.750  
   1563221.606      584293.066          63.750  
   3462990.958     1581545.167          63.750  
    -24104.436     -718570.560          63.750  
 23  6  5 17 55 21.6790000  0  7G19G 3G 6G 9G31G17G 4
   2557312.232     1276221.294          63.750  
    172652.304     1015308.308          63.750  
   1517739.847    -1516859.031          63.750  
   1586829.551    -2218827.538          63.750  
   1563442.938      585477.147          63.750  
   3463508.981     1584259.177          63.750  
    -24282.650     -719516.213          63.750  
 23  6  5 17 55 22.6790000  0  7G19G 3G 6G 9G31G17G 4
   2557703.868     1278283.280          63.750  
    172934.768     1016790.199          63.750  
   1517334.773    -1518994.569          63.750  
   1586310.278    -2221561.058          63.750  
   1563667.845      586662.471          63.750  
   3464024.204     1586974.034          63.750  
    -24463.460     -720460.812          63.750  
 23  6  5 17 55 23.6790000  0  7G19G 3G 6G 9G31G17G 4
   2558097.053     1280345.867          63.750  
    173217.727     1018272.597          63.750  
   1516929.316    -1521129.563          63.750  
   1585789.373    -2224294.203          63.750  
   1563897.734      587848.511          63.750  
   3464544.212     1589689.210          63.750  
    -24641.514     -721404.856          63.750  
 23  6  5 17 55 24.6790000  0  7G19G 3G 6G 9G31G17G 4
   2558490.887     1282408.990          63.750  
    173500.896     1019755.377          63.750  
   1516522.801    -1523264.093          63.750  
   1585270.108    -2227027.040          63.750  
   1564120.136      589035.235          63.750  
   3465054.605     1592404.624          63.750  
    -24821.275     -722348.410          63.750  
 23  6  5 17 55 25.6790000  0  7G19G 3G 6G 9G31G17G 4
   2558882.800     1284472.492          63.750  
    173781.521     1021238.451          63.750  
   1516115.463    -1525398.277          63.750  
   1584750.725    -2229759.715          63.750  
   1564347.852      590222.461          63.750  
   3465570.664     1595120.169          63.750  
    -25001.584     -723291.605          63.750  
 23  6  5 17 55 26.6790000  0  7G19G 3G 6G 9G31G17G 4
   2559275.812     1286536.520          63.750  
    174064.904     1022721.913          63.750  
   1515709.001    -1527531.994          63.750  
   1584230.862    -2232492.084          63.750  
   1564577.592      591410.377          63.750  
   3466086.070     1597835.946          63.750  
    -25178.382     -724234.334          63.750  
 23  6  5 17 55 27.6790000  0  7G19G 3G 6G 9G31G17G 4
   2559669.132     1288601.008          63.750  
    174345.505     1024205.701          63.750  
   1515303.421    -1529665.325          63.750  
   1583710.424    -2235224.258          63.750  
   1564800.040      592598.849          63.750  
   3466602.075     1600551.929          63.750  
    -25359.799     -725176.664          63.750  
 23  6  5 17 55 28.6790000  0  7G19G 3G 6G 9G31G17G 4
   2560063.707     1290665.992          63.750  
    174628.805     1025689.868          63.750  
   1514898.198    -1531798.223          63.750  
   1583191.273    -2237956.163          63.750  
   1565027.479      593787.959          63.750  
   3467120.355     1603268.069          63.750  
    -25538.106     -726118.529          63.750  
 23  6  5 17 55 29.6790000  0  7G19G 3G 6G 9G31G17G 4
   2560458.396     1292731.593          63.750  
    174910.714     1027174.521          63.750  
   1514491.319    -1533930.562          63.750  
   1582670.907    -2240687.662          63.750  
   1565248.615      594977.812          63.750  
   3467636.217     1605984.581          63.750  
    -25717.218     -727059.828          63.750  
 23  6  5 17 55 30.6790000  0  7G19G 3G 6G 9G31G17G 4
   2560853.095     1294798.113          63.750  
    175192.706     1028659.987          63.750  
   1514086.358    -1536062.022          63.750  
   1582151.388    -2243418.461          63.750  
   1565477.133      596168.741          63.750  
   3468150.666     1608701.739          63.750  
    -25896.388     -728000.246          63.750  
 23  6  5 17 55 31.6790000  0  7G19G 3G 6G 9G31G17G 4
   2561245.399     1296865.417          63.750  
    175474.859     1030146.091          63.750  
   1513682.512    -1538192.795          63.750  
   1581631.395    -2246148.740          63.750  
   1565706.886      597360.547          63.750  
   3468671.130     1611419.342          63.750  
    -26073.342     -728939.965          63.750  
 23  6  5 17 55 32.6790000  0  7G19G 3G 6G 9G31G17G 4
   2561638.785     1298933.487          63.750  
    175755.900     1031632.833          63.750  
   1513274.981    -1540322.839          63.750  
   1581112.954    -2248878.469          63.750  
   1565934.358      598553.256          63.750  
   3469184.375     1614137.468          63.750  
    -26252.521     -729878.926          63.750  
 23  6  5 17 55 33.6790000  0  7G19G 3G 6G 9G31G17G 4
   2562032.051     1301002.081          63.750  
    176040.421     1033119.994          63.750  
   1512870.468    -1542452.405          63.750  
   1580591.560    -2251607.896          63.750  
   1566162.400      599746.617          63.750  
   3469704.958     1616855.830          63.750  
    -26430.275     -730817.423          63.750  
 23  6  5 17 55 34.6790000  0  7G19G 3G 6G 9G31G17G 4
   2562425.398     1303071.318          63.750  
    176321.524     1034607.654          63.750  
   1512463.510    -1544581.420          63.750  
   1580073.519    -2254336.910          63.750  
   1566390.458      600940.756          63.750  
   3470222.798     1619574.554          63.750  
    -26609.901     -731755.328          63.750  
 23  6  5 17 55 35.6790000  0  7G19G 3G 6G 9G31G17G 4
   2562819.621     1305141.436          63.750  
    176604.914     1036096.069          63.750  
   1512059.867    -1546709.613          63.750  
   1579553.717    -2257065.295          63.750  
   1566615.778      602135.909          63.750  
   3470743.533     1622293.844          63.750  
    -26787.052     -732692.399          63.750  
 23  6  5 17 55 36.6790000  0  7G19G 3G 6G 9G31G17G 4
   2563210.443     1307211.197          63.750  
    176887.155     1037584.021          63.750  
   1511656.431    -1548838.185          63.750  
   1579034.218    -2259794.241          63.750  
   1566841.800      603330.834          63.750  
   3471256.307     1625012.544          63.750  
    -26965.527     -733629.851          63.750  
 23  6  5 17 55 37.6790000  0  7G19G 3G 6G 9G31G17G 4
   2563607.218     1309281.026          63.750  
    177173.692     1039071.927          63.750  
   1511248.886    -1550966.761          63.750  
   1578513.611    -2262523.346          63.750  
   1567067.964      604525.974          63.750  
   3471777.058     1627731.035          63.750  
    -27143.645     -734567.288          63.750  
 23  6  5 17 55 38.6790000  0  7G19G 3G 6G 9G31G17G 4
   2564000.652     1311351.653          63.750  
    177456.205     1040560.478          63.750  
   1510844.828    -1553094.604          63.750  
   1577994.340    -2265251.896          63.750  
   1567293.703      605722.033          63.750  
   3472288.345     1630450.017          63.750  
    -27322.439     -735503.988          63.750  
 23  6  5 17 55 39.6790000  0  7G19G 3G 6G 9G31G17G 4
   2564395.646     1313422.857          63.750  
    177738.811     1042049.495          63.750  
   1510440.379    -1555221.917          63.750  
   1577474.408    -2267980.086          63.750  
   1567524.955      606918.805          63.750  
   3472808.922     1633169.283          63.750  
    -27501.168     -736440.152          63.750  
 23  6  5 17 55 40.6790000  0  7G19G 3G 6G 9G31G17G 4
   2564789.848     1315494.755          63.750  
    178023.043     1043539.079          63.750  
   1510035.546    -1557348.615          63.750  
   1576954.791    -2270707.826          63.750  
   1567752.023      608116.396          63.750  
   3473327.598     1635889.002          63.750  
    -27678.717     -737375.656          63.750  
 23  6  5 17 55 41.6790000  0  7G19G 3G 6G 9G31G17G 4
   2565184.493     1317567.253          63.750  
    178305.788     1045029.149          63.750  
   1509631.182    -1559474.743          63.750  
   1576436.095    -2273435.188          63.750  
   1567984.261      609314.742          63.750  
   3473846.080     1638609.004          63.750  
    -27858.104     -738310.604          63.750  
 23  6  5 17 55 42.6790000  0  7G19G 3G 6G 9G31G17G 4
   2565582.421     1319640.989          63.750  
    178589.047     1046520.315          63.750  
   1509227.836    -1561599.713          63.750  
   1575915.716    -2276161.548          63.750  
   1568215.324      610514.426          63.750  
   3474362.459     1641329.976          63.750  
    -28033.504     -739244.376          63.750  
 23  6  5 17 55 43.6790000  0  7G19G 3G 6G 9G31G17G 4
   2565979.361     1321714.239          63.750  
    178872.692     1048010.897          63.750  
   1508822.784    -1563725.208          63.750  
   1575397.770    -2278888.604          63.750  
   1568443.141      611713.764          63.750  
   3474879.046     1644050.210          63.750  
    -28211.264     -740178.659          63.750  
 23  6  5 17 55 44.6790000  0  7G19G 3G 6G 9G31G17G 4
   2566372.010     1323788.448          63.750  
    179154.578     1049502.298          63.750  
   1508419.712    -1565849.818          63.750  
   1574877.404    -2281614.942          63.750  
   1568671.218      612914.188          63.750  
   3475395.925     1646771.079          63.750  
    -28388.568     -741112.061          63.750  
 23  6  5 17 55 45.6790000  0  7G19G 3G 6G 9G31G17G 4
   2566766.385     1325863.875          63.750  
    179438.048     1050994.812          63.750  
   1508015.160    -1567973.276          63.750  
   1574358.267    -2284340.286          63.750  
   1568900.087      614115.967          63.750  
   3475913.439     1649492.912          63.750  
    -28565.688     -742044.264          63.750  
 23  6  5 17 55 46.6790000  0  7G19G 3G 6G 9G31G17G 4
   2567161.568     1327939.695          63.750  
    179725.628     1052487.554          63.750  
   1507610.681    -1570096.391          63.750  
   1573840.059    -2287065.466          63.750  
   1569130.208      615318.259          63.750  
   3476426.408     1652214.812          63.750  
    -28742.348     -742976.128          63.750  
 23  6  5 17 55 47.6790000  0  7G19G 3G 6G 9G31G17G 4
   2567557.316     1330016.144          63.750  
    180007.422     1053980.845          63.750  
   1507208.143    -1572218.913          63.750  
   1573320.727    -2289790.238          63.750  
   1569354.624      616521.338          63.750  
   3476952.431     1654937.102          63.750  
    -28920.558     -743907.401          63.750  
 23  6  5 17 55 48.6790000  0  7G19G 3G 6G 9G31G17G 4
   2567952.586     1332093.315          63.750  
    180293.321     1055474.718          63.750  
   1506804.786    -1574340.767          63.750  
   1572802.551    -2292514.517          63.750  
   1569585.518      617725.249          63.750  
   3477473.416     1657659.822          63.750  
    -29096.168     -744837.997          63.750  
 23  6  5 17 55 49.6790000  0  7G19G 3G 6G 9G31G17G 4
   2568346.757     1334170.833          63.750  
    180576.855     1056968.825          63.750  
   1506400.512    -1576462.351          63.750  
   1572283.499    -2295238.671          63.750  
   1569814.497      618929.649          63.750  
   3477988.368     1660382.600          63.750  
    -29274.365     -745768.285          63.750  
 23  6  5 17 55 50.6790000  0  7G19G 3G 6G 9G31G17G 4
   2568741.197     1336248.829          63.750  
    180859.432     1058463.284          63.750  
   1505996.544    -1578583.492          63.750  
   1571764.574    -2297962.576          63.750  
   1570043.755      620134.674          63.750  
   3478506.688     1663105.581          63.750  
    -29451.011     -746698.141          63.750  
 23  6  5 17 55 51.6790000  0  7G19G 3G 6G 9G31G17G 4
   2569137.267     1338327.131          63.750  
    181143.371     1059957.926          63.750  
   1505593.677    -1580704.387          63.750  
   1571247.318    -2300686.401          63.750  
   1570274.647      621340.110          63.750  
   3479027.182     1665828.597          63.750  
    -29627.999     -747627.733          63.750  
 23  6  5 17 55 52.6790000  0  7G19G 3G 6G 9G31G17G 4
   2569532.502     1340406.098          63.750  
    181429.987     1061453.093          63.750  
   1505189.395    -1582824.685          63.750  
   1570728.035    -2303409.792          63.750  
   1570505.349      622546.356          63.750  
   3479541.547     1668551.978          63.750  
    -29805.459     -748556.710          63.750  
 23  6  5 17 55 53.6790000  0  7G19G 3G 6G 9G31G17G 4
   2569930.233     1342485.526          63.750  
    181712.153     1062948.634          63.750  
   1504785.533    -1584944.558          63.750  
   1570208.598    -2306132.944          63.750  
   1570735.336      623753.187          63.750  
   3480062.808     1671275.556          63.750  
    -29982.511     -749485.264          63.750  
 23  6  5 17 55 54.6790000  0  7G19G 3G 6G 9G31G17G 4
   2570323.621     1344565.770          63.750  
    181997.081     1064444.848          63.750  
   1504382.821    -1587063.684          63.750  
   1569690.274    -2308855.498          63.750  
   1570964.086      624960.975          63.750  
   3480581.520     1673999.661          63.750  
    -30158.776     -750413.047          63.750  
 23  6  5 17 55 55.6790000  0  7G19G 3G 6G 9G31G17G 4
   2570720.907     1346646.548          63.750  
    182281.196     1065941.478          63.750  
   1503979.348    -1589182.325          63.750  
   1569170.978    -2311577.754          63.750  
   1571193.040      626169.420          63.750  
   3481094.123     1676724.012          63.750  
    -30336.418     -751340.348          63.750  
 23  6  5 17 55 56.6790000  0  7G19G 3G 6G 9G31G17G 4
   2571115.026     1348727.673          63.750  
    182564.998     1067438.320          63.750  
   1503575.697    -1591300.678          63.750  
   1568652.301    -2314299.893          63.750  
   1571423.284      627378.346          63.750  
   3481617.058     1679448.412          63.750  
    -30514.879     -752267.333          63.750  
 23  6  5 17 55 57.6790000  0  7G19G 3G 6G 9G31G17G 4
   2571510.079     1350809.593          63.750  
    182851.911     1068935.858          63.750  
   1503174.216    -1593418.281          63.750  
   1568135.070    -2317021.451          63.750  
   1571653.217      628588.223          63.750  
   3482133.653     1682173.356          63.750  
    -30690.061     -753193.562          63.750  
 23  6  5 17 55 58.6790000  0  7G19G 3G 6G 9G31G17G 4
   2571907.635     1352891.842          63.750  
    183136.966     1070433.585          63.750  
   1502771.403    -1595535.623          63.750  
   1567617.483    -2319742.921          63.750  
   1571883.224      629798.546          63.750  
   3482648.829     1684898.339          63.750  
    -30868.902     -754119.535          63.750  
 23  6  5 17 55 59.6790000  0  7G19G 3G 6G 9G31G17G 4
   2572303.836     1354974.828          63.750  
    183424.381     1071931.946          63.750  
   1502368.719    -1597652.275          63.750  
   1567099.413    -2322463.861          63.750  
   1572112.804      631009.744          63.750  
   3483174.203     1687623.783          63.750  
    -31044.589     -755044.788          63.750  
 23  6  5 17 56  0.6790000  0  7G19G 3G 6G 9G31G17G 4
   2572698.813     1357058.283          63.750  
    183707.754     1073430.656          63.750  
   1501964.388    -1599768.502          63.750  
   1566582.618    -2325184.563          63.750  
   1572344.254      632221.545          63.750  
   3483689.087     1690349.401          63.750  
    -31220.552     -755969.610          63.750  
 23  6  5 17 56  1.6790000  0  7G19G 3G 6G 9G31G17G 4
   2573095.600     1359142.444          63.750  
    183993.014     1074929.939          63.750  
   1501563.240    -1601884.078          63.750  
   1566065.207    -2327904.778          63.750  
   1572572.607      633434.207          63.750  
   3484209.337     1693075.464          63.750  
    -31396.966     -756893.776          63.750  
 23  6  5 17 56  2.6790000  0  7G19G 3G 6G 9G31G17G 4
   2573492.224     1361227.268          63.750  
    184277.890     1076429.767          63.750  
   1501159.158    -1603999.046          63.750  
   1565547.846    -2330624.571          63.750  
   1572801.501      634647.641          63.750  
   3484730.759     1695801.901          63.750  
    -31571.793     -757817.317          63.750  
 23  6  5 17 56  3.6790000  0  7G19G 3G 6G 9G31G17G 4
   2573888.491     1363312.396          63.750  
    184563.935     1077929.771          63.750  
   1500757.610    -1606113.757          63.750  
   1565032.430    -2333344.268          63.750  
   1573035.625      635861.526          63.750  
   3485243.112     1698528.364          63.750  
    -31745.596     -758740.602          63.750  
 23  6  5 17 56  4.6790000  0  7G19G 3G 6G 9G31G17G 4
   2574287.033     1365398.044          63.750  
    184850.961     1079430.180          63.750  
   1500355.926    -1608228.008          63.750  
   1564514.334    -2336063.681          63.750  
   1573268.196      637076.059          63.750  
   3485769.991     1701255.056          63.750  
    -31920.461     -759663.407          63.750  
 23  6  5 17 56  5.6790000  0  7G19G 3G 6G 9G31G17G 4
   2574684.569     1367485.105          63.750  
    185136.472     1080931.882          63.750  
   1499953.574    -1610340.900          63.750  
   1563996.880    -2338781.892          63.750  
   1573500.834      638292.150          63.750  
   3486281.776     1703982.890          63.750  
    -32094.655     -760584.844          63.750  
 23  6  5 17 56  6.6790000  0  7G19G 3G 6G 9G31G17G 4
   2575080.002     1369572.068          63.750  
    185422.710     1082433.362          63.750  
   1499549.715    -1612453.942          63.750  
   1563482.045    -2341500.433          63.750  
   1573734.772      639508.275          63.750  
   3486803.739     1706710.347          63.750  
    -32269.214     -761506.419          63.750  
 23  6  5 17 56  7.6790000  0  7G19G 3G 6G 9G31G17G 4
   2575478.521     1371659.700          63.750  
    185707.062     1083935.383          63.750  
   1499149.258    -1614566.368          63.750  
   1562965.807    -2344218.534          63.750  
   1573966.764      640725.180          63.750  
   3487323.583     1709438.153          63.750  
    -32444.725     -762427.372          63.750  
 23  6  5 17 56  8.6790000  0  7G19G 3G 6G 9G31G17G 4
   2575875.557     1373748.068          63.750  
    185994.380     1085438.031          63.750  
   1498748.562    -1616678.101          63.750  
   1562449.209    -2346936.125          63.750  
   1574196.812      641942.956          63.750  
   3487841.716     1712166.458          63.750  
    -32618.991     -763347.628          63.750  
 23  6  5 17 56  9.6790000  0  7G19G 3G 6G 9G31G17G 4
   2576272.838     1375836.981          63.750  
    186276.227     1086941.089          63.750  
   1498346.855    -1618789.362          63.750  
   1561931.622    -2349653.394          63.750  
   1574429.226      643161.409          63.750  
   3488365.761     1714894.996          63.750  
    -32794.163     -764267.396          63.750  
 23  6  5 17 56 10.6790000  0  7G19G 3G 6G 9G31G17G 4
   2576669.051     1377926.464          63.750  
    186562.617     1088444.615          63.750  
   1497947.066    -1620900.082          63.750  
   1561416.626    -2352370.307          63.750  
   1574659.971      644380.588          63.750  
   3488883.106     1717623.846          63.750  
    -32969.610     -765186.609          63.750  
 23  6  5 17 56 11.6790000  0  7G19G 3G 6G 9G31G17G 4
   2577067.576     1380016.598          63.750  
    186848.304     1089948.659          63.750  
   1497544.861    -1623010.213          63.750  
   1560899.164    -2355086.813          63.750  
   1574891.909      645600.543          63.750  
   3489402.039     1720353.051          63.750  
    -33144.016     -766105.233          63.750  
 23  6  5 17 56 12.6790000  0  7G19G 3G 6G 9G31G17G 4
   2577467.067     1382107.316          63.750  
    187134.688     1091453.146          63.750  
   1497143.536    -1625119.823          63.750  
   1560381.404    -2357802.954          63.750  
   1575122.940      646821.193          63.750  
   3489921.466     1723082.541          63.750  
    -33319.852     -767023.326          63.750  
 23  6  5 17 56 13.6790000  0  7G19G 3G 6G 9G31G17G 4
   2577862.556     1384198.378          63.750  
    187421.685     1092957.879          63.750  
   1496741.411    -1627229.122          63.750  
   1559863.453    -2360518.959          63.750  
   1575355.989      648042.354          63.750  
   3490437.603     1725812.130          63.750  
    -33495.425     -767941.090          63.750  
 23  6  5 17 56 14.6790000  0  7G19G 3G 6G 9G31G17G 4
   2578257.941     1386289.853          63.750  
    187707.652     1094462.907          63.750  
   1496340.569    -1629338.058          63.750  
   1559346.639    -2363234.778          63.750  
   1575587.080      649264.059          63.750  
   3490957.293     1728541.854          63.750  
    -33669.358     -768858.479          63.750  
 23  6  5 17 56 15.6790000  0  7G19G 3G 6G 9G31G17G 4
   2578657.726     1388381.990          63.750  
    187992.771     1095968.469          63.750  
   1495937.910    -1631446.395          63.750  
   1558829.443    -2365950.172          63.750  
   1575820.274      650486.525          63.750  
   3491472.714     1731271.927          63.750  
    -33845.320     -769775.272          63.750  
 23  6  5 17 56 16.6790000  0  7G19G 3G 6G 9G31G17G 4
   2579053.458     1390474.719          63.750  
    188281.457     1097474.516          63.750  
   1495536.805    -1633554.182          63.750  
   1558312.197    -2368665.186          63.750  
   1576055.408      651709.751          63.750  
   3491995.842     1734002.309          63.750  
    -34017.286     -770691.490          63.750  
 23  6  5 17 56 17.6790000  0  7G19G 3G 6G 9G31G17G 4
   2579451.439     1392567.717          63.750  
    188568.126     1098980.671          63.750  
   1495136.252    -1635661.762          63.750  
   1557795.707    -2371380.163          63.750  
   1576287.330      652933.352          63.750  
   3492513.718     1736732.692          63.750  
    -34192.788     -771607.517          63.750  
 23  6  5 17 56 18.6790000  0  7G19G 3G 6G 9G31G17G 4
   2579849.597     1394661.148          63.750  
    188856.172     1100487.183          63.750  
   1494734.129    -1637768.937          63.750  
   1557279.809    -2374094.901          63.750  
   1576518.746      654157.553          63.750  
   3493030.921     1739463.245          63.750  
    -34368.080     -772523.115          63.750  
 23  6  5 17 56 19.6790000  0  7G19G 3G 6G 9G31G17G 4
   2580250.257     1396755.163          63.750  
    189141.404     1101994.146          63.750  
   1494334.364    -1639875.594          63.750  
   1556761.952    -2376809.301          63.750  
   1576752.943      655382.449          63.750  
   3493555.268     1742194.058          63.750  
    -34540.424     -773438.179          63.750  
 23  6  5 17 56 20.6790000  0  7G19G 3G 6G 9G31G17G 4
   2580648.965     1398850.029          63.750  
    189429.194     1103501.842          63.750  
   1493933.768    -1641981.446          63.750  
   1556246.758    -2379523.076          63.750  
   1576987.202      656608.341          63.750  
   3494074.734     1744925.466          63.750  
    -34714.458     -774352.431          63.750  
 23  6  5 17 56 21.6790000  0  7G19G 3G 6G 9G31G17G 4
   2581047.744     1400945.532          63.750  
    189714.196     1105010.053          63.750  
   1493533.653    -1644086.706          63.750  
   1555731.518    -2382236.422          63.750  
   1577219.093      657834.997          63.750  
   3494596.878     1747657.229          63.750  
    -34889.236     -775266.093          63.750  
 23  6  5 17 56 22.6790000  0  7G19G 3G 6G 9G31G17G 4
   2581446.995     1403041.183          63.750  
    190001.862     1106518.299          63.750  
   1493131.672    -1646191.877          63.750  
   1555215.126    -2384949.854          63.750  
   1577456.006      659061.937          63.750  
   3495114.556     1750388.820          63.750  
    -35064.126     -776179.661          63.750  
 23  6  5 17 56 23.6790000  0  7G19G 3G 6G 9G31G17G 4
   2581844.437     1405137.819          63.750  
    190288.065     1108027.396          63.750  
   1492732.440    -1648296.096          63.750  
   1554697.299    -2387662.518          63.750  
   1577687.267      660290.004          63.750  
   3495639.695     1753121.143          63.750  
    -35237.985     -777092.249          63.750  
 23  6  5 17 56 24.6790000  0  7G19G 3G 6G 9G31G17G 4
   2582243.844     1407235.133          63.750  
    190574.021     1109537.062          63.750  
   1492330.667    -1650399.699          63.750  
   1554182.523    -2390374.723          63.750  
   1577921.904      661518.877          63.750  
   3496156.397     1755853.847          63.750  
    -35410.737     -778004.226          63.750  
 23  6  5 17 56 25.6790000  0  7G19G 3G 6G 9G31G17G 4
   2582644.907     1409332.710          63.750  
    190860.950     1111046.867          63.750  
   1491930.593    -1652503.081          63.750  
   1553666.603    -2393086.872          63.750  
   1578155.710      662748.148          63.750  
   3496676.457     1758586.552          63.750  
    -35585.268     -778915.968          63.750  
 23  6  5 17 56 26.6790000  0  7G19G 3G 6G 9G31G17G 4
   2583043.512     1411430.864          63.750  
    191147.564     1112557.140          63.750  
   1491531.521    -1654605.941          63.750  
   1553150.357    -2395798.685          63.750  
   1578388.249      663978.143          63.750  
   3497199.288     1761319.539          63.750  
    -35758.217     -779827.175          63.750  
 23  6  5 17 56 27.6790000  0  7G19G 3G 6G 9G31G17G 4
   2583442.740     1413529.387          63.750  
    191433.157     1114067.640          63.750  
   1491131.463    -1656708.477          63.750  
   1552634.742    -2398510.347          63.750  
   1578623.056      665208.622          63.750  
   3497712.684     1764052.603          63.750  
    -35931.829     -780738.060          63.750  
 23  6  5 17 56 28.6790000  0  7G19G 3G 6G 9G31G17G 4
   2583841.829     1415629.073          63.750  
    191721.194     1115579.196          63.750  
   1490730.109    -1658809.900          63.750  
   1552118.537    -2401221.060          63.750  
   1578857.071      666440.413          63.750  
   3498237.910     1766786.583          63.750  
    -36105.223     -781647.805          63.750  
 23  6  5 17 56 29.6790000  0  7G19G 3G 6G 9G31G17G 4
   2584242.312     1417729.422          63.750  
    192009.309     1117091.298          63.750  
   1490332.032    -1660910.713          63.750  
   1551602.037    -2403931.349          63.750  
   1579091.878      667672.977          63.750  
   3498754.313     1769520.899          63.750  
    -36278.372     -782556.968          63.750  
 23  6  5 17 56 30.6790000  0  7G19G 3G 6G 9G31G17G 4
   2584641.326     1419830.351          63.750  
    192296.688     1118603.847          63.750  
   1489930.269    -1663010.998          63.750  
   1551086.283    -2406641.274          63.750  
   1579327.574      668906.268          63.750  
   3499274.829     1772255.544          63.750  
    -36452.625     -783465.556          63.750  
 23  6  5 17 56 31.6790000  0  7G19G 3G 6G 9G31G17G 4
   2585039.831     1421932.110          63.750  
    192584.230     1120117.159          63.750  
   1489530.755    -1665110.466          63.750  
   1550570.788    -2409350.556          63.750  
   1579561.813      670140.544          63.750  
   3499794.626     1774990.771          63.750  
    -36625.839     -784373.329          63.750  
 23  6  5 17 56 32.6790000  0  7G19G 3G 6G 9G31G17G 4
   2585438.380     1424033.533          63.750  
    192875.577     1121629.980          63.750  
   1489131.707    -1667210.336          63.750  
   1550055.013    -2412060.415          63.750  
   1579797.514      671374.599          63.750  
   3500311.945     1777725.336          63.750  
    -36799.032     -785281.509          63.750  
 23  6  5 17 56 33.6790000  0  7G19G 3G 6G 9G31G17G 4
   2585838.240     1426135.953          63.750  
    193167.260     1123143.665          63.750  
   1488731.483    -1669309.283          63.750  
   1549539.291    -2414769.515          63.750  
   1580031.460      672609.774          63.750  
   3500833.776     1780460.596          63.750  
    -36970.458     -786188.745          63.750  
